SALE TYPE,SOLD DATE,PROPERTY TYPE,ADDRESS,CITY,STATE,ZIP,PRICE,BEDS,BATHS,LOCATION,SQUARE FEET,LOT SIZE,YEAR BUILT,DAYS ON MARKET,$/SQUARE FEET,HOA/MONTH,STATUS,NEXT OPEN HOUSE START TIME,NEXT OPEN HOUSE END TIME,URL (SEE http://www.redfin.com/buy-a-home/comparative-market-analysis FOR INFO ON PRICING),SOURCE,MLS#,FAVORITE,INTERESTED,LATITUDE,LONGITUDE
PAST SALE,December-15-2016,Single Family Residential,276 Elm Ave,SAN BRUNO,CA,94066,1010000,3,2.0,SAN BRUNO,1370,2500,1951,411,737,,Sold,,,http://www.redfin.com/CA/San-Bruno/276-Elm-Ave-94066/home/1209787,MLSListings,ML81631626,N,Y,37.6181352,-122.4118925
PAST SALE,December-13-2017,Single Family Residential,1631 Monterey Dr,SAN BRUNO,CA,94066,1540000,4,3.0,SAN BRUNO,2080,5040,1963,48,740,,Sold,,,http://www.redfin.com/CA/San-Bruno/1631-Monterey-Dr-94066/home/628187,MLSListings,ML81685083,N,Y,37.6213793,-122.4504182
PAST SALE,October-9-2017,Single Family Residential,213 Outlook Heights Ct,PACIFICA,CA,94044,1330000,4,2.5,PACIFICA,2320,4932,2001,113,573,120,Sold,,,http://www.redfin.com/CA/Pacifica/213-Outlook-Heights-Ct-94044/home/1003060,MLSListings,ML81676199,N,Y,37.6331147,-122.4735997
PAST SALE,November-2-2017,Condo/Co-op,1396 El Camino Real #210,MILLBRAE,CA,94030,795000,2,2.0,MILLBRAE,926,37089,1980,89,859,417,Sold,,,http://www.redfin.com/CA/Millbrae/1396-El-Camino-Real-94030/unit-210/home/1737926,MLSListings,ML81677689,N,Y,37.6107338,-122.4010926
PAST SALE,January-5-2018,Single Family Residential,360 Alcott Rd,SAN BRUNO,CA,94066,1160000,3,2.0,SAN BRUNO,1160,5992,1958,25,1000,,Sold,,,http://www.redfin.com/CA/San-Bruno/360-Alcott-Rd-94066/home/2058642,MLSListings,ML81685425,N,Y,37.6148475,-122.4336454
PAST SALE,March-5-2015,Condo/Co-op,417 Piccadilly Pl #2,San Bruno,CA,94066,365000,1,1.0,San Bruno,540,,1971,1062,676,315,Sold,,,http://www.redfin.com/CA/San-Bruno/417-Piccadilly-Pl-94066/unit-2/home/1769740,San Francisco MLS,429179,N,Y,37.631451,-122.431109
PAST SALE,December-29-2017,Condo/Co-op,1031 Cherry Ave #3,SAN BRUNO,CA,94066,561000,1,1.0,SAN BRUNO,832,176288,1979,32,674,346,Sold,,,http://www.redfin.com/CA/San-Bruno/1031-Cherry-Ave-94066/unit-3/home/1137080,MLSListings,ML81685957,N,Y,37.630209,-122.428338
PAST SALE,December-9-2015,Condo/Co-op,1126 Cherry Ave #52,SAN BRUNO,CA,94066,310000,0,1.0,SAN BRUNO,450,450,1971,783,689,291,Sold,,,http://www.redfin.com/CA/San-Bruno/1126-Cherry-Ave-94066/unit-52/home/1029940,MLSListings,ML81522379,N,Y,37.63186,-122.427212
PAST SALE,March-9-2016,Single Family Residential,382 W Angus Ave,SAN BRUNO,CA,94066,705000,2,1.0,SAN BRUNO,920,2748,1922,692,766,,Sold,,,http://www.redfin.com/CA/San-Bruno/382-Angus-Ave-W-94066/home/1790612,MLSListings,ML81561385,N,Y,37.6262835,-122.4121896
PAST SALE,,Condo/Co-op,1396 El Camino Real #311,Millbrae,CA,94030,670000,2,2.0,,1130,,1980,,593,,,,,http://www.redfin.com/CA/Millbrae/1396-El-Camino-Real-94030/unit-311/home/2055558,,,N,Y,37.6107338,-122.4010926
PAST SALE,February-28-2017,Condo/Co-op,6254 Shelter Creek Ln #54,SAN BRUNO,CA,94066,335000,0,1.0,SAN BRUNO,490,,1972,336,684,342,Sold,,,http://www.redfin.com/CA/San-Bruno/6254-Shelter-Creek-Ln-94066/unit-54/home/109651554,MLSListings,ML81631486,N,Y,37.619843,-122.428366
PAST SALE,,Condo/Co-op,8227 Shelter Creek Ln,San Bruno,CA,94066,415000,1,1.0,,680,,1972,,610,,,,,http://www.redfin.com/CA/San-Bruno/8227-Shelter-Creek-Ln-94066/home/961881,,,N,Y,37.619843,-122.428366
PAST SALE,August-5-2015,Single Family Residential,2971 Crestmoor Dr,SAN BRUNO,CA,94066,1120000,3,2.0,SAN BRUNO,1690,5824,1957,909,663,,Sold,,,http://www.redfin.com/CA/San-Bruno/2971-Crestmoor-Dr-94066/home/1692119,MLSListings,ML81484647,N,Y,37.6152818,-122.4355597
PAST SALE,,Single Family Residential,2205 Charleston Ave,San Bruno,CA,94066,1025000,3,2.0,,1330,6930,1956,,771,,,,,http://www.redfin.com/CA/San-Bruno/2205-Charleston-Ave-94066/home/2016316,,,N,Y,37.622601,-122.4317803
PAST SALE,,Condo/Co-op,215 Boardwalk Ave #197,San Bruno,CA,94066,408000,1,1.0,,650,,1971,,628,,,,,http://www.redfin.com/CA/San-Bruno/215-Boardwalk-Ave-94066/unit-197/home/959741,,,N,Y,37.630867,-122.428565
PAST SALE,June-23-2016,Single Family Residential,3690 Sunset Dr,SAN BRUNO,CA,94066,975000,3,2.0,SAN BRUNO,1160,5520,1959,586,841,,Sold,,,http://www.redfin.com/CA/San-Bruno/3690-Sunset-Dr-94066/home/1901057,MLSListings,ML81585392,N,Y,37.6318086,-122.4718455
PAST SALE,July-19-2016,Single Family Residential,103 Quail Point Cir,SAN BRUNO,CA,94066,910000,3,2.0,SAN BRUNO,1610,1324,1982,560,565,390,Sold,,,http://www.redfin.com/CA/San-Bruno/103-Quail-Point-Cir-94066/home/1799889,MLSListings,ML81590000,N,Y,37.628049,-122.438866
PAST SALE,February-23-2017,Single Family Residential,3510 Bering Dr,SAN BRUNO,CA,94066,1525000,5,3.5,SAN BRUNO,2587,6405,2004,341,589,85,Sold,,,http://www.redfin.com/CA/San-Bruno/3510-Bering-Dr-94066/home/1466969,MLSListings,ML81636098,N,Y,37.6327349,-122.4631282
PAST SALE,July-9-2015,Single Family Residential,2640 Valleywood Dr,SAN BRUNO,CA,94066,955000,3,2.0,SAN BRUNO,1100,6100,1958,936,868,,Sold,,,http://www.redfin.com/CA/San-Bruno/2640-Valleywood-Dr-94066/home/623423,MLSListings,ML81484122,N,Y,37.6313766,-122.4475805
PAST SALE,July-15-2016,Single Family Residential,3201 Susan Dr,SAN BRUNO,CA,94066,880000,3,2.0,SAN BRUNO,1190,6098,1960,564,739,,Sold,,,http://www.redfin.com/CA/San-Bruno/3201-Susan-Dr-94066/home/2055978,MLSListings,ML81583965,N,Y,37.6346385,-122.458917
PAST SALE,October-7-2015,Single Family Residential,3100 College Dr,SAN BRUNO,CA,94066,878000,3,2.0,SAN BRUNO,2070,7150,1960,846,424,,Sold,,,http://www.redfin.com/CA/San-Bruno/3100-College-Dr-94066/home/1747649,MLSListings,ML81499754,N,Y,37.632924,-122.4582739
PAST SALE,November-12-2015,Single Family Residential,2801 Berkshire Dr,SAN BRUNO,CA,94066,935000,3,2.0,SAN BRUNO,1820,5400,1961,810,514,,Sold,,,http://www.redfin.com/CA/San-Bruno/2801-Berkshire-Dr-94066/home/1546615,MLSListings,ML81517079,N,Y,37.6339861,-122.4524816
PAST SALE,August-24-2016,Single Family Residential,2880 Muirfield Cir,SAN BRUNO,CA,94066,921000,4,2.0,SAN BRUNO,1440,5000,1963,524,640,,Sold,,,http://www.redfin.com/CA/San-Bruno/2880-Muirfield-Cir-94066/home/625511,MLSListings,ML81594199,N,Y,37.6396969,-122.4575433
PAST SALE,December-17-2015,Single Family Residential,2820 Oakmont Dr,SAN BRUNO,CA,94066,1100000,5,2.0,SAN BRUNO,1960,5000,1963,775,561,,Sold,,,http://www.redfin.com/CA/San-Bruno/2820-Oakmont-Dr-94066/home/2031190,MLSListings,ML81520903,N,Y,37.6385564,-122.4585358
PAST SALE,April-3-2015,Single Family Residential,3380 Longview Dr,SAN BRUNO,CA,94066,888000,3,2.0,SAN BRUNO,1300,14450,1962,1033,683,,Sold,,,http://www.redfin.com/CA/San-Bruno/3380-Longview-Dr-94066/home/626300,MLSListings,ML81454693,N,Y,37.6283571,-122.4582169
PAST SALE,October-1-2015,Single Family Residential,280 Amador Ave,SAN BRUNO,CA,94066,1150000,4,3.0,SAN BRUNO,1880,5916,1965,852,612,,Sold,,,http://www.redfin.com/CA/San-Bruno/280-Amador-Ave-94066/home/1579780,MLSListings,ML81498745,N,Y,37.6245926,-122.451369
PAST SALE,May-5-2016,Single Family Residential,1110 Glenview Dr,SAN BRUNO,CA,94066,1450000,4,3.0,SAN BRUNO,2259,5100,2016,635,642,,Sold,,,http://www.redfin.com/CA/San-Bruno/1110-Glenview-Dr-94066/home/1022063,MLSListings,ML81576765,N,Y,37.6236488,-122.4418284
PAST SALE,January-5-2016,Multi-Family (2-4 Unit),257 Milton Ave,San Bruno,CA,94066,788000,4,1.0,San Bruno,,2500,1926,756,,,Sold,,,http://www.redfin.com/CA/San-Bruno/257-Milton-Ave-94066/home/642354,San Francisco MLS,438099,N,Y,37.6200692,-122.4069004
PAST SALE,June-7-2016,Single Family Residential,155 Brentwood Dr,SOUTH SAN FRANCISCO,CA,94080,760000,2,1.0,SOUTH SAN FRANCISCO,990,4499,1946,602,768,,Sold,,,http://www.redfin.com/CA/South-San-Francisco/155-Brentwood-Dr-94080/home/1605510,MLSListings,ML81584013,N,Y,37.6405721,-122.4262779
PAST SALE,May-24-2017,Single Family Residential,890 Glenview Dr,SAN BRUNO,CA,94066,1029000,3,2.0,SAN BRUNO,1330,5040,1959,251,774,,Sold,,,http://www.redfin.com/CA/San-Bruno/890-Glenview-Dr-94066/home/1450599,MLSListings,ML81644680,N,Y,37.6207827,-122.4412926
PAST SALE,,Single Family Residential,2570 Rosewood Dr,San Bruno,CA,94066,1257000,3,2.0,,1740,5720,1958,,722,,,,,http://www.redfin.com/CA/San-Bruno/2570-Rosewood-Dr-94066/home/633681,,,N,Y,37.6150684,-122.434947
PAST SALE,,Condo/Co-op,410 Boardwalk Ave Apt 14,San Bruno,CA,94066,390000,1,1.0,,540,,1971,,722,,,,,http://www.redfin.com/CA/San-Bruno/410-Boardwalk-Ave-94066/unit-14/home/961634,,,N,Y,37.6311523,-122.4301865
PAST SALE,August-15-2017,Single Family Residential,2451 Whitman Way,SAN BRUNO,CA,94066,1305000,3,2.0,SAN BRUNO,1300,7480,1957,168,1004,,Sold,,,http://www.redfin.com/CA/San-Bruno/2451-Whitman-Way-94066/home/2031234,MLSListings,ML81669593,N,Y,37.6176962,-122.4352588
PAST SALE,July-27-2017,Single Family Residential,2380 Princeton Dr,SAN BRUNO,CA,94066,1355000,3,2.0,SAN BRUNO,1300,5151,1958,187,1042,,Sold,,,http://www.redfin.com/CA/San-Bruno/2380-Princeton-Dr-94066/home/1682991,MLSListings,ML81656266,N,Y,37.6188274,-122.4333381
PAST SALE,October-19-2016,Single Family Residential,126 Oxford Ln,SAN BRUNO,CA,94066,786000,3,1.5,SAN BRUNO,1570,1559,1965,468,501,54,Sold,,,http://www.redfin.com/CA/San-Bruno/126-Oxford-Ln-94066/home/1198776,MLSListings,ML81600993,N,Y,37.6075871,-122.4291888
PAST SALE,March-24-2017,Multi-Family (5+ Unit),752 Masson Ave,San Bruno,CA,94066,1500000,5,,San Bruno,4272,4700,1962,312,351,,Sold,,,http://www.redfin.com/CA/San-Bruno/752-Masson-Ave-94066/home/637854,San Francisco MLS,452788,N,Y,37.6290875,-122.4128149
PAST SALE,,Single Family Residential,724 2nd Ave,San Bruno,CA,94066,120000,3,2.0,,1000,3700,1913,,120,,,,,http://www.redfin.com/CA/San-Bruno/724-2nd-Ave-94066/home/637681,,,N,Y,37.6292959,-122.409515
PAST SALE,April-20-2017,Single Family Residential,625 Easton Ave,SAN BRUNO,CA,94066,1450000,5,3.5,SAN BRUNO,3945,6994,1911,285,368,,Sold,,,http://www.redfin.com/CA/San-Bruno/625-Easton-Ave-94066/home/1672778,MLSListings,ML81643514,N,Y,37.6264689,-122.4128182
PAST SALE,,Single Family Residential,621 Elm Ave,San Bruno,CA,94066,353000,2,1.0,,1140,5000,1941,,310,,,,,http://www.redfin.com/CA/San-Bruno/621-Elm-Ave-94066/home/1049684,,,N,Y,37.6249401,-122.4173236
PAST SALE,,Single Family Residential,3250 Crestmoor Dr,San Bruno,CA,94066,1100000,3,2.0,,1810,5000,1959,,608,,,,,http://www.redfin.com/CA/San-Bruno/3250-Crestmoor-Dr-94066/home/1045981,,,N,Y,37.6115087,-122.4340326
PAST SALE,August-12-2015,Single Family Residential,469 Hawthorne Ave,SAN BRUNO,CA,94066,930000,3,2.5,SAN BRUNO,1760,5450,1955,902,528,,Sold,,,http://www.redfin.com/CA/San-Bruno/469-Hawthorne-Ave-94066/home/1303784,MLSListings,ML81472399,N,Y,37.6173922,-122.4227983
PAST SALE,June-9-2017,Single Family Residential,450 Madison Ave,SAN BRUNO,CA,94066,1365000,3,2.0,SAN BRUNO,1300,5400,1958,235,1050,,Sold,,,http://www.redfin.com/CA/San-Bruno/450-Madison-Ave-94066/home/1022088,MLSListings,ML81650785,N,Y,37.6169753,-122.4311007
PAST SALE,July-28-2017,Single Family Residential,110 Kent Ct,SAN BRUNO,CA,94066,1160000,3,2.0,SAN BRUNO,1150,6600,1957,186,1009,,Sold,,,http://www.redfin.com/CA/San-Bruno/110-Kent-Ct-94066/home/1484347,MLSListings,ML81656065,N,Y,37.6172147,-122.4373111
PAST SALE,September-5-2017,Single Family Residential,2481 Bennington Dr,SAN BRUNO,CA,94066,1128888,3,2.0,SAN BRUNO,1430,5940,1958,147,789,,Sold,,,http://www.redfin.com/CA/San-Bruno/2481-Bennington-Dr-94066/home/632036,MLSListings,ML81672567,N,Y,37.6130881,-122.4327735
PAST SALE,September-26-2017,Single Family Residential,2551 Bennington Ave,SAN BRUNO,CA,94066,1230000,3,2.0,SAN BRUNO,1150,5950,1957,126,1070,,Sold,,,http://www.redfin.com/CA/San-Bruno/2551-Bennington-Dr-94066/home/633727,MLSListings,ML81674993,N,Y,37.6131603,-122.434072
PAST SALE,September-29-2017,Single Family Residential,2341 Whitman Way,SAN BRUNO,CA,94066,1258000,4,2.0,SAN BRUNO,1768,5000,1958,123,712,,Sold,,,http://www.redfin.com/CA/San-Bruno/2341-Whitman-Way-94066/home/1854540,MLSListings,ML81677040,N,Y,37.6173572,-122.4323044
PAST SALE,November-30-2017,Single Family Residential,380 Lowell Ave,SAN BRUNO,CA,94066,1375000,3,2.5,SAN BRUNO,1790,6460,1959,61,768,,Sold,,,http://www.redfin.com/CA/San-Bruno/380-Lowell-Ave-94066/home/1189692,MLSListings,ML81679769,N,Y,37.6149697,-122.4310238
PAST SALE,,Single Family Residential,421 Madison Ave,San Bruno,CA,94066,193000,3,2.0,,1560,5618,1958,,124,,,,,http://www.redfin.com/CA/San-Bruno/421-Madison-Ave-94066/home/1998253,,,N,Y,37.6159864,-122.4314189
PAST SALE,July-7-2017,Single Family Residential,240 Madison Ave,SAN BRUNO,CA,94066,1275000,3,2.0,SAN BRUNO,1450,5238,1957,207,879,,Sold,,,http://www.redfin.com/CA/San-Bruno/240-Madison-Ave-94066/home/631003,MLSListings,ML81654010,N,Y,37.613357,-122.4297372
PAST SALE,November-14-2017,Single Family Residential,2312 Shannon Dr,SOUTH SAN FRANCISCO,CA,94080,1410000,4,2.5,SOUTH SAN FRANCISCO,2140,6000,1968,77,659,,Sold,,,http://www.redfin.com/CA/South-San-Francisco/2312-Shannon-Dr-94080/home/2055458,MLSListings,ML81680364,N,Y,37.6401981,-122.4576819
PAST SALE,March-31-2017,Single Family Residential,595 Bayview Ave,MILLBRAE,CA,94030,1019000,2,1.0,MILLBRAE,970,4850,1948,305,1051,,Sold,,,http://www.redfin.com/CA/Millbrae/595-Bayview-Ave-94030/home/1503019,MLSListings,ML81638224,N,Y,37.6098039,-122.4158975
PAST SALE,,Single Family Residential,274 Georgia Ave,San Bruno,CA,94066,158500,2,1.0,,850,3040,1941,,186,,,,,http://www.redfin.com/CA/San-Bruno/274-Georgia-Ave-94066/home/1227212,,,N,Y,37.6207663,-122.4078824
PAST SALE,April-24-2017,Single Family Residential,1104 Crystal Springs Rd,SAN BRUNO,CA,94066,950000,2,1.5,SAN BRUNO,1390,4750,1937,281,683,,Sold,,,http://www.redfin.com/CA/San-Bruno/1104-Crystal-Springs-Rd-94066/home/1750411,MLSListings,ML81642403,N,Y,37.6176635,-122.4140387
PAST SALE,April-20-2017,Single Family Residential,1691 Parkview Dr,SAN BRUNO,CA,94066,1340000,3,1.5,SAN BRUNO,1520,5000,1955,285,882,,Sold,,,http://www.redfin.com/CA/San-Bruno/1691-Parkview-Dr-94066/home/642788,MLSListings,ML81641786,N,Y,37.6115314,-122.4146535
PAST SALE,April-26-2017,Single Family Residential,526 Poplar Ave,SAN BRUNO,CA,94066,1300000,4,3.0,SAN BRUNO,2090,2500,1931,279,622,,Sold,,,http://www.redfin.com/CA/San-Bruno/526-Poplar-Ave-94066/home/1467276,MLSListings,ML81641164,N,Y,37.6232527,-122.4146214
PAST SALE,July-10-2017,Single Family Residential,256 Linden Ave,SAN BRUNO,CA,94066,1320000,4,3.0,SAN BRUNO,2280,3800,1938,204,579,,Sold,,,http://www.redfin.com/CA/San-Bruno/256-Linden-Ave-94066/home/2029079,MLSListings,ML81643477,N,Y,37.618763,-122.410285
PAST SALE,May-31-2017,Single Family Residential,1461 Santa Lucia Ave,SAN BRUNO,CA,94066,850000,3,1.0,SAN BRUNO,960,5500,1943,244,885,,Sold,,,http://www.redfin.com/CA/San-Bruno/1461-Santa-Lucia-Ave-94066/home/1758857,MLSListings,ML81645893,N,Y,37.612771,-122.4132658
PAST SALE,May-19-2017,Single Family Residential,144 Linden Ave,SAN BRUNO,CA,94066,981000,3,2.0,SAN BRUNO,1250,3800,1936,256,785,,Sold,,,http://www.redfin.com/CA/San-Bruno/144-Linden-Ave-94066/home/1772232,MLSListings,ML81646833,N,Y,37.6162749,-122.4082198
PAST SALE,July-31-2017,Single Family Residential,433 Cypress Ave,SAN BRUNO,CA,94066,1065000,3,3.0,SAN BRUNO,1710,5000,1911,183,623,,Sold,,,http://www.redfin.com/CA/San-Bruno/433-Cypress-Ave-94066/home/639321,MLSListings,ML81650112,N,Y,37.6200663,-122.415871
PAST SALE,May-22-2017,Single Family Residential,200 Poplar,SAN BRUNO,CA,94066,1680000,4,3.0,SAN BRUNO,3459,7500,1938,253,486,,Sold,,,http://www.redfin.com/CA/San-Bruno/200-Poplar-Ave-94066/home/1706171,MLSListings,ML81645455,N,Y,37.6173345,-122.410149
PAST SALE,June-30-2017,Single Family Residential,307 Lomita Ave,MILLBRAE,CA,94030,1065000,2,1.0,MILLBRAE,1020,5599,1946,214,1044,,Sold,,,http://www.redfin.com/CA/Millbrae/307-Lomita-Ave-94030/home/1986955,MLSListings,ML81654863,N,Y,37.6130482,-122.4088568
PAST SALE,August-23-2017,Single Family Residential,615 Cypress Ave,MILLBRAE,CA,94030,1258000,3,2.0,MILLBRAE,1430,4959,1946,160,880,,Sold,,,http://www.redfin.com/CA/Millbrae/615-Cypress-Ave-94030/home/1940160,MLSListings,ML81670204,N,Y,37.6118823,-122.4082899
PAST SALE,,Single Family Residential,260 Alcott Rd,San Bruno,CA,94066,962000,4,3.0,,2260,5775,1958,,426,,,,,http://www.redfin.com/CA/San-Bruno/260-Alcott-Rd-94066/home/1368040,,,N,Y,37.6139783,-122.4334918
PAST SALE,September-29-2017,Single Family Residential,880 Crystal Springs Rd,SAN BRUNO,CA,94066,1100000,3,1.5,SAN BRUNO,1690,4350,1947,123,651,,Sold,,,http://www.redfin.com/CA/San-Bruno/880-Crystal-Springs-Rd-94066/home/641601,MLSListings,ML81675732,N,Y,37.6190167,-122.4126633
PAST SALE,September-22-2017,Single Family Residential,381 Poplar Ave,SAN BRUNO,CA,94066,958000,2,1.5,SAN BRUNO,1350,4850,1940,130,710,,Sold,,,http://www.redfin.com/CA/San-Bruno/381-Poplar-Ave-94066/home/1605944,MLSListings,ML81675446,N,Y,37.6203314,-122.4130693
PAST SALE,August-15-2017,Single Family Residential,2500 Crestmoor Dr,SAN BRUNO,CA,94066,1340000,4,2.0,SAN BRUNO,1560,5500,1956,168,859,,Sold,,,http://www.redfin.com/CA/San-Bruno/2500-Crestmoor-Dr-94066/home/2056952,MLSListings,ML81671463,N,Y,37.6215626,-122.4353484
PAST SALE,October-10-2017,Multi-Family (2-4 Unit),502 San Felipe Ave,SAN BRUNO,CA,94066,790000,2,,SAN BRUNO,1885,4100,1951,112,419,,Sold,,,http://www.redfin.com/CA/San-Bruno/502-San-Felipe-Ave-94066/home/1843070,MLSListings,ML81675800,N,Y,37.6181395,-122.408425
PAST SALE,October-18-2017,Single Family Residential,250 Lomita Ave,SAN BRUNO,CA,94066,1280000,3,2.0,SAN BRUNO,1430,4982,1956,104,895,,Sold,,,http://www.redfin.com/CA/San-Bruno/250-Lomita-Ave-94066/home/1994507,MLSListings,ML81681413,N,Y,37.6141616,-122.4079598
PAST SALE,November-14-2017,Single Family Residential,172 Linden Ave,SAN BRUNO,CA,94066,1275000,3,2.0,SAN BRUNO,1210,4750,1944,77,1054,,Sold,,,http://www.redfin.com/CA/San-Bruno/172-Linden-Ave-94066/home/648099,MLSListings,ML81681162,N,Y,37.6167218,-122.4085664
PAST SALE,November-28-2017,Single Family Residential,165 Linden Ave,SAN BRUNO,CA,94066,900000,2,2.0,SAN BRUNO,1020,2500,1949,63,882,,Sold,,,http://www.redfin.com/CA/San-Bruno/165-Linden-Ave-94066/home/648013,MLSListings,ML81684111,N,Y,37.616385,-122.4087969
PAST SALE,December-6-2017,Single Family Residential,476 Elm Ave,SAN BRUNO,CA,94066,950000,2,1.0,SAN BRUNO,1280,3700,1932,55,742,,Sold,,,http://www.redfin.com/CA/San-Bruno/476-Elm-Ave-94066/home/641096,MLSListings,ML81683026,N,Y,37.6215613,-122.4144291
PAST SALE,January-5-2018,Single Family Residential,141 Parkview Dr,SAN BRUNO,CA,94066,1346000,3,2.0,SAN BRUNO,1680,5000,1955,25,801,,Sold,,,http://www.redfin.com/CA/San-Bruno/141-Parkview-Dr-94066/home/642776,MLSListings,ML81685962,N,Y,37.612294,-122.4145468
PAST SALE,January-5-2018,Single Family Residential,185 Acacia Ave,SAN BRUNO,CA,94066,1200000,2,1.0,SAN BRUNO,1620,7500,1938,25,741,,Sold,,,http://www.redfin.com/CA/San-Bruno/185-Acacia-Ave-94066/home/1683088,MLSListings,ML81687048,N,Y,37.6156417,-122.411236
PAST SALE,,Single Family Residential,535 Maple Ave,San Bruno,CA,94066,1240000,4,3.0,,1830,5000,1941,,678,,,,,http://www.redfin.com/CA/San-Bruno/535-Maple-Ave-94066/home/1563771,,,Y,Y,37.6203048,-122.4219688
PAST SALE,,Condo/Co-op,7209 Shelter Creek Ln,San Bruno,CA,94066,253500,0,1.0,,490,,1972,,517,,,,,http://www.redfin.com/CA/San-Bruno/7209-Shelter-Creek-Ln-94066/home/1729230,,,N,Y,37.619843,-122.428366
PAST SALE,April-21-2017,Condo/Co-op,5208 Shelter Creek Ln,SAN BRUNO,CA,94066,422000,1,1.0,SAN BRUNO,680,,1972,284,621,375,Sold,,,http://www.redfin.com/CA/San-Bruno/5208-Shelter-Creek-Ln-94066/home/957373,MLSListings,ML81637168,N,Y,37.619843,-122.428366
PAST SALE,March-15-2017,Condo/Co-op,5335 Shelter Creek Ln,SAN BRUNO,CA,94066,335000,0,1.0,SAN BRUNO,490,,1972,321,684,320,Sold,,,http://www.redfin.com/CA/San-Bruno/5335-Shelter-Creek-Ln-94066/home/1092980,MLSListings,ML81638361,N,Y,37.619843,-122.428366
PAST SALE,March-23-2017,Condo/Co-op,3331 Shelter Creek Ln,SAN BRUNO,CA,94066,417000,1,1.0,SAN BRUNO,680,,1972,313,613,358,Sold,,,http://www.redfin.com/CA/San-Bruno/3331-Shelter-Creek-Ln-94066/home/956712,MLSListings,ML81639032,N,Y,37.619843,-122.428366
PAST SALE,,Condo/Co-op,4209 Shelter Creek Ln,San Bruno,CA,94066,353000,0,1.0,,490,,1972,,720,,,,,http://www.redfin.com/CA/San-Bruno/4209-Shelter-Creek-Ln-94066/home/1921738,,,N,Y,37.619843,-122.428366
PAST SALE,May-23-2017,Condo/Co-op,7323 Shelter Creek Ln,San Bruno,CA,94066,430000,1,1.0,San Bruno,680,,1972,252,632,358,Sold,,,http://www.redfin.com/CA/San-Bruno/7323-Shelter-Creek-Ln-94066/home/2020760,San Francisco MLS,458454,N,Y,37.619843,-122.428366
PAST SALE,May-9-2017,Condo/Co-op,7221 Shelter Creek Ln,SAN BRUNO,CA,94066,341000,0,1.0,SAN BRUNO,490,,1972,266,696,349,Sold,,,http://www.redfin.com/CA/San-Bruno/7221-Shelter-Creek-Ln-94066/home/1558435,MLSListings,ML81642473,N,Y,37.619843,-122.428366
PAST SALE,May-9-2017,Condo/Co-op,1359 Shelter Creek Ln,SAN BRUNO,CA,94066,417000,1,1.0,SAN BRUNO,680,1679615,1972,266,613,375,Sold,,,http://www.redfin.com/CA/San-Bruno/1359-Shelter-Creek-Ln-94066/home/1537234,MLSListings,ML81644901,N,Y,37.619843,-122.428366
PAST SALE,May-11-2017,Condo/Co-op,3317 Shelter Creek Ln,SAN BRUNO,CA,94066,595000,2,2.0,SAN BRUNO,1000,1679615,1972,264,595,409,Sold,,,http://www.redfin.com/CA/San-Bruno/3317-Shelter-Creek-Ln-94066/home/956704,MLSListings,ML81644962,N,Y,37.619843,-122.428366
PAST SALE,,Single Family Residential,778 Pepper Dr,San Bruno,CA,94066,900000,3,1.0,,1200,5520,1952,,750,,,,,http://www.redfin.com/CA/San-Bruno/778-Pepper-Dr-94066/home/1814125,,,N,Y,37.6237774,-122.4266056
PAST SALE,,Condo/Co-op,5340 Shelter Creek Ln,San Bruno,CA,94066,424500,1,1.0,,680,,1972,,624,,,,,http://www.redfin.com/CA/San-Bruno/5340-Shelter-Creek-Ln-94066/home/2022610,,,N,Y,37.619843,-122.428366
PAST SALE,May-31-2017,Condo/Co-op,1337 Shelter Crk,SAN BRUNO,CA,94066,610000,2,2.0,SAN BRUNO,1030,,1972,244,592,413,Sold,,,http://www.redfin.com/CA/San-Bruno/1337-Shelter-Creek-Ln-94066/home/1720239,MLSListings,ML81647776,N,Y,37.619843,-122.428366
PAST SALE,July-18-2017,Condo/Co-op,4148 Shelter Creek Ln,SAN BRUNO,CA,94066,450000,1,1.0,SAN BRUNO,680,1679615,1972,196,662,358,Sold,,,http://www.redfin.com/CA/San-Bruno/4148-Shelter-Creek-Ln-94066/home/1373469,MLSListings,ML81656281,N,Y,37.6198566,-122.428418
PAST SALE,August-22-2017,Condo/Co-op,1104 Shelter Creek Ln,SAN BRUNO,CA,94066,390000,1,1.0,SAN BRUNO,680,1679615,1972,161,574,358,Sold,,,http://www.redfin.com/CA/San-Bruno/1104-Shelter-Creek-Ln-94066/home/1472764,MLSListings,ML81671567,N,Y,37.619843,-122.428366
PAST SALE,August-4-2017,Condo/Co-op,1102 Shelter Creek Ln,SAN BRUNO,CA,94066,450000,1,1.0,SAN BRUNO,680,1679615,1972,179,662,357,Sold,,,http://www.redfin.com/CA/San-Bruno/1102-Shelter-Creek-Ln-94066/home/1777714,MLSListings,ML81672874,N,Y,37.619843,-122.428366
PAST SALE,August-8-2017,Condo/Co-op,5126 Shelter Creek Ln,SAN BRUNO,CA,94066,620000,2,2.0,SAN BRUNO,1000,504,1972,175,620,409,Sold,,,http://www.redfin.com/CA/San-Bruno/5126-Shelter-Creek-Ln-94066/home/1887991,MLSListings,ML81668804,N,Y,37.619843,-122.428366
PAST SALE,September-22-2017,Single Family Residential,645 Cedar Ave,SAN BRUNO,CA,94066,1390000,4,2.5,SAN BRUNO,2100,4900,1952,130,662,,Sold,,,http://www.redfin.com/CA/San-Bruno/645-Cedar-Ave-94066/home/1841018,MLSListings,ML81671938,N,Y,37.6219303,-122.4244954
PAST SALE,September-29-2017,Single Family Residential,530 Hawthorne Ave,SAN BRUNO,CA,94066,1030000,3,2.0,SAN BRUNO,1220,5060,1954,123,844,,Sold,,,http://www.redfin.com/CA/San-Bruno/530-Hawthorne-Ave-94066/home/1924798,MLSListings,ML81676964,N,Y,37.6192349,-122.4236211
PAST SALE,,Condo/Co-op,2154 Shelter Creek Ln,San Bruno,CA,94066,250000,0,1.0,,490,,1972,,510,,,,,http://www.redfin.com/CA/San-Bruno/2154-Shelter-Creek-Ln-94066/home/1985378,,,N,Y,37.619693,-122.4282788
PAST SALE,October-12-2017,Condo/Co-op,2323 Shelter Creek Ln,SAN BRUNO,CA,94066,450000,1,1.0,SAN BRUNO,680,1679615,1972,110,662,358,Sold,,,http://www.redfin.com/CA/San-Bruno/2323-Shelter-Creek-Ln-94066/home/2030275,MLSListings,ML81677050,N,Y,37.619843,-122.428366
PAST SALE,July-3-2017,Condo/Co-op,3240 Shelter Creek Ln,San Bruno,CA,94066,430000,1,1.0,Shelter Creek,680,1679615,1972,211,632,358,Sold,,,http://www.redfin.com/CA/San-Bruno/3240-Shelter-Creek-Ln-94066/home/1400254,EBRD/CCAR/Bay East,40782183,N,Y,37.619843,-122.428366
PAST SALE,November-15-2017,Condo/Co-op,6349 Shelter Creek Ln #6,SAN BRUNO,CA,94066,440000,1,1.0,SAN BRUNO,680,1679615,1972,76,647,358,Sold,,,http://www.redfin.com/CA/San-Bruno/6349-Shelter-Creek-Ln-94066/unit-6/home/144049611,MLSListings,ML81681258,N,Y,37.619843,-122.428366
PAST SALE,October-13-2017,Single Family Residential,583 Hawthorne Ave,SAN BRUNO,CA,94066,1031000,3,1.5,SAN BRUNO,1240,6120,1955,109,831,,Sold,,,http://www.redfin.com/CA/San-Bruno/583-Hawthorne-Ave-94066/home/644043,MLSListings,ML81676169,N,Y,37.6205869,-122.4241301
PAST SALE,October-20-2017,Condo/Co-op,8208 Shelter Creek Ln,SAN BRUNO,CA,94066,459000,1,1.0,SAN BRUNO,680,1679615,1972,102,675,358,Sold,,,http://www.redfin.com/CA/San-Bruno/8208-Shelter-Creek-Ln-94066/home/1877625,MLSListings,ML81676923,N,Y,37.619843,-122.428366
PAST SALE,October-31-2017,Condo/Co-op,3244 Shelter Creek Ln,SAN BRUNO,CA,94066,627500,2,2.0,SAN BRUNO,1000,1679615,1972,91,628,409,Sold,,,http://www.redfin.com/CA/San-Bruno/3244-Shelter-Creek-Ln-94066/home/1400262,MLSListings,ML81676960,N,Y,37.619843,-122.428366
PAST SALE,November-15-2017,Condo/Co-op,6349 Shelter Creek Ln,San Bruno,CA,94066,440000,1,1.0,San Bruno,680,,1972,76,647,349,Sold,,,http://www.redfin.com/CA/San-Bruno/6349-Shelter-Creek-Ln-94066/home/1976000,San Francisco MLS,463908,N,Y,37.619843,-122.428366
PAST SALE,December-22-2017,Condo/Co-op,4240 Shelter Creek Ln #240,SAN BRUNO,CA,94066,451000,1,1.0,SAN BRUNO,680,1679615,1972,39,663,358,Sold,,,http://www.redfin.com/CA/San-Bruno/4240-Shelter-Creek-Ln-94066/unit-240/home/144328365,MLSListings,ML81685085,N,Y,37.619843,-122.428366
PAST SALE,December-22-2017,Condo/Co-op,4252 Shelter Creek Ln,SAN BRUNO,CA,94066,618000,2,2.0,SAN BRUNO,1000,1679615,1972,39,618,420,Sold,,,http://www.redfin.com/CA/San-Bruno/4252-Shelter-Creek-Ln-94066/home/1763188,MLSListings,ML81684381,N,Y,37.619843,-122.428366
PAST SALE,,Condo/Co-op,4240 Shelter Creek Ln,San Bruno,CA,94066,451000,1,1.0,,680,,1972,,663,,,,,http://www.redfin.com/CA/San-Bruno/4240-Shelter-Creek-Ln-94066/home/960592,,,N,Y,37.619843,-122.428366
PAST SALE,December-22-2017,Condo/Co-op,4103 Shelter Creek Ln,SAN BRUNO,CA,94066,438000,1,1.0,SAN BRUNO,680,1679615,1972,39,644,357,Sold,,,http://www.redfin.com/CA/San-Bruno/4103-Shelter-Creek-Ln-94066/home/1052532,MLSListings,ML81681118,N,Y,37.619843,-122.428366
PAST SALE,August-25-2017,Single Family Residential,207 Manor Dr,SOUTH SAN FRANCISCO,CA,94080,878000,2,1.0,SOUTH SAN FRANCISCO,990,4500,1946,158,887,,Sold,,,http://www.redfin.com/CA/South-San-Francisco/207-Manor-Dr-94080/home/1421185,MLSListings,ML81672755,N,Y,37.6394429,-122.4267744
PAST SALE,November-18-2016,Single Family Residential,3691 Elston Dr,SAN BRUNO,CA,94066,916000,3,2.0,SAN BRUNO,1190,5100,1960,438,770,,Sold,,,http://www.redfin.com/CA/San-Bruno/3691-Elston-Dr-94066/home/625196,MLSListings,ML81627046,N,Y,37.6354414,-122.4622147
PAST SALE,,Single Family Residential,160 Tulare Dr,San Bruno,CA,94066,860000,4,2.0,,2080,5406,1963,,413,,,,,http://www.redfin.com/CA/San-Bruno/160-Tulare-Dr-94066/home/625988,,,N,Y,37.6215208,-122.4496599
PAST SALE,,Single Family Residential,2641 Chabot Dr,San Bruno,CA,94066,269500,3,2.0,,1510,6200,1962,,178,,,,,http://www.redfin.com/CA/San-Bruno/2641-Chabot-Dr-94066/home/625836,,,N,Y,37.6339398,-122.4511486
PAST SALE,,Single Family Residential,3521 Sneath Ln,San Bruno,CA,94066,1258000,4,2.0,,2050,5400,1967,,614,,,,,http://www.redfin.com/CA/San-Bruno/3521-Sneath-Ln-94066/home/1246361,,,N,Y,37.6227141,-122.4533746
PAST SALE,June-7-2017,Single Family Residential,141 Lassen Dr,SAN BRUNO,CA,94066,1190000,4,2.0,SAN BRUNO,1848,5335,1964,237,644,,Sold,,,http://www.redfin.com/CA/San-Bruno/141-Lassen-Dr-94066/home/1962142,MLSListings,ML81642840,N,Y,37.6197579,-122.4508619
PAST SALE,July-11-2017,Single Family Residential,2465 Olympic Dr,SOUTH SAN FRANCISCO,CA,94080,990000,4,2.0,SOUTH SAN FRANCISCO,1500,5500,1963,203,660,,Sold,,,http://www.redfin.com/CA/South-San-Francisco/2465-Olympic-Dr-94080/home/1308632,MLSListings,ML81653877,N,Y,37.6395098,-122.4541257
PAST SALE,May-31-2017,Single Family Residential,2901 Medina Dr,SAN BRUNO,CA,94066,877000,4,2.0,SAN BRUNO,1630,5750,1963,244,538,,Sold,,,http://www.redfin.com/CA/San-Bruno/2901-Medina-Dr-94066/home/626705,MLSListings,ML81639562,N,Y,37.6389125,-122.4585476
PAST SALE,May-16-2017,Single Family Residential,100 Merced Dr,SAN BRUNO,CA,94066,1350000,4,3.0,SAN BRUNO,2040,10995,1965,259,662,,Sold,,,http://www.redfin.com/CA/San-Bruno/100-Merced-Dr-94066/home/1655462,MLSListings,ML81646130,N,Y,37.6197648,-122.4529918
PAST SALE,June-16-2017,Single Family Residential,121 Merced,SAN BRUNO,CA,94066,1250000,4,2.5,SAN BRUNO,2040,7020,1965,228,613,,Sold,,,http://www.redfin.com/CA/San-Bruno/121-Merced-Dr-94066/home/2045765,MLSListings,ML81651050,N,Y,37.6202785,-122.4531732
PAST SALE,May-19-2017,Single Family Residential,2551 Wentworth,SAN BRUNO,CA,94066,1125000,3,2.0,SAN BRUNO,1790,6950,1962,256,628,,Sold,,,http://www.redfin.com/CA/San-Bruno/2551-Wentworth-Dr-94066/home/1513083,MLSListings,ML81647004,N,Y,37.637538,-122.453767
PAST SALE,June-2-2017,Single Family Residential,3005 Longview,SAN BRUNO,CA,94066,1460000,5,4.0,SAN BRUNO,2870,10446,1999,242,509,100,Sold,,,http://www.redfin.com/CA/San-Bruno/3005-Longview-Dr-94066/home/1001901,MLSListings,ML81647911,N,Y,37.6303405,-122.4546869
PAST SALE,July-25-2017,Single Family Residential,3161 Summit Rd,SAN BRUNO,CA,94066,680000,3,2.0,SAN BRUNO,1170,5000,1959,189,581,,Sold,,,http://www.redfin.com/CA/San-Bruno/3161-Summit-Rd-94066/home/623022,MLSListings,ML81652831,N,Y,37.6348001,-122.4638356
PAST SALE,July-31-2017,Single Family Residential,1891 Monterey Dr,SAN BRUNO,CA,94066,992000,4,3.0,SAN BRUNO,1610,5300,1963,183,616,,Sold,,,http://www.redfin.com/CA/San-Bruno/1891-Monterey-Dr-94066/home/1828339,MLSListings,ML81656297,N,Y,37.6218981,-122.448239
PAST SALE,June-13-2017,Single Family Residential,2635 Tipperary Ave,SOUTH SAN FRANCISCO,CA,94080,988000,4,2.0,SOUTH SAN FRANCISCO,1760,5000,1963,231,561,,Sold,,,http://www.redfin.com/CA/South-San-Francisco/2635-Tipperary-Ave-94080/home/917205,MLSListings,ML81648788,N,Y,37.6371712,-122.4496661
PAST SALE,May-26-2017,Single Family Residential,270 Emaron Dr,SAN BRUNO,CA,94066,880000,3,2.0,SAN BRUNO,1300,8475,1971,249,677,,Sold,,,http://www.redfin.com/CA/San-Bruno/270-Emaron-Dr-94066/home/1531078,MLSListings,ML81646743,N,Y,37.6314709,-122.4572745
PAST SALE,September-8-2017,Single Family Residential,220 Lassen Dr,SAN BRUNO,CA,94066,1375000,3,3.0,SAN BRUNO,2000,10020,1965,144,688,,Sold,,,http://www.redfin.com/CA/San-Bruno/220-Lassen-Dr-94066/home/630494,MLSListings,ML81671908,N,Y,37.6222015,-122.4507541
PAST SALE,,Single Family Residential,210 Amador Ave,San Bruno,CA,94066,318500,4,2.5,,2300,8680,1965,,138,,,,,http://www.redfin.com/CA/San-Bruno/210-Amador-Ave-94066/home/1045926,,,N,Y,37.6239724,-122.4503565
PAST SALE,October-6-2017,Single Family Residential,266 Lake Dr,SAN BRUNO,CA,94066,1260000,4,2.5,SAN BRUNO,2060,7006,1965,116,612,,Sold,,,http://www.redfin.com/CA/San-Bruno/266-Lake-Dr-94066/home/1705885,MLSListings,ML81675118,N,Y,37.6231968,-122.4517588
PAST SALE,October-24-2017,Single Family Residential,201 Del Norte Dr,SAN BRUNO,CA,94066,1275000,4,3.0,SAN BRUNO,2320,5300,1963,98,550,,Sold,,,http://www.redfin.com/CA/San-Bruno/201-Del-Norte-Dr-94066/home/1572206,MLSListings,ML81675318,N,Y,37.6219626,-122.4491367
PAST SALE,,Single Family Residential,3115 Fleetwood Dr,San Bruno,CA,94066,195000,4,3.0,,1510,8050,1964,,129,,,,,http://www.redfin.com/CA/San-Bruno/3115-Fleetwood-Dr-94066/home/2026245,,,N,Y,37.6333307,-122.4544694
PAST SALE,,Single Family Residential,3390 Longview Dr,San Bruno,CA,94066,734000,3,2.0,,1300,13708,1962,,565,,,,,http://www.redfin.com/CA/San-Bruno/3390-Longview-Dr-94066/home/628846,,,N,Y,37.6284877,-122.4582794
PAST SALE,December-7-2017,Single Family Residential,3111 Sneath Ln,SAN BRUNO,CA,94066,1150000,3,2.5,SAN BRUNO,2040,5170,1967,54,564,,Sold,,,http://www.redfin.com/CA/San-Bruno/3111-Sneath-Ln-94066/home/1971128,MLSListings,ML81685952,N,Y,37.6264393,-122.4507079
PAST SALE,December-5-2017,Single Family Residential,2640 Chabot Dr,SAN BRUNO,CA,94066,1360000,4,3.0,SAN BRUNO,2100,5000,1962,56,648,,Sold,,,http://www.redfin.com/CA/San-Bruno/2640-Chabot-Dr-94066/home/623302,MLSListings,ML81682546,N,Y,37.6342097,-122.4513969
PAST SALE,September-13-2017,Single Family Residential,429 Huntington Ave,SAN BRUNO,CA,94066,750000,2,1.5,SAN BRUNO,750,5000,1940,139,1000,,Sold,,,http://www.redfin.com/CA/San-Bruno/429-Huntington-Ave-94066/home/2016352,MLSListings,ML81669920,N,Y,37.6231181,-122.4080201
PAST SALE,October-20-2016,Single Family Residential,2740 Valleywood Dr,SAN BRUNO,CA,94066,815000,3,2.0,SAN BRUNO,1100,5549,1958,467,741,,Sold,,,http://www.redfin.com/CA/San-Bruno/2740-Valleywood-Dr-94066/home/1840819,MLSListings,ML81601510,N,Y,37.6311053,-122.4483899
PAST SALE,January-8-2018,Single Family Residential,2965 Longview Dr,SAN BRUNO,CA,94066,1475000,5,4.0,SAN BRUNO,2730,10831,2000,22,540,100,Sold,,,http://www.redfin.com/CA/San-Bruno/2965-Longview-Dr-94066/home/22843120,MLSListings,ML81686211,N,Y,37.6311888,-122.4547673
PAST SALE,November-22-2016,Single Family Residential,539 Chestnut Ave,SAN BRUNO,CA,94066,850000,4,3.0,SAN BRUNO,1500,2500,1947,434,567,,Sold,,,http://www.redfin.com/CA/San-Bruno/539-Chestnut-Ave-94066/home/641349,MLSListings,ML81600624,N,Y,37.6210537,-122.4205581
PAST SALE,August-24-2016,Condo/Co-op,227 Boardwalk Ct Unit B,SAN BRUNO,CA,94066,450000,1,1.0,SAN BRUNO,650,,1971,524,692,341,Sold,,,http://www.redfin.com/CA/San-Bruno/227-Boardwalk-Ct-94066/unit-B/home/113739119,MLSListings,ML81594333,N,Y,37.6306253,-122.429654
PAST SALE,October-14-2016,Single Family Residential,1076 San Felipe Ave,SAN BRUNO,CA,94066,995000,3,2.0,SAN BRUNO,1160,3998,1953,473,858,,Sold,,,http://www.redfin.com/CA/San-Bruno/1076-San-Felipe-Ave-94066/home/645174,MLSListings,ML81613558,N,Y,37.6161186,-122.4121967
PAST SALE,December-2-2016,Single Family Residential,234 Carlton Ave,SAN BRUNO,CA,94066,725000,2,1.5,SAN BRUNO,780,3200,1927,424,929,,Sold,,,http://www.redfin.com/CA/San-Bruno/234-Carlton-Ave-94066/home/1189912,MLSListings,ML81629269,N,Y,37.6220402,-122.4080319
PAST SALE,July-17-2015,Single Family Residential,965 Hensley Ave,SAN BRUNO,CA,94066,615000,2,1.0,SAN BRUNO,780,1975,1921,928,788,,Sold,,,http://www.redfin.com/CA/San-Bruno/965-Hensley-Ave-94066/home/1563626,MLSListings,ML81456608,N,Y,37.6319759,-122.4178389
PAST SALE,March-16-2015,Condo/Co-op,2254 Shelter Creek Ln,SAN BRUNO,CA,94066,226000,0,1.0,SAN BRUNO,490,486,1972,1051,461,315,Sold,,,http://www.redfin.com/CA/San-Bruno/2254-Shelter-Creek-Ln-94066/home/2050823,MLSListings,ML81447924,N,Y,37.619843,-122.428366
PAST SALE,April-17-2015,Condo/Co-op,1259 Shelter Creek Ln,SAN BRUNO,CA,94066,354000,1,1.0,SAN BRUNO,680,495,1972,1019,521,349,Sold,,,http://www.redfin.com/CA/San-Bruno/1259-Shelter-Creek-Ln-94066/home/1029796,MLSListings,ML81449532,N,Y,37.619843,-122.428366
PAST SALE,May-9-2016,Condo/Co-op,4347 Shelter Creek Ln,SAN BRUNO,CA,94066,400000,1,1.0,SAN BRUNO,680,,1972,631,588,350,Sold,,,http://www.redfin.com/CA/San-Bruno/4347-Shelter-Creek-Ln-94066/home/2025386,MLSListings,ML81563786,N,Y,37.619843,-122.428366
PAST SALE,January-27-2017,Condo/Co-op,7231 Shelter Creek Ln,San Bruno,CA,94066,369000,1,1.0,San Bruno,680,,1972,368,543,348,Sold,,,http://www.redfin.com/CA/San-Bruno/7231-Shelter-Creek-Ln-94066/home/1040362,San Francisco MLS,451509,N,Y,37.619843,-122.428366
PAST SALE,April-29-2015,Condo/Co-op,1246 Shelter Creek Ln,SAN BRUNO,CA,94066,265000,0,1.0,SAN BRUNO,490,,1972,1007,541,316,Sold,,,http://www.redfin.com/CA/San-Bruno/1246-Shelter-Creek-Ln-94066/home/2027986,MLSListings,ML81452755,N,Y,37.619843,-122.428366
PAST SALE,,Condo/Co-op,8353 Shelter Creek Ln,San Bruno,CA,94066,225000,1,1.0,,680,,1972,,331,,,,,http://www.redfin.com/CA/San-Bruno/8353-Shelter-Creek-Ln-94066/home/2058360,,,N,Y,37.619843,-122.428366
PAST SALE,,Condo/Co-op,4244 Shelter Creek Ln,San Bruno,CA,94066,550000,2,2.0,,1000,,1972,,550,,,,,http://www.redfin.com/CA/San-Bruno/4244-Shelter-Creek-Ln-94066/home/2056687,,,N,Y,37.619843,-122.428366
PAST SALE,June-5-2015,Condo/Co-op,6313 Shelter Creek Ln,SAN BRUNO,CA,94066,285000,0,1.0,SAN BRUNO,490,,1972,970,582,315,Sold,,,http://www.redfin.com/CA/San-Bruno/6313-Shelter-Creek-Ln-94066/home/1261250,MLSListings,ML81459141,N,Y,37.619843,-122.428366
PAST SALE,May-1-2015,Condo/Co-op,1126 Cherry Ave #23,San Bruno,CA,94066,388000,1,1.0,San Bruno,650,,1971,1005,597,341,Sold,,,http://www.redfin.com/CA/San-Bruno/1126-Cherry-Ave-94066/unit-23/home/1242521,San Francisco MLS,430991,N,Y,37.63186,-122.427212
PAST SALE,March-17-2015,Condo/Co-op,1126 Cherry Ave #111,SAN BRUNO,CA,94066,370000,1,1.0,SAN BRUNO,540,,1971,1050,685,315,Sold,,,http://www.redfin.com/CA/San-Bruno/1126-Cherry-Ave-94066/unit-111/home/1446775,MLSListings,ML81447447,N,Y,37.63186,-122.427212
PAST SALE,April-28-2016,Condo/Co-op,1126 Cherry Ave #31,San Bruno,CA,94066,400000,1,1.0,San Bruno,540,,1971,642,741,315,Sold,,,http://www.redfin.com/CA/San-Bruno/1126-Cherry-Ave-94066/unit-31/home/958629,San Francisco MLS,441443,N,Y,37.63186,-122.427212
PAST SALE,,Condo/Co-op,1126 Cherry Ave Apt 98,San Bruno,CA,94066,430000,1,1.0,,650,,1971,,662,,,,,http://www.redfin.com/CA/San-Bruno/1126-Cherry-Ave-94066/unit-98/home/1156888,,,N,Y,37.63186,-122.427212
PAST SALE,January-21-2016,Single Family Residential,2370 Trenton Dr,SAN BRUNO,CA,94066,905000,3,2.0,SAN BRUNO,1450,5356,1956,740,624,,Sold,,,http://www.redfin.com/CA/San-Bruno/2370-Trenton-Dr-94066/home/1674299,MLSListings,ML81534718,N,Y,37.6222228,-122.4313587
PAST SALE,October-18-2016,Single Family Residential,150 Hampton Ct,SAN BRUNO,CA,94066,1075000,3,2.0,SAN BRUNO,1640,8398,1956,469,655,,Sold,,,http://www.redfin.com/CA/San-Bruno/150-Hampton-Ct-94066/home/1589079,MLSListings,ML81593009,N,Y,37.6253224,-122.4401507
PAST SALE,October-31-2016,Single Family Residential,981 Glenview Dr,SAN BRUNO,CA,94066,1495000,5,3.0,SAN BRUNO,2472,5490,2016,456,605,,Sold,,,http://www.redfin.com/CA/San-Bruno/981-Glenview-Dr-94066/home/51605171,MLSListings,ML81585583,N,Y,37.6220774,-122.4421432
PAST SALE,May-13-2016,Single Family Residential,2585 Trenton Dr,SAN BRUNO,CA,94066,935000,3,2.0,SAN BRUNO,1290,5301,1956,627,725,,Sold,,,http://www.redfin.com/CA/San-Bruno/2585-Trenton-Dr-94066/home/2029014,MLSListings,ML81578018,N,Y,37.6198064,-122.4367199
PAST SALE,April-3-2015,Single Family Residential,230 Lassen Dr,SAN BRUNO,CA,94066,988000,4,3.0,SAN BRUNO,1490,10080,1965,1033,663,,Sold,,,http://www.redfin.com/CA/San-Bruno/230-Lassen-Dr-94066/home/2049193,MLSListings,ML81450383,N,Y,37.6225339,-122.4507293
PAST SALE,October-14-2015,Single Family Residential,230 Merced Dr,SAN BRUNO,CA,94066,970000,3,2.5,SAN BRUNO,2003,5005,1967,839,484,,Sold,,,http://www.redfin.com/CA/San-Bruno/230-Merced-Dr-94066/home/1950863,MLSListings,ML81512253,N,Y,37.6222276,-122.4525033
PAST SALE,November-15-2016,Single Family Residential,215 Merced Dr,SAN BRUNO,CA,94066,900000,4,3.0,SAN BRUNO,2060,6060,1967,441,437,,Sold,,,http://www.redfin.com/CA/San-Bruno/215-Merced-Dr-94066/home/630622,MLSListings,ML81596063,N,Y,37.6217906,-122.4528429
PAST SALE,January-10-2016,Single Family Residential,170 Windsor Ct,SAN BRUNO,CA,94066,1000000,3,2.0,SAN BRUNO,1430,5400,1956,751,699,,Sold,,,http://www.redfin.com/CA/San-Bruno/170-Windsor-Ct-94066/home/1045958,MLSListings,ML81533735,N,Y,37.6240155,-122.4437075
PAST SALE,,Single Family Residential,2740 Plymouth Way,San Bruno,CA,94066,675000,3,2.0,,1510,5750,1957,,447,,,,,http://www.redfin.com/CA/San-Bruno/2740-Plymouth-Way-94066/home/2055986,,,N,Y,37.6250589,-122.4444215
PAST SALE,September-30-2016,Single Family Residential,991 Glenview Dr,SAN BRUNO,CA,94066,1450000,5,3.0,SAN BRUNO,2472,5977,2016,487,587,,Sold,,,http://www.redfin.com/CA/San-Bruno/991-Glenview-Dr-94066/home/108551416,MLSListings,ML81584324,N,Y,37.622215,-122.4421433
PAST SALE,May-10-2016,Single Family Residential,1861 Parkview Dr,SAN BRUNO,CA,94066,1190000,3,2.5,SAN BRUNO,1410,4920,1956,630,844,,Sold,,,http://www.redfin.com/CA/San-Bruno/1861-Parkview-Dr-94066/home/1890214,MLSListings,ML81578143,N,Y,37.6108547,-122.4175816
PAST SALE,September-15-2015,Single Family Residential,536 Bayview Ave,MILLBRAE,CA,94030,1300000,3,2.0,MILLBRAE,1280,5035,1946,868,1016,,Sold,,,http://www.redfin.com/CA/Millbrae/536-Bayview-Ave-94030/home/1940875,MLSListings,ML81500933,N,Y,37.6113172,-122.4144069
PAST SALE,,Single Family Residential,2555 Sherwood Dr,San Bruno,CA,94066,438000,3,2.0,,1080,4947,1957,,406,,,,,http://www.redfin.com/CA/San-Bruno/2555-Sherwood-Dr-94066/home/623223,,,N,Y,37.6332238,-122.4478957
PAST SALE,February-27-2015,Single Family Residential,330 MERIMONT Cir,San Bruno,CA,94066,1230000,4,2.5,San Bruno,2282,4339,2008,1068,539,80,Sold,,,http://www.redfin.com/CA/San-Bruno/330-Merimont-Cir-94066/home/28919039,MLSListings,ML81439318,N,Y,37.6362844,-122.44592
PAST SALE,April-10-2015,Single Family Residential,13 Rosalita Ln,MILLBRAE,CA,94030,1100000,3,1.5,MILLBRAE,1514,5044,1947,1026,727,,Sold,,,http://www.redfin.com/CA/Millbrae/13-Rosalita-Ln-94030/home/1747963,MLSListings,ML81450185,N,Y,37.6121472,-122.4082396
PAST SALE,October-13-2015,Single Family Residential,624 Lomita Ave,MILLBRAE,CA,94030,1150000,3,1.5,MILLBRAE,1180,6000,1951,840,975,,Sold,,,http://www.redfin.com/CA/Millbrae/624-Lomita-Ave-94030/home/1291970,MLSListings,ML81512430,N,Y,37.6102125,-122.4147259
PAST SALE,June-5-2015,Multi-Family (2-4 Unit),62 Linden Ave,SAN BRUNO,CA,94066,1630000,8,,SAN BRUNO,3108,5500,1957,970,524,,Sold,,,http://www.redfin.com/CA/San-Bruno/62-Linden-Ave-94066/home/1638683,MLSListings,ML81462059,N,Y,37.6142235,-122.4063254
PAST SALE,June-2-2015,Single Family Residential,452 Elm Ave,SAN BRUNO,CA,94066,750000,2,1.0,SAN BRUNO,900,2500,1958,973,833,,Sold,,,http://www.redfin.com/CA/San-Bruno/452-Elm-Ave-94066/home/1049811,MLSListings,ML81463684,N,Y,37.6211482,-122.4141339
PAST SALE,November-30-2015,Single Family Residential,126 San Anselmo Ave,SAN BRUNO,CA,94066,850000,3,1.0,SAN BRUNO,1420,1420,1957,792,599,,Sold,,,http://www.redfin.com/CA/San-Bruno/126-San-Anselmo-Ave-S-94066/home/1056750,MLSListings,ML81496937,N,Y,37.6181978,-122.406667
PAST SALE,May-4-2015,Single Family Residential,465 Poplar Ave,SAN BRUNO,CA,94066,870000,3,2.5,SAN BRUNO,1800,2500,2011,1002,483,,Sold,,,http://www.redfin.com/CA/San-Bruno/465-Poplar-Ave-94066/home/1706054,MLSListings,ML81454671,N,Y,37.6215442,-122.4139589
PAST SALE,October-12-2015,Multi-Family (2-4 Unit),209-213 San Anselmo Ave,SAN BRUNO,CA,94066,1160000,4,,SAN BRUNO,2400,5000,1954,841,483,,Sold,,,http://www.redfin.com/CA/San-Bruno/213-San-Anselmo-Ave-N-94066/home/100191128,MLSListings,ML81514819,N,Y,37.6191364,-122.4071088
PAST SALE,October-12-2015,Multi-Family (2-4 Unit),209 San Anselmo Ave,San Bruno,CA,94066,1160000,6,,San Bruno,2400,5000,1954,841,483,,Sold,,,http://www.redfin.com/CA/San-Bruno/209-San-Anselmo-Ave-N-94066/home/1339169,San Francisco MLS,436906,N,Y,37.619051,-122.4071169
PAST SALE,September-27-2016,Condo/Co-op,117 Piccadilly Pl Unit H,SAN BRUNO,CA,94066,460000,1,1.0,SAN BRUNO,650,,1971,490,708,341,Sold,,,http://www.redfin.com/CA/San-Bruno/117-Piccadilly-Pl-94066/unit-H/home/960016,MLSListings,ML81613666,N,Y,37.632235,-122.429778
PAST SALE,March-31-2016,Condo/Co-op,1031 Cherry Ave #72,San Bruno,CA,94066-2339,525000,1,1.0,San Bruno,1008,,1979,670,521,346,Sold,,,http://www.redfin.com/CA/San-Bruno/1031-Cherry-Ave-94066/unit-72/home/1810509,EBRD/CCAR/Bay East,40730522,N,Y,37.630209,-122.428338
PAST SALE,,Condo/Co-op,249 Boardwalk Ave Apt F,San Bruno,CA,94066,405000,1,1.0,,650,,1971,,623,,,,,http://www.redfin.com/CA/San-Bruno/249-Boardwalk-Ave-94066/unit-F/home/1427191,,,N,Y,37.6313014,-122.4297081
PAST SALE,February-11-2016,Condo/Co-op,203 Boardwalk Ave Unit C,SAN BRUNO,CA,94066,400000,1,1.0,SAN BRUNO,540,540,1971,719,741,315,Sold,,,http://www.redfin.com/CA/San-Bruno/203-Boardwalk-Ave-94066/unit-C/home/959703,MLSListings,ML81546696,N,Y,37.6311523,-122.4301865
PAST SALE,,Condo/Co-op,225 Boardwalk Ave Apt C,San Bruno,CA,94066,526000,2,2.0,,850,,1971,,619,,,,,http://www.redfin.com/CA/San-Bruno/225-Boardwalk-Ave-94066/unit-C/home/2047038,,,N,Y,37.6311523,-122.4301865
PAST SALE,July-28-2016,Condo/Co-op,219 Boardwalk Ave Unit F,SAN BRUNO,CA,94066,400000,1,1.0,SAN BRUNO,540,,1971,551,741,326,Sold,,,http://www.redfin.com/CA/San-Bruno/219-Boardwalk-Ave-94066/unit-F/home/959844,MLSListings,ML81590264,N,Y,37.6311523,-122.4301865
PAST SALE,February-6-2017,Single Family Residential,769 Pepper Dr,SAN BRUNO,CA,94066,915000,3,2.0,SAN BRUNO,1230,5304,1953,358,744,,Sold,,,http://www.redfin.com/CA/San-Bruno/769-Pepper-Dr-94066/home/1799900,MLSListings,ML81634787,N,Y,37.6236483,-122.4270935
PAST SALE,June-10-2015,Single Family Residential,1792 Juniper Ave,SAN BRUNO,CA,94066,1250000,4,2.5,SAN BRUNO,2060,5000,1951,965,607,,Sold,,,http://www.redfin.com/CA/San-Bruno/1792-Juniper-Ave-94066/home/1572344,MLSListings,ML81460687,N,Y,37.624146,-122.4252239
PAST SALE,April-13-2015,Single Family Residential,1793 Hickory Ave,SAN BRUNO,CA,94066,880000,3,1.0,SAN BRUNO,1100,5000,1951,1023,800,,Sold,,,http://www.redfin.com/CA/San-Bruno/1793-Hickory-Ave-94066/home/1638414,MLSListings,ML81456268,N,Y,37.6243595,-122.4256753
PAST SALE,January-20-2017,Single Family Residential,155 Lake Dr,SAN BRUNO,CA,94066,930000,4,2.5,SAN BRUNO,1740,5757,1964,375,534,,Sold,,,http://www.redfin.com/CA/San-Bruno/155-Lake-Dr-94066/home/626344,MLSListings,ML81597771,N,Y,37.6201667,-122.4522275
PAST SALE,September-23-2015,Single Family Residential,2921 Fleetwood Dr,SAN BRUNO,CA,94066,824500,4,3.0,SAN BRUNO,1491,7000,1955,860,553,,Sold,,,http://www.redfin.com/CA/San-Bruno/2921-Fleetwood-Dr-94066/home/2028992,MLSListings,ML81500167,N,Y,37.6286258,-122.4500469
PAST SALE,October-21-2016,Single Family Residential,2951 Fleetwood Dr,SAN BRUNO,CA,94066,1135000,4,3.0,SAN BRUNO,1590,7840,1955,466,714,,Sold,,,http://www.redfin.com/CA/San-Bruno/2951-Fleetwood-Dr-94066/home/1226966,MLSListings,ML81612784,N,Y,37.6293693,-122.4506605
PAST SALE,April-10-2015,Single Family Residential,2570 Fleetwood Dr,SAN BRUNO,CA,94066,815000,3,2.0,SAN BRUNO,1110,6480,1954,1026,734,,Sold,,,http://www.redfin.com/CA/San-Bruno/2570-Fleetwood-Dr-94066/home/1198673,MLSListings,ML81452738,N,Y,37.6275371,-122.4429092
PAST SALE,June-23-2016,Single Family Residential,1641 Claremont Dr,SAN BRUNO,CA,94066,1590000,5,3.0,SAN BRUNO,2472,5893,2016,586,643,,Sold,,,http://www.redfin.com/CA/San-Bruno/1641-Claremont-Dr-94066/home/51605169,MLSListings,ML81582983,N,Y,37.622887,-122.440445
PAST SALE,,Single Family Residential,2510 Fleetwood Dr,San Bruno,CA,94066,192000,3,2.0,,1530,6710,1954,,125,,,,,http://www.redfin.com/CA/San-Bruno/2510-Fleetwood-Dr-94066/home/1998212,,,N,Y,37.6283825,-122.442527
PAST SALE,February-13-2015,Multi-Family (2-4 Unit),541 Easton Ave,SAN BRUNO,CA,94066,950000,3,,SAN BRUNO,3158,3800,1950,1082,301,,Sold,,,http://www.redfin.com/CA/San-Bruno/541-Easton-Ave-94066/home/1180265,MLSListings,ML81445424,N,Y,37.625016,-122.411972
PAST SALE,,Single Family Residential,173 Diamond St,San Bruno,CA,94066,590000,2,1.0,,780,2600,1920,,756,,,,,http://www.redfin.com/CA/San-Bruno/173-Diamond-St-94066/home/1546544,,,N,Y,37.6357869,-122.4139904
PAST SALE,June-12-2017,Single Family Residential,762 Chestnut Ave,SAN BRUNO,CA,94066,1025000,2,2.0,SAN BRUNO,1520,5350,1950,232,674,,Sold,,,http://www.redfin.com/CA/San-Bruno/762-Chestnut-Ave-94066/home/1758759,MLSListings,ML81649577,N,Y,37.6252016,-122.4228258
PAST SALE,,Multi-Family (2-4 Unit),767 Pine St,San Bruno,CA,94066,325000,3,2.0,,1683,4650,1936,,193,,,,,http://www.redfin.com/CA/San-Bruno/767-Pine-St-94066/home/635701,,,N,Y,37.629878,-122.405519
PAST SALE,June-14-2017,Single Family Residential,758 Magnolia Ave,SAN BRUNO,CA,94066,1088000,2,1.0,SAN BRUNO,1060,5000,1947,230,1026,,Sold,,,http://www.redfin.com/CA/San-Bruno/758-Magnolia-Ave-94066/home/1330190,MLSListings,ML81651219,N,Y,37.6262394,-122.4196659
PAST SALE,,Multi-Family (2-4 Unit),445 Huntington Ave,San Bruno,CA,94066,905000,6,3.0,,3033,5000,1944,,298,,,,,http://www.redfin.com/CA/San-Bruno/445-Huntington-Ave-94066/home/1502995,,,N,Y,37.6233753,-122.408161
PAST SALE,July-19-2017,Single Family Residential,625 5th Ave,SAN BRUNO,CA,94066,725000,3,1.0,SAN BRUNO,1110,3500,1917,195,653,,Sold,,,http://www.redfin.com/CA/San-Bruno/625-5th-Ave-94066/home/2058655,MLSListings,ML81653519,N,Y,37.6279466,-122.4063177
PAST SALE,,Single Family Residential,470 Kains Ave,San Bruno,CA,94066,630000,2,1.0,,930,2500,1915,,677,,,,,http://www.redfin.com/CA/San-Bruno/470-Kains-Ave-94066/home/1169419,,,N,Y,37.627692,-122.413848
PAST SALE,August-25-2017,Single Family Residential,122 Euclid Ave,SAN BRUNO,CA,94066,730000,2,1.0,SAN BRUNO,1130,5025,1940,158,646,,Sold,,,http://www.redfin.com/CA/San-Bruno/122-Euclid-Ave-94066/home/1209581,MLSListings,ML81670929,N,Y,37.6325063,-122.413442
PAST SALE,April-26-2017,Single Family Residential,624 Easton Ave,SAN BRUNO,CA,94066,805000,2,1.0,SAN BRUNO,1000,2500,1935,279,805,,Sold,,,http://www.redfin.com/CA/San-Bruno/624-Easton-Ave-94066/home/2010721,MLSListings,ML81643604,N,Y,37.6266016,-122.4124089
PAST SALE,June-12-2017,Single Family Residential,764 5th Ave,SAN BRUNO,CA,94066,725000,2,1.0,SAN BRUNO,1190,4360,1943,232,609,,Sold,,,http://www.redfin.com/CA/San-Bruno/764-5th-Ave-94066/home/638300,MLSListings,ML81647758,N,Y,37.6304553,-122.4073214
PAST SALE,September-29-2017,Single Family Residential,723 Acacia Ave,San Bruno,CA,94066,1020000,2,1.0,Mills Park,1410,5550,1947,123,723,,Sold,,,http://www.redfin.com/CA/San-Bruno/723-Acacia-Ave-94066/home/1120484,EBRD/CCAR/Bay East,40793297,N,Y,37.6258996,-122.4189288
PAST SALE,December-4-2017,Single Family Residential,218 Sylvan Ave,SAN BRUNO,CA,94066,745000,2,1.0,SAN BRUNO,856,2500,1958,57,870,,Sold,,,http://www.redfin.com/CA/San-Bruno/218-Sylvan-Ave-94066/home/1077636,MLSListings,ML81678292,N,Y,37.6248326,-122.409801
PAST SALE,,Single Family Residential,586 7th Ave,San Bruno,CA,94066,228500,2,1.0,,1200,5000,1943,,190,,,,,http://www.redfin.com/CA/San-Bruno/586-7th-Ave-94066/home/1209622,,,N,Y,37.6275965,-122.4048195
PAST SALE,,Single Family Residential,241 Kains Ave,San Bruno,CA,94066,500000,4,1.0,,1790,6000,1938,,279,,,,,http://www.redfin.com/CA/San-Bruno/241-Kains-Ave-94066/home/1255475,,,N,Y,37.6279994,-122.4118911
PAST SALE,June-3-2016,Single Family Residential,401 Chestnut Ave,SAN BRUNO,CA,94066,865000,2,1.0,SAN BRUNO,1000,4351,1940,606,865,,Sold,,,http://www.redfin.com/CA/San-Bruno/401-Chestnut-Ave-94066/home/639890,MLSListings,ML81578813,N,Y,37.6175555,-122.4179738
PAST SALE,August-10-2017,Single Family Residential,596 Bayview Ave,MILLBRAE,CA,94030,1084000,3,1.0,MILLBRAE,1050,5016,1948,173,1032,,Sold,,,http://www.redfin.com/CA/Millbrae/596-Bayview-Ave-94030/home/1357563,MLSListings,ML81668705,N,Y,37.6096079,-122.4163336
PAST SALE,September-1-2017,Single Family Residential,1870 Parkview Dr,SAN BRUNO,CA,94066,1730000,5,3.0,SAN BRUNO,2670,8189,1956,151,648,,Sold,,,http://www.redfin.com/CA/San-Bruno/1870-Parkview-Dr-94066/home/1493766,MLSListings,ML81673671,N,Y,37.6111201,-122.4170715
PAST SALE,April-14-2017,Single Family Residential,2460 Rollingwood Dr,SAN BRUNO,CA,94066,935000,3,2.0,SAN BRUNO,1440,5000,1955,291,649,,Sold,,,http://www.redfin.com/CA/San-Bruno/2460-Rollingwood-Dr-94066/home/2054881,MLSListings,ML81638328,N,Y,37.6298105,-122.4436367
PAST SALE,April-28-2017,Single Family Residential,250 Fernwood Dr,SAN BRUNO,CA,94066,988888,3,2.0,SAN BRUNO,1420,5400,1956,277,696,,Sold,,,http://www.redfin.com/CA/San-Bruno/250-Fernwood-Dr-94066/home/623938,MLSListings,ML81642807,N,Y,37.6331674,-122.4416789
PAST SALE,,Single Family Residential,2000 Oakmont Dr,San Bruno,CA,94066,515000,3,2.0,,1040,6954,1957,,495,,,,,http://www.redfin.com/CA/San-Bruno/2000-Oakmont-Dr-94066/home/1226991,,,N,Y,37.6323129,-122.4477991
PAST SALE,May-3-2017,Single Family Residential,431 Fernwood Dr,SAN BRUNO,CA,94066,920000,6,3.0,SAN BRUNO,2200,5600,1956,272,418,,Sold,,,http://www.redfin.com/CA/San-Bruno/431-Fernwood-Dr-94066/home/1614048,MLSListings,ML81645276,N,Y,37.6333264,-122.442053
PAST SALE,June-23-2017,Single Family Residential,150 Crosby Ct,SAN BRUNO,CA,94066,1149150,4,2.0,SAN BRUNO,1670,5400,1959,221,688,,Sold,,,http://www.redfin.com/CA/San-Bruno/150-Crosby-Ct-94066/home/632938,MLSListings,ML81650726,N,Y,37.6225513,-122.4449068
PAST SALE,May-22-2017,Single Family Residential,1421 Crestwood Dr,SAN BRUNO,CA,94066,1055000,3,3.0,SAN BRUNO,1612,5916,1955,253,654,,Sold,,,http://www.redfin.com/CA/San-Bruno/1421-Crestwood-Dr-94066/home/1531051,MLSListings,ML81645620,N,Y,37.6310386,-122.4378613
PAST SALE,June-30-2017,Single Family Residential,180 Birch Ct,SAN BRUNO,CA,94066,1050000,3,2.0,SAN BRUNO,1110,6100,1955,214,946,,Sold,,,http://www.redfin.com/CA/San-Bruno/180-Birch-Ct-94066/home/1484215,MLSListings,ML81653241,N,Y,37.6272532,-122.4464397
PAST SALE,August-11-2017,Single Family Residential,1510 Sequoia Ave,SAN BRUNO,CA,94066,940000,3,2.0,SAN BRUNO,1110,5250,1954,172,847,,Sold,,,http://www.redfin.com/CA/San-Bruno/1510-Sequoia-Ave-94066/home/2004510,MLSListings,ML81671090,N,Y,37.6278571,-122.444809
PAST SALE,August-31-2017,Single Family Residential,2530 Maywood Dr,SAN BRUNO,CA,94066,1141000,3,2.0,SAN BRUNO,1140,5100,1957,152,1001,,Sold,,,http://www.redfin.com/CA/San-Bruno/2530-Maywood-Dr-94066/home/1563017,MLSListings,ML81671712,N,Y,37.6331946,-122.4474382
PAST SALE,,Single Family Residential,2791 Fleetwood Dr,San Bruno,CA,94066,680000,3,2.0,,1110,6000,1955,,613,,,,,http://www.redfin.com/CA/San-Bruno/2791-Fleetwood-Dr-94066/home/1168199,,,N,Y,37.6256204,-122.4469719
PAST SALE,March-31-2017,Single Family Residential,1470 Sequoia Ave,SAN BRUNO,CA,94066,880000,3,2.0,SAN BRUNO,1110,4940,1954,305,793,,Sold,,,http://www.redfin.com/CA/San-Bruno/1470-Sequoia-Ave-94066/home/2058626,MLSListings,ML81639446,N,Y,37.6273385,-122.4441871
PAST SALE,June-29-2017,Single Family Residential,1891 Earl Ave,SAN BRUNO,CA,94066,1250000,3,3.0,SAN BRUNO,2364,5096,1959,215,529,,Sold,,,http://www.redfin.com/CA/San-Bruno/1891-Earl-Ave-94066/home/2056951,MLSListings,ML81651011,N,Y,37.6234546,-122.4449521
PAST SALE,,Single Family Residential,1450 Sequoia Ave,San Bruno,CA,94066,210000,3,2.0,,1190,7620,1954,,176,,,,,http://www.redfin.com/CA/San-Bruno/1450-Sequoia-Ave-94066/home/2050157,,,N,Y,37.6270389,-122.4439983
PAST SALE,,Single Family Residential,1570 Greenwood Way,San Bruno,CA,94066,893500,3,2.0,,1110,8800,1955,,805,,,,,http://www.redfin.com/CA/San-Bruno/1570-Greenwood-Way-94066/home/1955450,,,N,Y,37.6280321,-122.4466319
PAST SALE,November-17-2017,Single Family Residential,1861 Earl Ave,SAN BRUNO,CA,94066,1280000,3,2.0,SAN BRUNO,1300,5225,1959,74,985,,Sold,,,http://www.redfin.com/CA/San-Bruno/1861-Earl-Ave-94066/home/1330104,MLSListings,ML81681476,N,Y,37.6232207,-122.4444794
PAST SALE,November-22-2017,Single Family Residential,1981 Pinecrest Dr,SAN BRUNO,CA,94066,1033000,4,2.0,SAN BRUNO,1440,7860,1961,69,717,,Sold,,,http://www.redfin.com/CA/San-Bruno/1981-Pinecrest-Dr-94066/home/1971072,MLSListings,ML81681236,N,Y,37.6326725,-122.4465018
PAST SALE,March-24-2015,Single Family Residential,1241 Santa Lucia Ave,SAN BRUNO,CA,94066,910000,3,1.0,SAN BRUNO,1260,6800,1942,1043,722,,Sold,,,http://www.redfin.com/CA/San-Bruno/1241-Santa-Lucia-Ave-94066/home/1355997,MLSListings,ML81452187,N,Y,37.6132356,-122.4113823
PAST SALE,June-9-2016,Single Family Residential,523 Santa Teresa Way,MILLBRAE,CA,94030,1428000,3,2.0,MILLBRAE,1622,5183,1946,600,880,,Sold,,,http://www.redfin.com/CA/Millbrae/523-Santa-Teresa-Way-94030/home/2023516,MLSListings,ML81582671,N,Y,37.6129229,-122.4074965
PAST SALE,May-27-2016,Single Family Residential,119 Acacia Ave,SAN BRUNO,CA,94066,980000,4,2.0,SAN BRUNO,1440,3700,1947,613,681,,Sold,,,http://www.redfin.com/CA/San-Bruno/119-Acacia-Ave-94066/home/1312948,MLSListings,ML81581781,N,Y,37.6143854,-122.4102138
PAST SALE,November-23-2016,Single Family Residential,169 Poplar Ave,SAN BRUNO,CA,94066,812000,3,1.0,SAN BRUNO,1130,2500,1927,433,719,,Sold,,,http://www.redfin.com/CA/San-Bruno/169-Poplar-Ave-94066/home/645429,MLSListings,ML81612898,N,Y,37.6161183,-122.4095921
PAST SALE,January-23-2017,Single Family Residential,752 5th Ave,SAN BRUNO,CA,94066,701000,2,1.0,SAN BRUNO,880,3698,1949,372,797,,Sold,,,http://www.redfin.com/CA/San-Bruno/752-5th-Ave-94066/home/2043919,MLSListings,ML81633888,N,Y,37.630244,-122.4071368
PAST SALE,December-16-2016,Single Family Residential,579 4th Ave,SAN BRUNO,CA,94066,550000,2,1.0,SAN BRUNO,760,5000,1940,410,724,,Sold,,,http://www.redfin.com/CA/San-Bruno/579-4th-Ave-94066/home/1563534,MLSListings,ML81632181,N,Y,37.6266378,-122.4065352
PAST SALE,September-20-2016,Single Family Residential,357 East Angus Ave,SAN BRUNO,CA,94066,670000,2,1.0,SAN BRUNO,820,5000,1940,497,817,,Sold,,,http://www.redfin.com/CA/San-Bruno/357-Angus-Ave-E-94066/home/1772168,MLSListings,ML81600124,N,Y,37.6269628,-122.4078976
PAST SALE,March-3-2015,Multi-Family (5+ Unit),442 MILTON Ave,San Bruno,CA,94066,1485000,,,San Bruno,4703,5000,1964,1064,316,,Sold,,,http://www.redfin.com/CA/San-Bruno/442-Milton-Ave-94066/home/645123,MLSListings,ML81436343,N,Y,37.6235918,-122.4087473
PAST SALE,,Single Family Residential,268 Pine St,San Bruno,CA,94066,745000,6,4.0,,3330,5000,1940,,224,,,,,http://www.redfin.com/CA/San-Bruno/268-Pine-St-94066/home/1772167,,,N,Y,37.6279847,-122.4094405
PAST SALE,June-22-2015,Condo/Co-op,4324 Shelter Creek Ln,San Bruno,CA,94066,285000,0,1.0,San Bruno,490,,1972,953,582,315,Sold,,,http://www.redfin.com/CA/San-Bruno/4324-Shelter-Creek-Ln-94066/home/1352913,San Francisco MLS,433009,N,Y,37.619843,-122.428366
PAST SALE,,Condo/Co-op,4121 Shelter Creek Ln,San Bruno,CA,94066,210500,0,1.0,,490,,1972,,430,,,,,http://www.redfin.com/CA/San-Bruno/4121-Shelter-Creek-Ln-94066/home/2039705,,,N,Y,37.6197824,-122.4283571
PAST SALE,,Condo/Co-op,6254 Shelter Creek Ln,San Bruno,CA,94066,335000,0,1.0,,490,,1972,,684,,,,,http://www.redfin.com/CA/San-Bruno/6254-Shelter-Creek-Ln-94066/home/1720337,,,N,Y,37.619843,-122.428366
PAST SALE,April-9-2015,Single Family Residential,2481 Trenton Dr,SAN BRUNO,CA,94066,1018000,3,2.0,SAN BRUNO,1670,5100,1956,1027,610,,Sold,,,http://www.redfin.com/CA/San-Bruno/2481-Trenton-Dr-94066/home/1860875,MLSListings,ML81455177,N,Y,37.6198227,-122.4339412
PAST SALE,June-15-2016,Single Family Residential,2390 Whitman Way,SAN BRUNO,CA,94066,1350000,4,2.5,SAN BRUNO,1787,5000,1958,594,755,,Sold,,,http://www.redfin.com/CA/San-Bruno/2390-Whitman-Way-94066/home/1450684,MLSListings,ML81580163,N,Y,37.617436,-122.433277
PAST SALE,February-19-2016,Single Family Residential,2391 Bennington Dr,SAN BRUNO,CA,94066,1075000,3,2.0,SAN BRUNO,1150,5941,1957,711,935,,Sold,,,http://www.redfin.com/CA/San-Bruno/2391-Bennington-Dr-94066/home/1228027,MLSListings,ML81548173,Y,Y,37.6129895,-122.4322092
PAST SALE,March-18-2016,Single Family Residential,130 Yorkshire Ct,SAN BRUNO,CA,94066,1015000,3,2.0,SAN BRUNO,1440,5898,1956,683,705,,Sold,,,http://www.redfin.com/CA/San-Bruno/130-Yorkshire-Ct-94066/home/2055994,MLSListings,ML81550500,N,Y,37.6155498,-122.4368562
PAST SALE,April-27-2015,Single Family Residential,450 Markham Ave,SAN BRUNO,CA,94066,955000,3,2.0,SAN BRUNO,1300,5500,1958,1009,735,,Sold,,,http://www.redfin.com/CA/San-Bruno/450-Markham-Ave-94066/home/1441318,MLSListings,ML81452602,N,Y,37.6169129,-122.4302234
PAST SALE,June-12-2015,Single Family Residential,3836 Colby Way,SAN BRUNO,CA,94066,926500,4,3.0,SAN BRUNO,2139,8679,1958,963,433,,Sold,,,http://www.redfin.com/CA/San-Bruno/3836-Colby-Way-94066/home/1879756,MLSListings,ML81459031,N,Y,37.6332449,-122.4663961
PAST SALE,May-1-2017,Single Family Residential,3685 Ysabel Dr,San Bruno,CA,94066,1050000,7,4.0,San Bruno,2230,7000,1959,274,471,,Sold,,,http://www.redfin.com/CA/San-Bruno/3685-Ysabel-Dr-94066/home/1842716,San Francisco MLS,455690,N,Y,37.6321476,-122.4722889
PAST SALE,May-26-2017,Single Family Residential,3880 Colby Way,SAN BRUNO,CA,94066,830000,3,2.0,SAN BRUNO,1160,5000,1959,249,716,,Sold,,,http://www.redfin.com/CA/San-Bruno/3880-Colby-Way-94066/home/1914009,MLSListings,ML81649836,N,Y,37.6339968,-122.4668552
PAST SALE,August-4-2017,Single Family Residential,3810 Colby Way,SAN BRUNO,CA,94066,800000,3,2.0,SAN BRUNO,1160,6077,1958,179,690,,Sold,,,http://www.redfin.com/CA/San-Bruno/3810-Colby-Way-94066/home/620982,MLSListings,ML81668934,N,Y,37.6328137,-122.4665401
PAST SALE,August-30-2017,Single Family Residential,3830 Madera Way,SAN BRUNO,CA,94066,865000,3,2.0,SAN BRUNO,1160,6000,1959,153,746,,Sold,,,http://www.redfin.com/CA/San-Bruno/3830-Madera-Way-94066/home/622957,MLSListings,ML81667529,N,Y,37.6347969,-122.466566
PAST SALE,,Single Family Residential,2800 Shannon Dr,South San Francisco,CA,94080,920000,4,2.0,,1500,5085,1963,,613,,,,,http://www.redfin.com/CA/South-San-Francisco/2800-Shannon-Dr-94080/home/914375,,,N,Y,37.6358376,-122.4478519
PAST SALE,,Single Family Residential,3841 Coronado Way,San Bruno,CA,94066,850000,3,2.0,,1160,6195,1959,,733,,,,,http://www.redfin.com/CA/San-Bruno/3841-Coronado-Way-94066/home/621049,,,N,Y,37.6339522,-122.4652744
PAST SALE,,Single Family Residential,3861 Colby Way,San Bruno,CA,94066,830100,3,2.0,,1160,5000,1959,,716,,,,,http://www.redfin.com/CA/San-Bruno/3861-Colby-Way-94066/home/2023821,,,N,Y,37.6335998,-122.4670215
PAST SALE,July-7-2017,Single Family Residential,3520 Sunset Dr,SAN BRUNO,CA,94066,1150000,4,2.75,SAN BRUNO,1624,5200,1959,207,708,,Sold,,,http://www.redfin.com/CA/San-Bruno/3520-Sunset-Dr-94066/home/620631,MLSListings,ML81656231,N,Y,37.6339355,-122.4708287
PAST SALE,July-11-2017,Multi-Family (5+ Unit),120 Santa Lucia Ave,SAN BRUNO,CA,94066,2350000,3,,SAN BRUNO,6128,5950,1963,203,383,,Sold,,,http://www.redfin.com/CA/San-Bruno/Santa-Lucia-Ave-94066/home/646398,MLSListings,ML81642547,N,Y,37.6151754,-122.4053929
PAST SALE,November-14-2017,Single Family Residential,2760 Tipperary Ave,SOUTH SAN FRANCISCO,CA,94080,1040000,4,2.5,SOUTH SAN FRANCISCO,2140,5000,1968,77,486,,Sold,,,http://www.redfin.com/CA/South-San-Francisco/2760-Tipperary-Ave-94080/home/917306,MLSListings,ML81679703,N,Y,37.636459,-122.4484413
PAST SALE,December-12-2017,Single Family Residential,939 Palmito Dr,MILLBRAE,CA,94030,1438000,3,2.0,MILLBRAE,1620,5000,1946,49,888,,Sold,,,http://www.redfin.com/CA/Millbrae/939-Palmito-Dr-94030/home/2038717,MLSListings,ML81681238,N,Y,37.6110955,-122.4031364
PAST SALE,January-3-2018,Single Family Residential,305 San Anselmo Ave,SAN BRUNO,CA,94066,1100000,3,1.5,SAN BRUNO,1140,6030,1952,27,965,,Sold,,,http://www.redfin.com/CA/San-Bruno/305-San-Anselmo-Ave-S-94066/home/2010766,MLSListings,ML81684951,N,Y,37.6172242,-122.4051894
PAST SALE,December-27-2017,Condo/Co-op,1396 El Camino Real #108,MILLBRAE,CA,94030,775000,2,2.0,MILLBRAE,1122,37089,1980,34,691,435,Sold,,,http://www.redfin.com/CA/Millbrae/1396-El-Camino-Real-94030/unit-108/home/1102657,MLSListings,ML81683762,N,Y,37.6107338,-122.4010926
PAST SALE,January-29-2018,Condo/Co-op,1396 El Camino Real #110,MILLBRAE,CA,94030,730000,2,2.0,MILLBRAE,926,37089,1980,1,788,418,Sold,,,http://www.redfin.com/CA/Millbrae/1396-El-Camino-Real-94030/unit-110/home/2038140,MLSListings,ML81685899,N,Y,37.6107338,-122.4010926
PAST SALE,,Condo/Co-op,1126 Cherry Ave Apt 96,San Bruno,CA,94066,455000,1,1.0,,650,,1971,,700,,,,,http://www.redfin.com/CA/San-Bruno/1126-Cherry-Ave-94066/unit-96/home/1223649,,,N,Y,37.63186,-122.427212
PAST SALE,,Condo/Co-op,1126 Cherry Ave Apt 44,San Bruno,CA,94066,120000,0,1.0,,450,,1971,,267,,,,,http://www.redfin.com/CA/San-Bruno/1126-Cherry-Ave-94066/unit-44/home/2022575,,,N,Y,37.63186,-122.427212
PAST SALE,February-23-2016,Single Family Residential,2100 Rosewood Dr,SAN BRUNO,CA,94066,1010000,3,2.0,SAN BRUNO,1530,7139,1960,707,660,,Sold,,,http://www.redfin.com/CA/San-Bruno/2100-Rosewood-Dr-94066/home/1403258,MLSListings,ML81546193,Y,Y,37.6175848,-122.4277913
PAST SALE,,Single Family Residential,4 Atlantic Ave,San Bruno,CA,94066,590000,3,2.0,,1000,4100,1943,,590,,,,,http://www.redfin.com/CA/San-Bruno/4-Atlantic-Ave-94066/home/1672511,,,N,Y,37.6383272,-122.4157743
PAST SALE,February-27-2015,Single Family Residential,2435 Tara Lane Ln,South San Francisco,CA,94080,918000,4,3.0,South San Francisco,2240,5300,1962,1068,410,,Sold,,,http://www.redfin.com/CA/South-San-Francisco/2435-Tara-Ln-94080/home/2055455,San Francisco MLS,429092,N,Y,37.6413889,-122.4585786
PAST SALE,November-10-2017,Single Family Residential,136 Merced Dr,SAN BRUNO,CA,94066,1355000,4,2.5,SAN BRUNO,1760,6100,1965,81,770,,Sold,,,http://www.redfin.com/CA/San-Bruno/136-Merced-Dr-94066/home/1842957,MLSListings,ML81680508,N,Y,37.6206133,-122.4526588
PAST SALE,,Multi-Family (2-4 Unit),249 Milton Ave,San Bruno,CA,94066,1800000,7,7.0,,4025,5000,1961,,447,,,,,http://www.redfin.com/CA/San-Bruno/249-Milton-Ave-94066/home/1513298,,,N,Y,37.6199021,-122.4068101
PAST SALE,October-18-2016,Single Family Residential,369 Merimont Cir,SAN BRUNO,CA,94066,1268000,4,3.0,SAN BRUNO,2170,3362,2008,469,584,88,Sold,,,http://www.redfin.com/CA/San-Bruno/369-Merimont-Cir-94066/home/28919021,MLSListings,ML81581084,N,Y,37.6352964,-122.4468476
PAST SALE,June-30-2015,Single Family Residential,2940 Fleetwood Dr,SAN BRUNO,CA,94066,830000,3,2.0,SAN BRUNO,1110,5600,1955,945,748,,Sold,,,http://www.redfin.com/CA/San-Bruno/2940-Fleetwood-Dr-94066/home/623518,MLSListings,ML81462673,N,Y,37.6293383,-122.4500739
PAST SALE,July-27-2015,Single Family Residential,313 Merimont Cir,SAN BRUNO,CA,94066,1230000,4,2.5,SAN BRUNO,2282,3676,2008,918,539,84,Sold,,,http://www.redfin.com/CA/San-Bruno/313-Merimont-Cir-94066/home/17307611,MLSListings,ML81471222,N,Y,37.6363816,-122.4470058
PAST SALE,June-18-2015,Single Family Residential,120 Palm Ct,SAN BRUNO,CA,94066,749000,3,2.0,SAN BRUNO,1530,6200,1956,957,490,,Sold,,,http://www.redfin.com/CA/San-Bruno/120-Palm-Ct-94066/home/2051921,MLSListings,ML81462902,N,Y,37.6268616,-122.4464693
PAST SALE,,Single Family Residential,2881 Fleetwood Dr,San Bruno,CA,94066,311000,3,2.0,,1110,6650,1955,,280,,,,,http://www.redfin.com/CA/San-Bruno/2881-Fleetwood-Dr-94066/home/1772034,,,N,Y,37.6276842,-122.4491393
PAST SALE,,Single Family Residential,2310 Evergreen Dr,San Bruno,CA,94066,826500,3,2.0,,1040,5000,1956,,795,,,,,http://www.redfin.com/CA/San-Bruno/2310-Evergreen-Dr-94066/home/1189459,,,N,Y,37.6348139,-122.4462766
PAST SALE,,Single Family Residential,2478 Trenton Dr,San Bruno,CA,94066,920000,4,2.0,,1610,5500,1955,,571,,,,,http://www.redfin.com/CA/San-Bruno/2478-Trenton-Dr-94066/home/1597269,,,N,Y,37.6202038,-122.4338085
PAST SALE,May-29-2015,Single Family Residential,1793 KAINS Ave,SAN BRUNO,CA,94066,930000,3,1.0,SAN BRUNO,1100,4865,1951,977,845,,Sold,,,http://www.redfin.com/CA/San-Bruno/1793-Kains-Ave-94066/home/1502819,MLSListings,ML81460396,N,Y,37.622474,-122.4245594
PAST SALE,December-2-2016,Single Family Residential,615 Burrows Ave,SAN BRUNO,CA,94066,901100,2,1.0,SAN BRUNO,1020,5000,1949,424,883,,Sold,,,http://www.redfin.com/CA/San-Bruno/615-Burrows-Ave-94066/home/1821536,MLSListings,ML81627521,N,Y,37.622019,-122.423215
PAST SALE,November-20-2015,Single Family Residential,1614 Holly Ave,SAN BRUNO,CA,94066,980000,3,2.0,SAN BRUNO,1550,5700,1950,802,632,,Sold,,,http://www.redfin.com/CA/San-Bruno/1614-Holly-Ave-94066/home/633551,MLSListings,ML81517504,N,Y,37.6240423,-122.4235859
PAST SALE,June-3-2016,Single Family Residential,3840 Adriatic Way,SAN BRUNO,CA,94066,1300000,4,3.0,SAN BRUNO,2209,8258,2004,606,589,92,Sold,,,http://www.redfin.com/CA/San-Bruno/3840-Adriatic-Way-94066/home/1990454,MLSListings,ML81581257,N,Y,37.6341715,-122.4622546
PAST SALE,March-3-2017,Single Family Residential,210 Emaron Dr,SAN BRUNO,CA,94066,960000,3,2.0,SAN BRUNO,1300,5100,1963,333,738,,Sold,,,http://www.redfin.com/CA/San-Bruno/210-Emaron-Dr-94066/home/1714480,MLSListings,ML81640964,N,Y,37.6308803,-122.4565161
PAST SALE,December-8-2015,Single Family Residential,3680 Sunset Dr,SAN BRUNO,CA,94066,810000,3,2.0,SAN BRUNO,1160,6099,1959,784,698,,Sold,,,http://www.redfin.com/CA/San-Bruno/3680-Sunset-Dr-94066/home/1044679,MLSListings,ML81518187,N,Y,37.6319663,-122.4717999
PAST SALE,August-20-2015,Single Family Residential,3071 Oakmont Dr,SAN BRUNO,CA,94066,885000,3,2.0,SAN BRUNO,1474,8520,1963,894,600,,Sold,,,http://www.redfin.com/CA/San-Bruno/3071-Oakmont-Dr-94066/home/1045886,MLSListings,ML81483389,N,Y,37.6394071,-122.4606963
PAST SALE,July-29-2015,Single Family Residential,3545 Fleetwood Dr,SAN BRUNO,CA,94066,1001000,3,2.0,SAN BRUNO,1440,12921,1964,916,695,,Sold,,,http://www.redfin.com/CA/San-Bruno/3545-Fleetwood-Dr-94066/home/626560,MLSListings,ML81472577,N,Y,37.6363935,-122.459224
PAST SALE,September-29-2016,Single Family Residential,3804 Adriatic Way,San Bruno,CA,94066,1238000,4,3.0,San Bruno,2209,4114,2004,488,560,92,Sold,,,http://www.redfin.com/CA/San-Bruno/3804-Adriatic-Way-94066/home/2100301,San Francisco MLS,447552,N,Y,37.6329711,-122.4647724
PAST SALE,November-12-2015,Single Family Residential,3151 Geoffrey Dr,SAN BRUNO,CA,94066,912000,3,2.0,SAN BRUNO,1300,5000,1960,810,702,,Sold,,,http://www.redfin.com/CA/San-Bruno/3151-Geoffrey-Dr-94066/home/625258,MLSListings,ML81515608,N,Y,37.6339748,-122.4594449
PAST SALE,March-31-2016,Single Family Residential,3345 Fleetwood Dr,San Bruno,CA,94066,880000,4,3.0,San Bruno,2610,24890,1964,670,337,,Sold,,,http://www.redfin.com/CA/San-Bruno/3345-Fleetwood-Dr-94066/home/2004113,San Francisco MLS,441736,N,Y,37.6352188,-122.4569858
PAST SALE,August-24-2016,Single Family Residential,339 Rockwood Dr,SOUTH SAN FRANCISCO,CA,94080,770000,2,1.0,SOUTH SAN FRANCISCO,850,4499,1949,524,906,,Sold,,,http://www.redfin.com/CA/South-San-Francisco/339-Rockwood-Dr-94080/home/610965,MLSListings,ML81595412,N,Y,37.6359532,-122.4321196
PAST SALE,April-1-2016,Single Family Residential,320 Rockwood Dr,SOUTH SAN FRANCISCO,CA,94080,790000,2,1.5,SOUTH SAN FRANCISCO,1200,4769,1950,669,658,,Sold,,,http://www.redfin.com/CA/South-San-Francisco/320-Rockwood-Dr-94080/home/1130235,MLSListings,ML81562569,N,Y,37.6369294,-122.4312434
PAST SALE,July-24-2015,Condo/Co-op,1031 Cherry Ave #39,SAN BRUNO,CA,94066,480000,1,1.0,SAN BRUNO,1008,,1979,921,476,346,Sold,,,http://www.redfin.com/CA/San-Bruno/1031-Cherry-Ave-94066/unit-39/home/1508303,MLSListings,ML81471016,N,Y,37.630209,-122.428338
PAST SALE,August-4-2017,Condo/Co-op,235 Boardwalk Ave Unit H,SAN BRUNO,CA,94066,465000,1,1.0,SAN BRUNO,650,119448,1971,179,715,341,Sold,,,http://www.redfin.com/CA/San-Bruno/235-Boardwalk-Ave-94066/unit-H/home/2057670,MLSListings,ML81668855,N,Y,37.6313101,-122.4297085
PAST SALE,July-18-2017,Single Family Residential,354 Rockwood Dr,SOUTH SAN FRANCISCO,CA,94080,1100000,3,2.0,SOUTH SAN FRANCISCO,1270,4823,1949,196,866,,Sold,,,http://www.redfin.com/CA/South-San-Francisco/354-Rockwood-Dr-94080/home/1913915,MLSListings,ML81656104,N,Y,37.6355366,-122.4333353
PAST SALE,June-16-2017,Condo/Co-op,417 Piccadilly Pl #7,SAN BRUNO,CA,94066,455000,1,1.0,SAN BRUNO,650,,1971,228,700,341,Sold,,,http://www.redfin.com/CA/San-Bruno/417-Piccadilly-Pl-94066/unit-7/home/1063254,MLSListings,ML81652023,N,Y,37.631451,-122.431109
PAST SALE,August-11-2017,Condo/Co-op,410 Boardwalk Ave #4,SAN BRUNO,CA,94066,347000,0,1.0,SAN BRUNO,450,159124,1971,172,771,291,Sold,,,http://www.redfin.com/CA/San-Bruno/410-Boardwalk-Ave-94066/unit-4/home/1944191,MLSListings,ML81656306,N,Y,37.6311523,-122.4301865
PAST SALE,August-24-2017,Condo/Co-op,1031 Cherry Ave #21,SAN BRUNO,CA,94066,535000,1,1.0,SAN BRUNO,832,176288,1979,159,643,341,Sold,,,http://www.redfin.com/CA/San-Bruno/1031-Cherry-Ave-94066/unit-21/home/2047007,MLSListings,ML81669730,N,Y,37.630209,-122.428338
PAST SALE,April-5-2017,Single Family Residential,112 Sherwood Way,SOUTH SAN FRANCISCO,CA,94080,932000,3,1.0,SOUTH SAN FRANCISCO,1100,4500,1950,300,847,,Sold,,,http://www.redfin.com/CA/South-San-Francisco/112-Sherwood-Way-94080/home/611069,MLSListings,ML81640793,N,Y,37.6375712,-122.4313665
PAST SALE,September-22-2017,Single Family Residential,417 Briarwood Dr,SOUTH SAN FRANCISCO,CA,94080,810000,2,1.0,SOUTH SAN FRANCISCO,850,4500,1949,130,953,,Sold,,,http://www.redfin.com/CA/South-San-Francisco/417-Briarwood-Dr-94080/home/1375673,MLSListings,ML81675158,N,Y,37.6370824,-122.4333933
PAST SALE,October-3-2017,Condo/Co-op,1126 Cherry Ave #54,SAN BRUNO,CA,94066,380000,0,1.0,SAN BRUNO,450,150690,1971,119,844,291,Sold,,,http://www.redfin.com/CA/San-Bruno/1126-Cherry-Ave-94066/unit-54/home/2053699,MLSListings,ML81678364,N,Y,37.63186,-122.427212
PAST SALE,August-29-2017,Condo/Co-op,404 Boardwalk Ave #7,SAN BRUNO,CA,94066,472000,1,1.0,SAN BRUNO,650,159124,1971,154,726,341,Sold,,,http://www.redfin.com/CA/San-Bruno/404-Boardwalk-Ave-94066/unit-7/home/1921822,MLSListings,ML81673554,N,Y,37.6311523,-122.4301865
PAST SALE,December-6-2017,Condo/Co-op,129 Piccadilly Pl Unit D,SAN BRUNO,CA,94066,377500,1,1.0,SAN BRUNO,650,147962,1971,55,581,341,Sold,,,http://www.redfin.com/CA/San-Bruno/129-Piccadilly-Pl-94066/unit-D/home/2022566,MLSListings,ML81686476,N,Y,37.6331534,-122.4289724
PAST SALE,,Single Family Residential,2455 Whitman Way,San Bruno,CA,94066,1155000,4,3.0,,1900,7168,1958,,608,,,,,http://www.redfin.com/CA/San-Bruno/2455-Whitman-Way-94066/home/1758734,,,N,Y,37.6177773,-122.4354257
PAST SALE,November-21-2017,Condo/Co-op,419 Piccadilly Pl #3,SAN BRUNO,CA,94066,600000,2,2.0,SAN BRUNO,850,170011,1971,70,706,394,Sold,,,http://www.redfin.com/CA/San-Bruno/419-Piccadilly-Pl-94066/unit-3/home/1679715,MLSListings,ML81682961,N,Y,37.6312922,-122.4308802
PAST SALE,May-24-2017,Condo/Co-op,419 Piccadilly #10,SAN BRUNO,CA,94066,600000,2,2.0,SAN BRUNO,850,170011,1971,251,706,394,Sold,,,http://www.redfin.com/CA/San-Bruno/419-Piccadilly-Pl-94066/unit-10/home/955205,MLSListings,ML81647808,N,Y,37.6312922,-122.4308802
PAST SALE,January-8-2018,Condo/Co-op,405 Piccadilly Pl #1,SAN BRUNO,CA,94066,400000,0,1.0,SAN BRUNO,450,177208,1971,22,889,291,Sold,,,http://www.redfin.com/CA/San-Bruno/405-Piccadilly-Pl-94066/unit-1/home/1544111,MLSListings,ML81683798,N,Y,37.630781,-122.431959
PAST SALE,March-2-2016,Single Family Residential,2781 Saint Cloud Dr,San Bruno,CA,94066,1150000,6,3.0,San Bruno,2460,7950,1962,699,467,,Sold,,,http://www.redfin.com/CA/San-Bruno/2781-Saint-Cloud-Dr-94066/home/1529314,San Francisco MLS,440716,N,Y,37.6349751,-122.4541669
PAST SALE,September-30-2016,Single Family Residential,3036 Fleetwood Dr,SAN BRUNO,CA,94066,851000,4,2.0,SAN BRUNO,1310,5000,1955,487,650,,Sold,,,http://www.redfin.com/CA/San-Bruno/3036-Fleetwood-Dr-94066/home/623406,MLSListings,ML81595698,N,Y,37.6316478,-122.4519227
PAST SALE,November-20-2015,Single Family Residential,3350 Longview Dr,SAN BRUNO,CA,94066,900000,3,2.0,SAN BRUNO,1640,30000,1962,802,549,,Sold,,,http://www.redfin.com/CA/San-Bruno/3350-Longview-Dr-94066/home/1245028,MLSListings,ML81518329,N,Y,37.6279612,-122.458011
PAST SALE,June-24-2016,Single Family Residential,1136 Vermont Way,SAN BRUNO,CA,94066,937000,5,2.5,SAN BRUNO,1860,5000,1956,585,504,,Sold,,,http://www.redfin.com/CA/San-Bruno/1136-Vermont-Way-94066/home/1264973,MLSListings,ML81584118,N,Y,37.6239438,-122.4427292
PAST SALE,May-31-2016,Single Family Residential,102 Quail Point Cir,SAN BRUNO,CA,94066,900000,3,2.0,SAN BRUNO,1610,1324,1982,609,559,390,Sold,,,http://www.redfin.com/CA/San-Bruno/102-Quail-Point-Cir-94066/home/1692093,MLSListings,ML81579503,N,Y,37.627977,-122.438907
PAST SALE,May-7-2015,Single Family Residential,2370 Rollingwood Way,SAN BRUNO,CA,94066,785000,3,2.0,SAN BRUNO,1110,5000,1955,999,707,,Sold,,,http://www.redfin.com/CA/San-Bruno/2370-Rollingwood-Dr-94066/home/1780825,MLSListings,ML81455065,N,Y,37.630399,-122.4426641
PAST SALE,,Single Family Residential,2700 Merion Dr,San Bruno,CA,94066,572000,6,4.0,,2810,6840,1962,,204,,,,,http://www.redfin.com/CA/San-Bruno/2700-Merion-Dr-94066/home/1672586,,,N,Y,37.6349279,-122.4532842
PAST SALE,February-1-2016,Single Family Residential,1661 Crestwood Dr,SAN BRUNO,CA,94066,840000,4,2.0,SAN BRUNO,1240,6656,1964,729,677,,Sold,,,http://www.redfin.com/CA/San-Bruno/1661-Crestwood-Dr-94066/home/1169193,MLSListings,ML81534569,N,Y,37.6338099,-122.439462
PAST SALE,March-23-2016,Single Family Residential,2881 Maywood Dr,SAN BRUNO,CA,94066,895000,3,3.0,SAN BRUNO,1350,5000,1958,678,663,,Sold,,,http://www.redfin.com/CA/San-Bruno/2881-Maywood-Dr-94066/home/1529263,MLSListings,ML81547243,N,Y,37.6310128,-122.4498011
PAST SALE,August-10-2015,Single Family Residential,131 Merced Dr,SAN BRUNO,CA,94066,980000,4,2.5,SAN BRUNO,2040,6396,1965,904,480,,Sold,,,http://www.redfin.com/CA/San-Bruno/131-Merced-Dr-94066/home/629421,MLSListings,ML81484281,N,Y,37.6205539,-122.4531244
PAST SALE,June-1-2016,Single Family Residential,260 Lassen Dr,SAN BRUNO,CA,94066,1150000,4,3.0,SAN BRUNO,1830,10850,1964,608,628,,Sold,,,http://www.redfin.com/CA/San-Bruno/260-Lassen-Dr-94066/home/2051996,MLSListings,ML81582886,N,Y,37.6232018,-122.4508284
PAST SALE,July-29-2015,Single Family Residential,742 ACACIA Ave,SAN BRUNO,CA,94066,1015000,3,2.0,SAN BRUNO,1670,5000,1947,916,608,,Sold,,,http://www.redfin.com/CA/San-Bruno/742-Acacia-Ave-94066/home/1520892,MLSListings,ML81467566,N,Y,37.6263977,-122.4187696
PAST SALE,November-13-2015,Single Family Residential,861 Kains Ave,SAN BRUNO,CA,94066,945000,2,2.0,SAN BRUNO,1323,5200,1941,809,714,,Sold,,,http://www.redfin.com/CA/San-Bruno/861-Kains-Ave-94066/home/636177,MLSListings,ML81516843,N,Y,37.6258506,-122.4172147
PAST SALE,March-25-2016,Single Family Residential,579 Acacia Ave,SAN BRUNO,CA,94066,958000,2,1.5,SAN BRUNO,1020,5087,1945,676,939,,Sold,,,http://www.redfin.com/CA/San-Bruno/579-Acacia-Ave-94066/home/1664719,MLSListings,ML81561651,N,Y,37.6241349,-122.4186011
PAST SALE,June-30-2016,Single Family Residential,728 Green Ave,SAN BRUNO,CA,94066,750000,2,1.0,SAN BRUNO,1010,3798,1940,579,743,,Sold,,,http://www.redfin.com/CA/San-Bruno/728-Green-Ave-94066/home/1493715,MLSListings,ML81577190,N,Y,37.62813,-122.414148
PAST SALE,March-1-2016,Single Family Residential,331 Rockwood Dr,SOUTH SAN FRANCISCO,CA,94080,908000,3,2.0,SOUTH SAN FRANCISCO,1310,4499,1949,700,693,,Sold,,,http://www.redfin.com/CA/South-San-Francisco/331-Rockwood-Dr-94080/home/610982,MLSListings,ML81545674,N,Y,37.6362929,-122.4316072
PAST SALE,,Single Family Residential,442 Northwood Dr,South San Francisco,CA,94080,175000,3,2.0,,1660,5814,1948,,105,,,,,http://www.redfin.com/CA/South-San-Francisco/442-Northwood-Dr-94080/home/610160,,,N,Y,37.6375417,-122.43622
PAST SALE,October-14-2016,Condo/Co-op,217 Boardwalk Ave Unit D,SAN BRUNO,CA,94066,450000,1,1.0,SAN BRUNO,650,,1971,473,692,341,Sold,,,http://www.redfin.com/CA/San-Bruno/217-Boardwalk-Ave-94066/unit-D/home/1679879,MLSListings,ML81601154,N,Y,37.6311523,-122.4301865
PAST SALE,June-7-2016,Condo/Co-op,406 Boardwalk Ave #24,SAN BRUNO,CA,94066,425200,1,1.0,SAN BRUNO,540,,1971,602,787,315,Sold,,,http://www.redfin.com/CA/San-Bruno/406-Boardwalk-Ave-94066/unit-24/home/2035113,MLSListings,ML81585202,N,Y,37.6311523,-122.4301865
PAST SALE,August-18-2015,Condo/Co-op,1126 Cherry Ave #132,SAN BRUNO,CA,94066,500000,2,1.0,SAN BRUNO,816,,1971,896,613,390,Sold,,,http://www.redfin.com/CA/San-Bruno/1126-Cherry-Ave-94066/unit-132/home/2052654,MLSListings,ML81483383,N,Y,37.63186,-122.427212
PAST SALE,November-4-2015,Condo/Co-op,413 Piccadilly Pl #12,SAN BRUNO,CA,94066,503000,2,1.0,SAN BRUNO,816,,1971,818,616,386,Sold,,,http://www.redfin.com/CA/San-Bruno/413-Piccadilly-Pl-94066/unit-12/home/959332,MLSListings,ML81513224,N,Y,37.630781,-122.431959
PAST SALE,December-7-2015,Condo/Co-op,405 Piccadilly Pl #31,SAN BRUNO,CA,94066,302000,0,1.0,SAN BRUNO,450,,1971,785,671,295,Sold,,,http://www.redfin.com/CA/San-Bruno/405-Piccadilly-Pl-94066/unit-31/home/959300,MLSListings,ML81520810,N,Y,37.630781,-122.431959
PAST SALE,October-30-2015,Condo/Co-op,103 Piccadilly Pl Unit H,SAN BRUNO,CA,94066,393000,1,1.0,SAN BRUNO,650,,1971,823,605,341,Sold,,,http://www.redfin.com/CA/San-Bruno/103-Piccadilly-Pl-94066/unit-H/home/1795419,MLSListings,ML81516090,N,Y,37.632235,-122.429778
PAST SALE,August-18-2015,Condo/Co-op,411 Piccadilly Pl #5,SAN BRUNO,CA,94066,468000,2,1.0,SAN BRUNO,816,,1971,896,574,386,Sold,,,http://www.redfin.com/CA/San-Bruno/411-Piccadilly-Pl-94066/unit-5/home/1810852,MLSListings,ML81465421,N,Y,37.630781,-122.431959
PAST SALE,March-19-2015,Condo/Co-op,119 Piccadilly Pl Unit A,SAN BRUNO,CA,94066,380000,1,1.0,SAN BRUNO,650,,1971,1048,585,341,Sold,,,http://www.redfin.com/CA/San-Bruno/119-Piccadilly-Pl-94066/unit-A/home/1795341,MLSListings,ML81451271,N,Y,37.632235,-122.429778
PAST SALE,March-4-2015,Condo/Co-op,403 Piccadilly Pl #8,San Bruno,CA,94066,285000,0,1.0,San Bruno,450,,1971,1063,633,291,Sold,,,http://www.redfin.com/CA/San-Bruno/403-Piccadilly-Pl-94066/unit-8/home/2051681,San Francisco MLS,429644,N,Y,37.6316568,-122.4315352
PAST SALE,March-31-2015,Condo/Co-op,6352 Shelter Creek Ln,SAN BRUNO,CA,94066,470000,2,2.0,SAN BRUNO,1000,,1972,1036,470,349,Sold,,,http://www.redfin.com/CA/San-Bruno/Shelter-Creek-Ln-94066/home/961275,MLSListings,ML81451511,N,Y,37.619843,-122.428366
PAST SALE,May-27-2015,Condo/Co-op,1256 Shelter Creek Ln,San Bruno,CA,94066,345000,1,1.0,San Bruno,680,,1972,979,507,348,Sold,,,http://www.redfin.com/CA/San-Bruno/1256-Shelter-Creek-Ln-94066/home/1464673,San Francisco MLS,431367,N,Y,37.619843,-122.428366
PAST SALE,May-28-2015,Condo/Co-op,2333 Shelter Creek Ln,SAN BRUNO,CA,94066,282000,0,1.0,SAN BRUNO,490,,1972,978,576,316,Sold,,,http://www.redfin.com/CA/San-Bruno/2333-Shelter-Creek-Ln-94066/home/2012357,MLSListings,ML81459229,N,Y,37.619843,-122.428366
PAST SALE,June-12-2015,Condo/Co-op,8130 Shelter Creek Ln,SAN BRUNO,CA,94066,360000,1,1.0,SAN BRUNO,680,680,1982,963,529,350,Sold,,,http://www.redfin.com/CA/San-Bruno/8130-Shelter-Creek-Ln-94066/home/1944268,MLSListings,ML81466520,N,Y,37.619843,-122.428366
PAST SALE,August-19-2015,Condo/Co-op,3133 Shelter Creek Ln,SAN BRUNO,CA,94066,305000,0,1.0,SAN BRUNO,490,,1972,895,622,320,Sold,,,http://www.redfin.com/CA/San-Bruno/3133-Shelter-Creek-Ln-94066/home/1992793,MLSListings,ML81467983,N,Y,37.619843,-122.428366
PAST SALE,December-2-2015,Condo/Co-op,3346 Shelter Creek Ln,San Bruno,CA,94066,309000,0,1.0,San Bruno,490,,1972,790,631,320,Sold,,,http://www.redfin.com/CA/San-Bruno/3346-Shelter-Creek-Ln-94066/home/1335632,San Francisco MLS,438883,N,Y,37.619843,-122.428366
PAST SALE,March-11-2016,Condo/Co-op,6301 Shelter Creek Ln #301,San Bruno,CA,94066,435000,1,1.0,San Bruno,680,,1972,690,640,348,Sold,,,http://www.redfin.com/CA/San-Bruno/6301-Shelter-Creek-Ln-94066/unit-301/home/103647972,San Francisco MLS,441679,N,Y,37.619843,-122.428366
PAST SALE,April-26-2016,Condo/Co-op,3143 Shelter Creek Ln,SAN BRUNO,CA,94066,410000,1,1.0,SAN BRUNO,680,,1972,644,603,350,Sold,,,http://www.redfin.com/CA/San-Bruno/3143-Shelter-Creek-Ln-94066/home/1362984,MLSListings,ML81566664,N,Y,37.619843,-122.428366
PAST SALE,June-1-2016,Condo/Co-op,1107 Shelter Creek Ln,SAN BRUNO,CA,94066,430000,1,1.0,SAN BRUNO,680,,1972,608,632,349,Sold,,,http://www.redfin.com/CA/San-Bruno/1107-Shelter-Creek-Ln-94066/home/1137302,MLSListings,ML81580359,N,Y,37.619843,-122.428366
PAST SALE,June-10-2016,Condo/Co-op,2326 Shelter Creek Ln,SAN BRUNO,CA,94066,550000,2,2.0,SAN BRUNO,1000,,1972,599,550,405,Sold,,,http://www.redfin.com/CA/San-Bruno/2326-Shelter-Creek-Ln-94066/home/956175,MLSListings,ML81581962,N,Y,37.619843,-122.428366
PAST SALE,June-28-2016,Condo/Co-op,1152 Shelter Creek Ln,SAN BRUNO,CA,94066,565000,2,2.0,SAN BRUNO,1000,,1972,581,565,401,Sold,,,http://www.redfin.com/CA/San-Bruno/1152-Shelter-Creek-Ln-94066/home/1113941,MLSListings,ML81587523,N,Y,37.619843,-122.428366
PAST SALE,September-26-2016,Condo/Co-op,5324 Shelter Creek Ln,SAN BRUNO,CA,94066,300000,0,1.0,SAN BRUNO,490,,1972,491,612,319,Sold,,,http://www.redfin.com/CA/San-Bruno/5324-Shelter-Creek-Ln-94066/home/2039709,MLSListings,ML81598727,N,Y,37.619843,-122.428366
PAST SALE,December-28-2016,Condo/Co-op,7246 shelter creek Ln #7246,San Bruno,CA,94066,323500,0,1.0,San Bruno,490,,1972,398,660,310,Sold,,,http://www.redfin.com/CA/San-Bruno/7246-Shelter-Creek-Ln-94066/unit-7246/home/109415308,San Francisco MLS,451903,N,Y,37.619843,-122.428366
PAST SALE,February-24-2017,Condo/Co-op,1155 Shelter Creek Ln,SAN BRUNO,CA,94066,410000,1,1.0,SAN BRUNO,680,,1972,340,603,349,Sold,,,http://www.redfin.com/CA/San-Bruno/1155-Shelter-Creek-Ln-94066/home/1278830,MLSListings,ML81633836,N,Y,37.619843,-122.428366
PAST SALE,March-10-2017,Condo/Co-op,6220 Shelter Creek Ln,SAN BRUNO,CA,94066,335000,0,1.0,SAN BRUNO,490,,1972,326,684,328,Sold,,,http://www.redfin.com/CA/San-Bruno/6220-Shelter-Creek-Ln-94066/home/1953896,MLSListings,ML81638312,N,Y,37.619843,-122.428366
PAST SALE,,Condo/Co-op,3357 Shelter Creek Ln,San Bruno,CA,94066,340000,0,1.0,,490,,1972,,694,,,,,http://www.redfin.com/CA/San-Bruno/3357-Shelter-Creek-Ln-94066/home/960516,,,N,Y,37.619843,-122.428366
PAST SALE,March-10-2017,Condo/Co-op,5143 Shelter Creek Ln,SAN BRUNO,CA,94066,405000,1,1.0,SAN BRUNO,680,,1972,326,596,358,Sold,,,http://www.redfin.com/CA/San-Bruno/5143-Shelter-Creek-Ln-94066/home/2049827,MLSListings,ML81640042,N,Y,37.619843,-122.428366
PAST SALE,,Condo/Co-op,8136 Shelter Creek Ln,San Bruno,CA,94066,325000,1,1.0,,680,,1972,,478,,,,,http://www.redfin.com/CA/San-Bruno/8136-Shelter-Creek-Ln-94066/home/1500038,,,N,Y,37.619843,-122.428366
PAST SALE,April-21-2016,Condo/Co-op,4123 Shelter Creek Ln,SAN BRUNO,CA,94066,396000,1,1.0,SAN BRUNO,680,,1972,649,582,397,Sold,,,http://www.redfin.com/CA/San-Bruno/4123-Shelter-Creek-Ln-94066/home/1696987,MLSListings,ML81564729,N,Y,37.61936,-122.4264244
PAST SALE,June-22-2015,Condo/Co-op,8250 Shelter Creek Ln,SAN BRUNO,CA,94066,270000,0,1.0,SAN BRUNO,490,,1972,953,551,325,Sold,,,http://www.redfin.com/CA/San-Bruno/8250-Shelter-Creek-Ln-94066/home/1419349,MLSListings,ML81463620,N,Y,37.6198068,-122.4283627
PAST SALE,February-6-2015,Condo/Co-op,5334 SHELTER CREEK Ln,San Bruno,CA,94066,256500,0,1.0,San Bruno,490,,1972,1089,523,316,Sold,,,http://www.redfin.com/CA/San-Bruno/5334-Shelter-Creek-Ln-94066/home/1795387,MLSListings,ML81440324,N,Y,37.619818,-122.4283777
PAST SALE,October-20-2016,Single Family Residential,160 Palm Ct,SAN BRUNO,CA,94066,1151000,3,2.0,SAN BRUNO,1750,5793,1955,467,658,,Sold,,,http://www.redfin.com/CA/San-Bruno/160-Palm-Ct-94066/home/1168188,MLSListings,ML81613136,N,Y,37.6265584,-122.445991
PAST SALE,October-14-2016,Single Family Residential,2460 Evergreen Dr,SAN BRUNO,CA,94066,930000,4,2.0,SAN BRUNO,1670,5000,1956,473,557,,Sold,,,http://www.redfin.com/CA/San-Bruno/2460-Evergreen-Dr-94066/home/2010603,MLSListings,ML81598915,N,Y,37.6348515,-122.4477122
PAST SALE,October-27-2016,Single Family Residential,3041 Fasman Dr,SAN BRUNO,CA,94066,949000,4,2.5,SAN BRUNO,1946,5562,1960,460,488,,Sold,,,http://www.redfin.com/CA/San-Bruno/3041-Fasman-Dr-94066/home/1096213,MLSListings,ML81613634,N,Y,37.6333863,-122.4579065
PAST SALE,March-11-2016,Single Family Residential,2775 Shannon Dr,SOUTH SAN FRANCISCO,CA,94080,840000,3,2.0,SOUTH SAN FRANCISCO,1500,5401,1963,690,560,,Sold,,,http://www.redfin.com/CA/South-San-Francisco/2775-Shannon-Dr-94080/home/917336,MLSListings,ML81547926,N,Y,37.6359561,-122.4485194
PAST SALE,April-10-2015,Single Family Residential,2735 Shannon Dr,SOUTH SAN FRANCISCO,CA,94080,850000,4,2.0,SOUTH SAN FRANCISCO,1500,5000,1963,1026,567,,Sold,,,http://www.redfin.com/CA/South-San-Francisco/2735-Shannon-Dr-94080/home/1865434,MLSListings,ML81453844,N,Y,37.6360713,-122.4491881
PAST SALE,May-14-2015,Single Family Residential,131 Camellia Ct,SAN BRUNO,CA,94066,985000,4,2.0,SAN BRUNO,1580,6313,1958,992,623,,Sold,,,http://www.redfin.com/CA/San-Bruno/131-Camellia-Ct-94066/home/1674150,MLSListings,ML81455822,N,Y,37.6332219,-122.4487794
PAST SALE,February-8-2016,Single Family Residential,580 Hawthorne Ave,SAN BRUNO,CA,94066,973000,3,2.0,SAN BRUNO,1220,5270,1954,722,798,,Sold,,,http://www.redfin.com/CA/San-Bruno/580-Hawthorne-Ave-94066/home/2040357,MLSListings,ML81545758,N,Y,37.6203042,-122.423853
PAST SALE,August-14-2015,Single Family Residential,368 Hazel Ave,SAN BRUNO,CA,94066,830000,3,2.0,SAN BRUNO,2120,5000,1956,900,392,,Sold,,,http://www.redfin.com/CA/San-Bruno/368-Hazel-Ave-94066/home/1982682,MLSListings,ML81496829,N,Y,37.6187726,-122.4153571
PAST SALE,September-25-2015,Condo/Co-op,2340 Shelter Creek Lane Ln,San Bruno,CA,94066,425000,1,1.0,San Bruno,680,,1972,858,625,348,Sold,,,http://www.redfin.com/CA/San-Bruno/2340-Shelter-Creek-Ln-94066/home/1288147,San Francisco MLS,436313,N,Y,37.6197738,-122.4283483
PAST SALE,July-8-2015,Single Family Residential,116 Manor Dr,SOUTH SAN FRANCISCO,CA,94080,830000,2,1.0,SOUTH SAN FRANCISCO,1298,4500,1946,937,639,,Sold,,,http://www.redfin.com/CA/South-San-Francisco/116-Manor-Dr-94080/home/612885,MLSListings,ML81469039,N,Y,37.640446,-122.4259795
