SALE TYPE,SOLD DATE,PROPERTY TYPE,ADDRESS,CITY,STATE,ZIP,PRICE,BEDS,BATHS,LOCATION,SQUARE FEET,LOT SIZE,YEAR BUILT,DAYS ON MARKET,$/SQUARE FEET,HOA/MONTH,STATUS,NEXT OPEN HOUSE START TIME,NEXT OPEN HOUSE END TIME,URL (SEE http://www.redfin.com/buy-a-home/comparative-market-analysis FOR INFO ON PRICING),SOURCE,MLS#,FAVORITE,INTERESTED,LATITUDE,LONGITUDE
PAST SALE,November-22-2017,Single Family Residential,5515 Civic Terrace Ave,Newark,CA,94560,790000,3,3.0,Newark,1455,2700,1987,77,543,119,Sold,,,http://www.redfin.com/CA/Newark/5515-Civic-Terrace-Ave-94560/home/2046403,EBRD/CCAR/Bay East,40800848,N,Y,37.541277,-122.025207
PAST SALE,September-25-2017,Single Family Residential,37915 Essanay Pl,Fremont,CA,94536,716000,2,2.0,Niles,891,3169,1981,135,804,,Sold,,,http://www.redfin.com/CA/Fremont/37915-Essanay-Pl-94536/home/1721427,EBRD/CCAR/Bay East,40793360,N,Y,37.576013,-121.974019
PAST SALE,December-18-2017,Single Family Residential,6923 Bristol Dr,Berkeley,CA,94705,1120000,4,3.5,Claremont Hills,3601,6922,1995,51,311,,Sold,,,http://www.redfin.com/CA/Berkeley/6923-Bristol-Dr-94705/home/632760,EBRD/CCAR/Bay East,40801225,N,Y,37.8575478,-122.2237068
PAST SALE,September-21-2017,Single Family Residential,695 Rand Ave,Oakland,CA,94610,1075000,4,1.0,Grand Lake,2502,4056,1912,139,430,,Sold,,,http://www.redfin.com/CA/Oakland/695-Rand-Ave-94610/home/1815990,EBRD/CCAR/Bay East,40792644,N,Y,37.8107526,-122.2464194
PAST SALE,December-6-2017,Single Family Residential,1344 99Th Ave,Oakland,CA,94603,449000,3,2.0,East Oakland,1352,3666,1946,63,332,,Sold,,,http://www.redfin.com/CA/Oakland/1344-99th-Ave-94603/home/1330379,EBRD/CCAR/Bay East,40799358,N,Y,37.743134,-122.1705571
PAST SALE,August-25-2017,Single Family Residential,2503 Bradford Ave,Hayward,CA,94545,665000,3,2.0,Hayward,1148,5238,1958,166,579,,Sold,,,http://www.redfin.com/CA/Hayward/2503-Bradford-Ave-94545/home/1823473,EBRD/CCAR/Bay East,40790783,N,Y,37.6358441,-122.1084026
PAST SALE,December-15-2017,Condo/Co-op,692 Macabee Way,Hayward,CA,94541,668000,3,3.0,Hayward,1516,,2011,54,441,223,Sold,,,http://www.redfin.com/CA/Hayward/692-Macabee-Way-94541/home/40087039,EBRD/CCAR/Bay East,40804460,N,Y,37.662464,-122.091361
PAST SALE,October-6-2017,Single Family Residential,229 Wild Flower Ct,Pleasanton,CA,94566,890000,3,2.0,Heritage Gardens,1421,3833,1991,124,626,80,Sold,,,http://www.redfin.com/CA/Pleasanton/229-Wild-Flower-Ct-94566/home/1866718,EBRD/CCAR/Bay East,40795281,N,Y,37.6635762,-121.8600328
PAST SALE,January-12-2018,Multi-Family (2-4 Unit),641 65Th St,Oakland,CA,94609,1620000,6,3.0,Oakland,2757,4800,1923,26,588,,Sold,,,http://www.redfin.com/CA/Oakland/641-65th-St-94609/home/531372,EBRD/CCAR/Bay East,40804715,N,Y,37.8503947,-122.2639903
PAST SALE,September-6-2017,Townhouse,5589 Azalea Way,Newark,CA,94560,849000,4,3.5,Newark,2026,,2016,154,419,198,Sold,,,http://www.redfin.com/CA/Newark/5589-Azalea-Way-94560/home/142995699,EBRD/CCAR/Bay East,40790781,N,Y,37.5356772,-122.0149812
PAST SALE,December-5-2017,Single Family Residential,1206 41St Ave,Oakland,CA,94601,425000,2,1.0,Fruitvale,871,2775,1912,64,488,,Sold,,,http://www.redfin.com/CA/Oakland/1206-41st-Ave-94601/home/1196211,EBRD/CCAR/Bay East,40802935,N,Y,37.7724663,-122.2177188
PAST SALE,October-11-2017,Condo/Co-op,222 Broadway #604,Oakland,CA,94607,900000,2,2.0,Jack London Sq,1028,,2009,119,875,724,Sold,,,http://www.redfin.com/CA/Oakland/222-Broadway-94607/unit-604/home/28696669,EBRD/CCAR/Bay East,40797822,N,Y,37.7963329,-122.2756801
PAST SALE,December-22-2017,Single Family Residential,1779 Serenidad St,Livermore,CA,94550,775000,3,2.0,Livermore,1488,6000,1967,47,521,,Sold,,,http://www.redfin.com/CA/Livermore/1779-Serenidad-St-94550/home/902344,EBRD/CCAR/Bay East,40804689,N,Y,37.6616985,-121.7877906
PAST SALE,January-3-2018,Multi-Family (2-4 Unit),1206 Allston Way,Berkeley,CA,94702,997000,3,2.0,Berkeley,1678,4000,1929,35,594,,Sold,,,http://www.redfin.com/CA/Berkeley/1206-Allston-Way-94702/home/1098677,EBRD/CCAR/Bay East,40803122,N,Y,37.8665598,-122.2886463
PAST SALE,August-25-2017,Townhouse,1320 Mattox Rd,Hayward,CA,94541,500000,2,2.0,Hayward,1531,,2005,166,327,252,Sold,,,http://www.redfin.com/CA/Hayward/1320-Mattox-Rd-94541/home/949256,EBRD/CCAR/Bay East,40788801,N,Y,37.687562,-122.097163
PAST SALE,November-13-2017,Single Family Residential,963 Helen Ave,San Leandro,CA,94577,685000,3,2.0,Broadmoor/Dutton,1397,6970,1927,86,490,,Sold,,,http://www.redfin.com/CA/San-Leandro/963-Helen-Ave-94577/home/757677,EBRD/CCAR/Bay East,40796686,N,Y,37.737115,-122.146195
PAST SALE,January-31-2018,Single Family Residential,1230 Mattox Rd,Hayward,CA,94541,675000,4,3.0,Hayward,1967,22920,1941,7,343,,Sold,,,http://www.redfin.com/CA/Hayward/1230-Mattox-Rd-94541/home/1441011,EBRD/CCAR/Bay East,40795690,N,Y,37.6866997,-122.0982569
PAST SALE,August-22-2017,Single Family Residential,17420 Via La Jolla,San Lorenzo,CA,94580,660000,3,2.0,San Lorenzo Vilg,1531,5408,1952,169,431,13,Sold,,,http://www.redfin.com/CA/San-Lorenzo/17420-Via-La-Jolla-94580/home/1411799,EBRD/CCAR/Bay East,40787828,N,Y,37.66435,-122.134635
PAST SALE,October-27-2017,Single Family Residential,1523 Carleton St,Berkeley,CA,94703,1250000,3,2.0,South Berkeley,1406,4389,1927,103,889,,Sold,,,http://www.redfin.com/CA/Berkeley/1523-Carleton-St-94703/home/1120320,EBRD/CCAR/Bay East,40798017,N,Y,37.8599425,-122.2793342
PAST SALE,September-6-2017,Townhouse,44 Glashaus Loop,Emeryville,CA,94608,716888,2,2.5,Emeryville,1121,,2007,154,640,210,Sold,,,http://www.redfin.com/CA/Emeryville/44-Glashaus-Loop-94608/home/17185729,EBRD/CCAR/Bay East,40785663,N,Y,37.846639,-122.290397
PAST SALE,October-23-2017,Single Family Residential,11532 Bay Laurel St,Dublin,CA,94568,1300000,5,4.5,Hansen Hill,3317,9863,1996,107,392,77,Sold,,,http://www.redfin.com/CA/Dublin/11532-Bay-Laurel-St-94568/home/1268709,EBRD/CCAR/Bay East,40797052,N,Y,37.7044784,-121.9473234
PAST SALE,December-29-2017,Single Family Residential,1145 Tiegen Dr,Hayward,CA,94542,530000,2,1.0,Hayward,846,5670,1948,40,626,,Sold,,,http://www.redfin.com/CA/Hayward/1145-Tiegen-Dr-94542/home/1641617,EBRD/CCAR/Bay East,40803716,N,Y,37.6662467,-122.0726949
PAST SALE,December-15-2017,Multi-Family (2-4 Unit),2127 E 21St St,Oakland,CA,94606,639000,4,2.0,Oakland,1500,1850,1906,54,426,,Sold,,,http://www.redfin.com/CA/Oakland/2127-E-21st-St-94606/home/1476727,EBRD/CCAR/Bay East,40787388,N,Y,37.789672,-122.233703
PAST SALE,November-30-2017,Single Family Residential,6155 Bridgestone Cir,Dublin,CA,94568,945000,3,2.5,Dublin Ranch,1862,3083,2000,69,508,120,Sold,,,http://www.redfin.com/CA/Dublin/6155-Bridgestone-Cir-94568/home/1538227,EBRD/CCAR/Bay East,40801163,N,Y,37.724569,-121.870951
PAST SALE,August-31-2017,Condo/Co-op,2917 Macarthur Blvd Unit 1C,Oakland,CA,94602,399000,2,1.5,Diamond District,1088,,1984,160,367,447,Sold,,,http://www.redfin.com/CA/Oakland/2917-MacArthur-Blvd-94602/unit-1C/home/540515,EBRD/CCAR/Bay East,40788252,N,Y,37.7977041,-122.2063841
PAST SALE,August-31-2017,Townhouse,34134 Chamberlain Ter,Fremont,CA,94555,555000,2,1.5,Fremont,988,780,1970,160,562,270,Sold,,,http://www.redfin.com/CA/Fremont/34134-Chamberlain-Ter-94555/home/1817652,EBRD/CCAR/Bay East,40791641,N,Y,37.577037,-122.038121
PAST SALE,November-17-2017,Single Family Residential,33276 Palomino Cmn,Fremont,CA,94555,1035000,4,2.5,Kensington Park,1988,4602,1993,82,521,100,Sold,,,http://www.redfin.com/CA/Fremont/33276-Palomino-Cmn-94555/home/1152610,EBRD/CCAR/Bay East,40796661,N,Y,37.5841746,-122.0515637
PAST SALE,August-29-2017,Single Family Residential,3713 Vine St,Pleasanton,CA,94566,867500,3,2.5,Heritage Gardens,1671,3760,1990,162,519,80,Sold,,,http://www.redfin.com/CA/Pleasanton/3713-Vine-St-94566/home/1190213,EBRD/CCAR/Bay East,40790260,N,Y,37.6642606,-121.8609788
PAST SALE,October-20-2017,Condo/Co-op,6706 S Mariposa Ln,Dublin,CA,94568,735000,3,2.5,Dublin,1727,,2013,110,426,235,Sold,,,http://www.redfin.com/CA/Dublin/6706-S-Mariposa-Ln-94568/home/50262198,EBRD/CCAR/Bay East,40797034,N,Y,37.713298,-121.911953
PAST SALE,November-30-2017,Townhouse,800 Old Oak Ln #4,Hayward,CA,94541,586000,3,2.5,Hayward,1303,1201,2011,69,450,211,Sold,,,http://www.redfin.com/CA/Hayward/800-Old-Oak-Ln-94541/unit-4/home/22682694,EBRD/CCAR/Bay East,40801289,N,Y,37.6650673,-122.0989584
PAST SALE,August-28-2017,Condo/Co-op,1121 40Th St #2207,Emeryville,CA,94608,545000,2,2.0,Emeryville,1146,,2005,163,476,536,Sold,,,http://www.redfin.com/CA/Emeryville/1121-40th-St-94608/unit-2207/home/2112022,EBRD/CCAR/Bay East,40786443,N,Y,37.8309242,-122.2793573
PAST SALE,December-29-2017,Single Family Residential,3917 Market St,Oakland,CA,94608,997000,3,1.0,N Oakland,1333,3640,1940,40,748,,Sold,,,http://www.redfin.com/CA/Oakland/3917-Market-St-94608/home/1457399,EBRD/CCAR/Bay East,40804586,N,Y,37.8302232,-122.2743329
PAST SALE,January-30-2018,Single Family Residential,36194 Silverado Pl,Newark,CA,94560,1320000,4,3.0,Mayhew Landing,2317,4864,1998,8,570,55,Sold,,,http://www.redfin.com/CA/Newark/36194-Silverado-Pl-94560/home/1984655,EBRD/CCAR/Bay East,40806346,N,Y,37.5343823,-122.0596512
PAST SALE,September-19-2017,Single Family Residential,5921 Hilton St,Oakland,CA,94605,480000,2,2.0,Seminary,1238,3780,1922,141,388,,Sold,,,http://www.redfin.com/CA/Oakland/5921-Hilton-St-94605/home/568204,EBRD/CCAR/Bay East,40793246,N,Y,37.7690682,-122.1930274
PAST SALE,August-17-2017,Condo/Co-op,3813 Milton Ter,Fremont,CA,94555,520000,2,2.0,Parkside Place,985,63340,1986,174,528,315,Sold,,,http://www.redfin.com/CA/Fremont/3813-Milton-Ter-94555/home/905553,EBRD/CCAR/Bay East,40788962,N,Y,37.578711,-122.043266
PAST SALE,December-19-2017,Single Family Residential,2100 109Th Ave,Oakland,CA,94603,550000,4,2.0,Durant Manor,1328,3737,1941,50,414,,Sold,,,http://www.redfin.com/CA/Oakland/2100-109th-Ave-94603/home/1458917,EBRD/CCAR/Bay East,40803330,N,Y,37.7390311,-122.1571958
PAST SALE,October-27-2017,Single Family Residential,4751 Dunkirk Ave,Oakland,CA,94605,810000,3,2.0,Grass Valley,1524,6912,1956,103,531,,Sold,,,http://www.redfin.com/CA/Oakland/4751-Dunkirk-Ave-94605/home/661538,EBRD/CCAR/Bay East,40797923,N,Y,37.753454,-122.1243789
PAST SALE,October-30-2017,Single Family Residential,1310 Cedar St,Berkeley,CA,94702,1380000,4,2.0,N Berkeley,1776,5000,1964,100,777,,Sold,,,http://www.redfin.com/CA/Berkeley/1310-Cedar-St-94702/home/1630388,EBRD/CCAR/Bay East,40798850,N,Y,37.8757968,-122.2879413
PAST SALE,December-7-2017,Single Family Residential,1040 Keith Ave,Berkeley,CA,94708,1382650,4,3.5,North Cragmont,2240,5757,1960,62,617,,Sold,,,http://www.redfin.com/CA/Berkeley/1040-Keith-Ave-94708/home/1729870,EBRD/CCAR/Bay East,40802129,N,Y,37.8891434,-122.2646362
PAST SALE,September-7-2017,Condo/Co-op,1511 Jefferson St #307,Oakland,CA,94612,772500,2,2.0,Downtown,1230,,2007,153,628,458,Sold,,,http://www.redfin.com/CA/Oakland/1511-Jefferson-St-94612/unit-307/home/12115854,EBRD/CCAR/Bay East,40789883,N,Y,37.8068727,-122.2744844
PAST SALE,August-14-2017,Single Family Residential,6427 Almaden Way,Livermore,CA,94551,726000,3,2.0,Creekside,1630,5062,2001,177,445,,Sold,,,http://www.redfin.com/CA/Livermore/6427-Almaden-Way-94551/home/1478223,EBRD/CCAR/Bay East,40786354,N,Y,37.7124905,-121.7186194
PAST SALE,September-20-2017,Single Family Residential,2716 Wallace St,Berkeley,CA,94702,804000,2,1.0,San Pablo Park,1185,3850,1929,140,678,,Sold,,,http://www.redfin.com/CA/Berkeley/2716-Wallace-St-94702/home/663722,EBRD/CCAR/Bay East,40791919,N,Y,37.8563749,-122.2871232
PAST SALE,November-9-2017,Single Family Residential,570 Firenza St,Livermore,CA,94551,1035000,5,3.0,Monticello,2748,7560,1994,90,377,,Sold,,,http://www.redfin.com/CA/Livermore/570-Firenza-St-94551/home/890655,EBRD/CCAR/Bay East,40797668,N,Y,37.6865277,-121.7930546
PAST SALE,September-29-2017,Townhouse,22801 Paseo Pl,Hayward,CA,94541,562000,3,3.0,Hayward,1595,,2004,131,352,320,Sold,,,http://www.redfin.com/CA/Hayward/22801-Paseo-Pl-94541/home/1442983,EBRD/CCAR/Bay East,40795059,N,Y,37.6684107,-122.0837251
PAST SALE,October-27-2017,Townhouse,17 Ealing Ln,Oakland,CA,94608,650000,2,1.5,West Clawson,1135,716,2005,103,573,175,Sold,,,http://www.redfin.com/CA/Oakland/17-Ealing-Ln-94608/home/17187243,EBRD/CCAR/Bay East,40796023,N,Y,37.8221234,-122.2878036
PAST SALE,,Single Family Residential,1769 Elm St,Livermore,CA,94551,560000,2,1.0,,1082,5000,1943,,518,,,,,http://www.redfin.com/CA/Livermore/1769-Elm-St-94551/home/879492,,,N,Y,37.6875386,-121.7774889
PAST SALE,November-13-2017,Condo/Co-op,191 Loma Verde Dr,San Lorenzo,CA,94580,440000,2,1.5,Loma Verde,1056,,1985,86,417,288,Sold,,,http://www.redfin.com/CA/San-Lorenzo/191-Loma-Verde-Dr-94580/home/946082,EBRD/CCAR/Bay East,40798382,N,Y,37.685602,-122.118188
PAST SALE,August-29-2017,Condo/Co-op,4171 CLARINBRIDGE Cir,Dublin,CA,94568,628000,2,2.0,Dublin Ranch Vlg,1420,,2004,162,442,283,Sold,,,http://www.redfin.com/CA/Dublin/4171-Clarinbridge-Cir-94568/home/2111193,EBRD/CCAR/Bay East,40791112,N,Y,37.707289,-121.868286
PAST SALE,October-24-2017,Townhouse,18 Starview Dr,Oakland,CA,94618,1300000,2,3.0,Hiller Highlands,2252,2464,1994,106,577,186,Sold,,,http://www.redfin.com/CA/Oakland/18-Starview-Dr-94618/home/626561,EBRD/CCAR/Bay East,40797820,N,Y,37.852148,-122.2282263
PAST SALE,October-16-2017,Townhouse,91 City Limits Cir,Oakland,CA,94608,755000,2,2.5,Nobe,1151,,2005,114,656,246,Sold,,,http://www.redfin.com/CA/Oakland/91-City-Limits-Cir-94608/home/2111902,EBRD/CCAR/Bay East,40795772,N,Y,37.8491645,-122.2883154
PAST SALE,September-28-2017,Condo/Co-op,607 Centre Ct,Alameda,CA,94502,805000,2,2.5,Harbor Bay,1720,,1985,132,468,550,Sold,,,http://www.redfin.com/CA/Alameda/607-Centre-Ct-94502/home/1100807,EBRD/CCAR/Bay East,40793635,N,Y,37.7457884,-122.2372447
PAST SALE,December-14-2017,Condo/Co-op,1321 Webster St Unit D210,Alameda,CA,94501,420000,1,1.0,Park Webster,701,35258,1970,55,599,412,Sold,,,http://www.redfin.com/CA/Alameda/1321-Webster-St-94501/unit-D210/home/740860,EBRD/CCAR/Bay East,40801556,N,Y,37.7698809,-122.2777044
PAST SALE,November-17-2017,Single Family Residential,35333 Lancero St,FREMONT,CA,94536,1248000,5,4.0,FREMONT,2090,9202,1965,82,597,,Sold,,,http://www.redfin.com/CA/Fremont/35333-Lancero-St-94536/home/1318856,MLSListings,ML81680587,N,Y,37.5646615,-122.0325892
PAST SALE,November-14-2017,Townhouse,7225 Cronin Cir,Dublin,CA,94568,535000,2,1.5,Kildara,906,906,1991,85,591,355,Sold,,,http://www.redfin.com/CA/Dublin/7225-Cronin-Cir-94568/unit-152/home/1991667,EBRD/CCAR/Bay East,40801121,N,Y,37.703689,-121.938419
PAST SALE,December-7-2017,Single Family Residential,3237 San Marco Way,Union City,CA,94587,865000,4,2.0,Union City,1675,5500,1969,62,516,,Sold,,,http://www.redfin.com/CA/Union-City/3237-San-Marco-Way-94587/home/1403203,EBRD/CCAR/Bay East,40801612,N,Y,37.5949869,-122.0681339
PAST SALE,November-6-2017,Single Family Residential,5519 Rainflower Dr,Livermore,CA,94551,790000,3,2.5,Springtown,1924,5010,1990,93,411,,Sold,,,http://www.redfin.com/CA/Livermore/5519-Rainflower-Dr-94551/home/914164,EBRD/CCAR/Bay East,40798637,N,Y,37.7084884,-121.7300344
PAST SALE,December-4-2017,Single Family Residential,1945 Sherman Dr,Union City,CA,94587,829000,3,2.0,Union City,1349,6000,1968,65,615,,Sold,,,http://www.redfin.com/CA/Union-City/1945-Sherman-Dr-94587/home/1816145,EBRD/CCAR/Bay East,40802298,N,Y,37.5949713,-122.0311013
PAST SALE,September-12-2017,Single Family Residential,3055 Bantry Ave,Oakland,CA,94605,525000,2,1.0,Millmont,960,11832,1960,148,547,,Sold,,,http://www.redfin.com/CA/Oakland/3055-Bantry-Ave-94605/home/1161573,EBRD/CCAR/Bay East,40787922,N,Y,37.7720717,-122.1699934
PAST SALE,October-31-2017,Single Family Residential,6808 Syrah Dr,Dublin,CA,94568,1210000,4,3.0,Dublin,2716,4226,2015,99,446,103,Sold,,,http://www.redfin.com/CA/Dublin/6808-Syrah-Dr-94568/home/40628139,EBRD/CCAR/Bay East,40797909,N,Y,37.7344065,-121.8653907
PAST SALE,November-17-2017,Single Family Residential,7841 Surrey Ln,Oakland,CA,94605,823000,4,3.0,Sequoyah,2442,8400,1970,82,337,,Sold,,,http://www.redfin.com/CA/Oakland/7841-Surrey-Ln-94605/home/592451,EBRD/CCAR/Bay East,40790031,N,Y,37.7764951,-122.1385678
PAST SALE,October-9-2017,Single Family Residential,57 Tunnel Rd,Berkeley,CA,94705,1490000,3,2.5,Claremont,1780,5560,1930,121,837,,Sold,,,http://www.redfin.com/CA/Berkeley/57-Tunnel-Rd-94705/home/1270962,EBRD/CCAR/Bay East,40795748,N,Y,37.8570176,-122.2413433
PAST SALE,October-25-2017,Single Family Residential,2268 E 17Th St,Oakland,CA,94606,711000,3,2.0,San Antonio,1425,5550,1908,105,499,,Sold,,,http://www.redfin.com/CA/Oakland/2268-E-17th-St-94606/home/532553,EBRD/CCAR/Bay East,40798172,N,Y,37.7865611,-122.2340568
PAST SALE,August-11-2017,Condo/Co-op,1321 Webster St Unit D218,Alameda,CA,94501,445000,2,1.0,Park Webster,846,35258,1970,180,526,439,Sold,,,http://www.redfin.com/CA/Alameda/1321-Webster-St-94501/unit-D218/home/743170,EBRD/CCAR/Bay East,40787921,N,Y,37.76988938,-122.2782248
PAST SALE,November-15-2017,Townhouse,3760 39Th Ave Unit H,Oakland,CA,94619,575000,2,2.5,Laurel Heights,1094,,1993,84,526,310,Sold,,,http://www.redfin.com/CA/Oakland/3760-39th-Ave-94619/unit-H/home/1250374,EBRD/CCAR/Bay East,40798718,N,Y,37.79078,-122.194564
PAST SALE,September-29-2017,Single Family Residential,6981 Alamo Crk,Dublin,CA,94568,825000,3,2.5,Alamo Creek,1873,1531,2013,131,440,143,Sold,,,http://www.redfin.com/CA/Dublin/6981-Alamo-Creek-Trl-94568/home/50262235,EBRD/CCAR/Bay East,40796988,N,Y,37.7169725,-121.9112017
PAST SALE,September-5-2017,Single Family Residential,4009 Malcolm Ave,Oakland,CA,94605,740000,3,2.5,Chabot Park,1948,9086,1960,155,380,,Sold,,,http://www.redfin.com/CA/Oakland/4009-Malcolm-Ave-94605/home/1993133,EBRD/CCAR/Bay East,40787391,N,Y,37.7508175,-122.1349989
PAST SALE,September-29-2017,Single Family Residential,1251 Seminary Ave,Oakland,CA,94621,415000,3,2.0,Eastlawn,1086,4000,1924,131,382,,Sold,,,http://www.redfin.com/CA/Oakland/1251-Seminary-Ave-94621/home/578207,EBRD/CCAR/Bay East,40796026,N,Y,37.7636596,-122.2019971
PAST SALE,November-2-2017,Single Family Residential,6764 Flanders Dr,Newark,CA,94560,750000,3,2.0,Lido Faire,1100,6650,1961,97,682,,Sold,,,http://www.redfin.com/CA/Newark/6764-Flanders-Dr-94560/home/1283332,EBRD/CCAR/Bay East,40798383,N,Y,37.5423259,-122.0527084
PAST SALE,October-31-2017,Single Family Residential,38393 Amaryllis Pl,Newark,CA,94560,1257000,4,3.0,Newark,2708,6016,2003,99,464,,Sold,,,http://www.redfin.com/CA/Newark/38393-Amaryllis-Pl-94560/home/1227636,EBRD/CCAR/Bay East,40794202,N,Y,37.5320188,-122.0105244
PAST SALE,December-4-2017,Condo/Co-op,23139 Canyon Terrace Dr,Castro Valley,CA,94552,685000,4,2.5,Wildwood,1463,,1996,65,468,419,Sold,,,http://www.redfin.com/CA/Castro-Valley/23139-Canyon-Terrace-Dr-94552/unit-9-02/home/1337890,EBRD/CCAR/Bay East,40800104,N,Y,37.689303,-122.040171
PAST SALE,August-30-2017,Single Family Residential,1076 Aileen St,Oakland,CA,94608,755000,3,1.5,Oakland,1392,3808,1917,161,542,,Sold,,,http://www.redfin.com/CA/Oakland/1076-Aileen-St-94608/home/1764153,EBRD/CCAR/Bay East,40787925,N,Y,37.839973,-122.28156
PAST SALE,November-1-2017,Single Family Residential,562 Selby Ln,Livermore,CA,94551,755000,3,3.0,Montage,1600,1753,2012,98,472,149,Sold,,,http://www.redfin.com/CA/Livermore/562-Selby-Ln-94551/home/22652037,EBRD/CCAR/Bay East,40798522,N,Y,37.7092203,-121.797924
PAST SALE,November-3-2017,Single Family Residential,10665 Pearmain St,Oakland,CA,94603,440000,3,2.0,East Oakland,1088,3800,1920,96,404,,Sold,,,http://www.redfin.com/CA/Oakland/10665-Pearmain-St-94603/home/1761633,EBRD/CCAR/Bay East,40796790,N,Y,37.7332513,-122.1753588
PAST SALE,October-31-2017,Single Family Residential,5481 Cumberland Park Ct,Fremont,CA,94538,1050000,4,2.0,Fremont,1736,7920,1962,99,605,,Sold,,,http://www.redfin.com/CA/Fremont/5481-Cumberland-Park-Ct-94538/home/1115904,EBRD/CCAR/Bay East,40796660,N,Y,37.515874,-121.9718001
PAST SALE,December-18-2017,Single Family Residential,3638 Platt Ct,Pleasanton,CA,94588,975000,3,2.0,Valley Trails,1576,6820,1969,51,619,,Sold,,,http://www.redfin.com/CA/Pleasanton/3638-Platt-Ct-S-94588/home/877370,EBRD/CCAR/Bay East,40802807,N,Y,37.6767758,-121.9076036
PAST SALE,December-13-2017,Single Family Residential,956 SUMMIT CREEK Ct,Pleasanton,CA,94566,2190000,6,5.0,Bridle Creek,4455,16434,2000,56,492,82,Sold,,,http://www.redfin.com/CA/Pleasanton/956-Summit-Creek-Ct-94566/home/1912915,EBRD/CCAR/Bay East,40803952,N,Y,37.645557,-121.8719483
PAST SALE,September-8-2017,Townhouse,4057 San Giorgio Ct,Pleasanton,CA,94588,680000,2,2.5,Siena,1316,988,1997,152,517,210,Sold,,,http://www.redfin.com/CA/Pleasanton/4057-San-Giorgio-Ct-94588/home/1180497,EBRD/CCAR/Bay East,40792121,N,Y,37.694231,-121.892209
PAST SALE,December-27-2017,Condo/Co-op,400 Persimmon Cmn #1,Livermore,CA,94551,712031,3,2.5,Livermore,1413,,2016,42,504,358,Sold,,,http://www.redfin.com/CA/Livermore/400-Persimmon-Cmn-94551/unit-1/home/143118115,EBRD/CCAR/Bay East,40792725,N,Y,37.7032909,-121.7939034
PAST SALE,,Single Family Residential,3757 Selvante St,Pleasanton,CA,94566,2535000,4,5.0,,7211,26028,2008,,352,,,,,http://www.redfin.com/CA/Pleasanton/3757-Selvante-St-94566/home/22655796,,,N,Y,37.637492,-121.8055159
PAST SALE,August-22-2017,Single Family Residential,2726 Solandra Ct,PLEASANTON,CA,94588,1025000,4,2.5,PLEASANTON,2051,2949,1998,169,500,165,Sold,,,http://www.redfin.com/CA/Pleasanton/2726-Solandra-Ct-94588/home/878265,MLSListings,ML81650280,N,Y,37.6927271,-121.8597724
PAST SALE,November-29-2017,Single Family Residential,563 Merlot Dr,Fremont,CA,94539,1560000,4,2.0,Scott Creek Terr,2144,6575,1986,70,728,,Sold,,,http://www.redfin.com/CA/Fremont/563-Merlot-Dr-94539/home/1817123,EBRD/CCAR/Bay East,40800886,N,Y,37.4680214,-121.9098353
PAST SALE,December-6-2017,Single Family Residential,385 Yosemite Dr,Livermore,CA,94551,797500,4,2.0,Livermore,1561,7576,1972,63,511,,Sold,,,http://www.redfin.com/CA/Livermore/385-Yosemite-Dr-94551/home/1838276,EBRD/CCAR/Bay East,40805209,N,Y,37.6830441,-121.8032886
PAST SALE,December-8-2017,Single Family Residential,1757 Greenwood Rd,Pleasanton,CA,94566,1142000,3,2.0,Pleasanton Vally,1724,7150,1966,61,662,,Sold,,,http://www.redfin.com/CA/Pleasanton/1757-Greenwood-Rd-94566/home/1195687,EBRD/CCAR/Bay East,40802564,N,Y,37.6740302,-121.8801702
PAST SALE,August-11-2017,Single Family Residential,2505 Arlotta Pl,Pleasanton,CA,94588,1875000,4,3.5,Laguna Oaks,3830,17777,1995,180,490,165,Sold,,,http://www.redfin.com/CA/Pleasanton/2505-Arlotta-Pl-94588/home/1269140,EBRD/CCAR/Bay East,40788000,N,Y,37.6568875,-121.9075747
PAST SALE,December-27-2017,Condo/Co-op,2197 ARROYO Ct,Pleasanton,CA,94588,482000,2,1.0,Laguna Vista,810,,1971,42,595,305,Sold,,,http://www.redfin.com/CA/Pleasanton/2197-Arroyo-Ct-94588/home/1195518,EBRD/CCAR/Bay East,40803360,N,Y,37.6509058,-121.9032792
PAST SALE,,Vacant Land,1504 Catalina Ct,Livermore,CA,94550,691500,,,,,2013,,,,,,,,http://www.redfin.com/CA/Livermore/1504-Catalina-Ct-94550/home/143119459,,,N,Y,37.6626829,-121.7826766
PAST SALE,January-17-2018,Single Family Residential,47512 Hoyt St,FREMONT,CA,94539,1370000,3,2.0,FREMONT,1234,6200,1961,21,1110,,Sold,,,http://www.redfin.com/CA/Fremont/47512-Hoyt-St-94539/home/1492839,MLSListings,ML81685945,N,Y,37.4821471,-121.9185955
PAST SALE,November-28-2017,Condo/Co-op,286 Hackamore Cmn,Fremont,CA,94539,585000,2,1.0,Fremont,878,,1984,71,666,374,Sold,,,http://www.redfin.com/CA/Fremont/286-Hackamore-Cmn-94539/unit-100/home/1317938,EBRD/CCAR/Bay East,40800419,N,Y,37.4863299,-121.9246121
PAST SALE,October-16-2017,Single Family Residential,484 Crystalline Dr,Fremont,CA,94539,1575000,4,3.0,Weibel Area,2540,10500,1985,114,620,,Sold,,,http://www.redfin.com/CA/Fremont/484-Crystalline-Dr-94539/home/1097308,EBRD/CCAR/Bay East,40788545,N,Y,37.4985527,-121.9228576
PAST SALE,November-29-2017,Townhouse,4151 Veneto Ct,Pleasanton,CA,94588,695000,2,2.5,Siena/Hacienda,1316,988,1997,70,528,225,Sold,,,http://www.redfin.com/CA/Pleasanton/4151-Veneto-Ct-94588/home/1184409,EBRD/CCAR/Bay East,40801233,N,Y,37.694739,-121.891677
PAST SALE,November-30-2017,Condo/Co-op,843 Division St Unit C,Pleasanton,CA,94566,455000,2,1.5,Pleasanton Oaks,905,,1959,69,503,427,Sold,,,http://www.redfin.com/CA/Pleasanton/843-Division-St-94566/unit-C/home/1483069,EBRD/CCAR/Bay East,40801888,N,Y,37.6650368,-121.8815152
PAST SALE,January-17-2018,Single Family Residential,422 Anza St,Fremont,CA,94539,1275000,3,2.0,Mission San Jose,1503,5022,1953,21,848,,Sold,,,http://www.redfin.com/CA/Fremont/422-Anza-St-94539/home/1400096,EBRD/CCAR/Bay East,40804311,N,Y,37.5292217,-121.9246099
PAST SALE,,Vacant Land,5850 W Las Positas Blvd,Pleasanton,CA,94588,958000,,,,,,,,,,,,,http://www.redfin.com/CA/Pleasanton/5850-W-Las-Positas-Blvd-94588/home/143115748,,,N,Y,37.6839067,-121.8951664
PAST SALE,,Vacant Land,5850 W Las Positas Blvd,Pleasanton,CA,94588,908000,,,,,,,,,,,,,http://www.redfin.com/CA/Pleasanton/5850-W-Las-Positas-Blvd-94588/home/143115751,,,N,Y,37.6839067,-121.8951664
PAST SALE,January-31-2018,Single Family Residential,611 Aztec Ct,Fremont,CA,94539,1365000,3,2.0,Warm Springs,1441,6060,1965,7,947,,Sold,,,http://www.redfin.com/CA/Fremont/611-Aztec-Ct-94539/home/1795946,EBRD/CCAR/Bay East,40805637,N,Y,37.4913589,-121.9224627
PAST SALE,November-17-2017,Single Family Residential,49181 Tulip Ter,Fremont,CA,94539,1367010,4,2.5,Warm Springs,2010,2397,2005,82,680,130,Sold,,,http://www.redfin.com/CA/Fremont/49181-Tulip-Ter-94539/home/1240720,EBRD/CCAR/Bay East,40800567,N,Y,37.4594724,-121.9156232
PAST SALE,October-6-2017,Townhouse,55 Via Malaga,FREMONT,CA,94539,860000,3,2.0,FREMONT,1242,960,1971,124,692,277,Sold,,,http://www.redfin.com/CA/Fremont/55-Via-Malaga-94539/home/1650422,MLSListings,ML81676863,N,Y,37.537896,-121.9238868
PAST SALE,November-21-2017,Single Family Residential,7802 Lafayette Ct,Pleasanton,CA,94588,1510000,5,3.0,Forest Hills Est,3430,10671,1996,78,440,,Sold,,,http://www.redfin.com/CA/Pleasanton/7802-Lafayette-Ct-94588/home/1541025,EBRD/CCAR/Bay East,40793625,N,Y,37.6829928,-121.9245229
PAST SALE,October-2-2017,Single Family Residential,44441 Chantecler Ct,Fremont,CA,94539,2332000,5,3.5,Mission San Jose,3075,17186,1991,128,758,,Sold,,,http://www.redfin.com/CA/Fremont/44441-Chantecler-Ct-94539/home/1684169,EBRD/CCAR/Bay East,40794255,N,Y,37.5162125,-121.9173281
PAST SALE,September-16-2017,Single Family Residential,328 Ohlones St,Fremont,CA,94539,1405000,3,3.0,Mission Area,1944,5022,1953,144,723,,Sold,,,http://www.redfin.com/CA/Fremont/328-Ohlones-St-94539/home/1628086,EBRD/CCAR/Bay East,40795873,N,Y,37.5314477,-121.9235269
PAST SALE,December-7-2017,Single Family Residential,4010 Alvarado St,Pleasanton,CA,94566,840000,3,2.0,Amador Estates,1236,6974,1964,62,680,,Sold,,,http://www.redfin.com/CA/Pleasanton/4010-Alvarado-St-94566/home/2008069,EBRD/CCAR/Bay East,40800980,N,Y,37.6736497,-121.8690324
PAST SALE,October-4-2017,Single Family Residential,329 Dana St,FREMONT,CA,94539,1760000,4,3.0,FREMONT,2814,5022,1953,126,625,,Sold,,,http://www.redfin.com/CA/Fremont/329-Dana-St-94539/home/1081728,MLSListings,ML81674653,N,Y,37.5311727,-121.9234538
PAST SALE,October-16-2017,Single Family Residential,44603 Japala Pl,FREMONT,CA,94539,1230000,3,2.0,FREMONT,1296,6483,1979,114,949,,Sold,,,http://www.redfin.com/CA/Fremont/44603-Japala-Pl-94539/home/993045,MLSListings,ML81676257,N,Y,37.5127566,-121.9213918
PAST SALE,,Single Family Residential,309 Anza St,Fremont,CA,94539,1055000,3,1.0,,951,5022,1953,,1109,,,,,http://www.redfin.com/CA/Fremont/309-Anza-St-94539/home/1108010,,,N,Y,37.5299987,-121.9225178
PAST SALE,October-25-2017,Single Family Residential,347 DE LEON Ave,FREMONT,CA,94539,1600000,4,3.0,FREMONT,2540,5022,2010,105,630,,Sold,,,http://www.redfin.com/CA/Fremont/347-De-Leon-Ave-94539/home/1081849,MLSListings,ML81678731,N,Y,37.5291719,-121.9234125
PAST SALE,November-21-2017,Townhouse,789 PRADERIA Cir,Fremont,CA,94539,1126000,2,2.5,Mission Area,1656,3150,1988,78,680,325,Sold,,,http://www.redfin.com/CA/Fremont/789-Praderia-Cir-94539/home/1260549,EBRD/CCAR/Bay East,40801010,N,Y,37.519233,-121.923838
PAST SALE,November-22-2017,Condo/Co-op,7052 Dublin Meadows St Unit G,Dublin,CA,94568,410000,1,1.0,Alamo Creek,805,,1992,77,509,299,Sold,,,http://www.redfin.com/CA/Dublin/7052-Dublin-Meadows-St-94568/unit-G/home/1175801,EBRD/CCAR/Bay East,40803357,N,Y,37.717137,-121.91327
PAST SALE,November-22-2017,Single Family Residential,7357 Quartz Cir,Dublin,CA,94568,1005000,4,3.0,Dublin Hills Est,2044,6500,1988,77,492,,Sold,,,http://www.redfin.com/CA/Dublin/7357-Quartz-Cir-94568/home/1138104,EBRD/CCAR/Bay East,40799136,N,Y,37.718653,-121.9162524
PAST SALE,November-14-2017,Single Family Residential,6958 Darian Ct,Dublin,CA,94568,755000,3,2.0,Dublin,1053,6931,1964,85,717,,Sold,,,http://www.redfin.com/CA/Dublin/6958-Darian-Ct-94568/home/590054,EBRD/CCAR/Bay East,40799619,N,Y,37.7176842,-121.922433
PAST SALE,November-13-2017,Single Family Residential,3657 Shenanadoah Ct,Pleasanton,CA,94588,913000,3,2.5,Valley Trails,1744,6700,1970,86,524,,Sold,,,http://www.redfin.com/CA/Pleasanton/3657-Shenandoah-Ct-94588/home/1326801,EBRD/CCAR/Bay East,40798252,N,Y,37.6731192,-121.9096994
PAST SALE,November-13-2017,Single Family Residential,,Pleasanton,CA,94588,860000,5,3.0,Val Vista,1926,6943,1971,86,447,,Sold,,,http://www.redfin.com/CA/Pleasanton/Undisclosed-address-94588/home/534771,EBRD/CCAR/Bay East,40794925,N,Y,37.6792897,-121.9103417
PAST SALE,December-1-2017,Condo/Co-op,7090 Dublin Meadows St Unit A,Dublin,CA,94568,426000,1,1.0,Alamo Creek,805,,1992,68,529,299,Sold,,,http://www.redfin.com/CA/Dublin/7090-Dublin-Meadows-St-94568/unit-A/home/1739046,EBRD/CCAR/Bay East,40799824,N,Y,37.717137,-121.91327
PAST SALE,January-10-2018,Vacant Land,0 Vargas Rd,FREMONT,CA,94536,1028000,,,FREMONT,,1200078,,28,,,Sold,,,http://www.redfin.com/CA/Fremont/Vargas-Rd-Unknown/home/22670156,MLSListings,ML81647163,N,Y,37.5597867,-121.9241456
PAST SALE,,Single Family Residential,43409 Mission Blvd,Fremont,CA,94539,895000,3,1.0,,1248,7900,1895,,717,,,,,http://www.redfin.com/CA/Fremont/43409-Mission-Blvd-94539/home/1984169,,,N,Y,37.5317847,-121.9198975
PAST SALE,,Condo/Co-op,2329 Foothill Rd Apt 1,Pleasanton,CA,94588,490000,2,1.0,,798,,1972,,614,,,,,http://www.redfin.com/CA/Pleasanton/2329-Foothill-Rd-94588/unit-1/home/1923636,,,N,Y,37.650245,-121.90387
PAST SALE,December-13-2017,Single Family Residential,8023 Golden Eagle Way,Pleasanton,CA,94588,2525888,5,5.5,Golden Eagle,5483,36931,1993,56,461,285,Sold,,,http://www.redfin.com/CA/Pleasanton/8023-Golden-Eagle-Way-94588/home/1794864,EBRD/CCAR/Bay East,40802578,N,Y,37.6425372,-121.9010825
PAST SALE,,Vacant Land,Dougherty Rd,Dublin,CA,,10000,,,,,330151,,,,,,,,http://www.redfin.com/CA/Dublin/Dougherty-Rd-Unknown/home/143118716,,,N,Y,37.7161885,-121.9101951
PAST SALE,September-28-2017,Single Family Residential,4421 Spring Mountain Way,Dublin,CA,94568,1350000,4,4.5,Dublin,3674,5555,2017,132,367,330,Sold,,,http://www.redfin.com/CA/Dublin/4421-Spring-Mountain-Way-94568/home/113697863,EBRD/CCAR/Bay East,40780452,N,Y,37.713558197021,-121.916687011719
PAST SALE,January-4-2018,Single Family Residential,4474 Bacon Ct,Pleasanton,CA,94588,990000,4,2.0,Pleasanton,1607,6309,1968,34,616,,Sold,,,http://www.redfin.com/CA/Pleasanton/4474-Bacon-Ct-94588/home/1170595,CRMLS,LC17273759,N,Y,37.6891024,-121.9064085
PAST SALE,,Single Family Residential,125 Telles Ln,Fremont,CA,94539,835000,4,2.0,,1824,19800,1975,,458,,,,,http://www.redfin.com/CA/Fremont/125-Telles-Ln-94539/home/1453624,,,N,Y,37.5364332,-121.9201886
PAST SALE,August-18-2017,Condo/Co-op,2 Panoramic Way #104,Berkeley,CA,94704,670000,2,1.0,South Campus,715,8093,1967,173,937,463,Sold,,,http://www.redfin.com/CA/Berkeley/2-Panoramic-Way-94704/unit-104/home/1198948,EBRD/CCAR/Bay East,40788414,N,Y,37.8691714,-122.2498756
PAST SALE,September-8-2017,Single Family Residential,6444 Colby St,Oakland,CA,94618,1700000,3,2.0,Oakland,1861,6500,1910,152,913,,Sold,,,http://www.redfin.com/CA/Oakland/6444-Colby-St-94618/home/1495326,EBRD/CCAR/Bay East,40792551,N,Y,37.8525304,-122.2568047
PAST SALE,September-8-2017,Multi-Family (2-4 Unit),3200 Shattuck Ave,Berkeley,CA,94705,1030000,6,4.0,Berkeley,3275,3000,1912,152,315,,Sold,,,http://www.redfin.com/CA/Berkeley/3200-Shattuck-Ave-94705/home/1565501,EBRD/CCAR/Bay East,40791803,N,Y,37.8522399,-122.2662278
PAST SALE,September-8-2017,Multi-Family (2-4 Unit),2732 PARKER St,Berkeley,CA,94704,1040000,5,3.0,Elmwood,2739,1870,1908,152,380,,Sold,,,http://www.redfin.com/CA/Berkeley/2732-Parker-St-94704/home/1609121,EBRD/CCAR/Bay East,40793471,N,Y,37.8638602,-122.2521684
PAST SALE,September-12-2017,Single Family Residential,130 PARKSIDE Dr,Berkeley,CA,94705,2900000,4,3.5,Claremont,2602,7000,1907,148,1115,,Sold,,,http://www.redfin.com/CA/Berkeley/130-Parkside-Dr-94705/home/847036,EBRD/CCAR/Bay East,40796700,N,Y,37.8537211,-122.2424626
PAST SALE,September-22-2017,Single Family Residential,3323 Claremont Ave,Berkeley,CA,94705,1150000,3,1.5,Claremont,1785,3706,1915,138,644,,Sold,,,http://www.redfin.com/CA/Berkeley/3323-Claremont-Ave-94705/home/2001567,EBRD/CCAR/Bay East,40791709,N,Y,37.8515649,-122.2502634
PAST SALE,January-31-2018,Single Family Residential,45212 S Grimmer Blvd,Fremont,CA,94539,2780000,6,5.5,Fremont,4992,18354,2008,7,557,,Sold,,,http://www.redfin.com/CA/Fremont/45212-S-Grimmer-Blvd-94539/home/17104257,EBRD/CCAR/Bay East,40791070,N,Y,37.5072638,-121.9243544
PAST SALE,October-31-2017,Single Family Residential,44342 View Point Cir,Fremont,CA,94539,2200000,5,3.0,Mission Area,3207,12481,1990,99,686,,Sold,,,http://www.redfin.com/CA/Fremont/44342-View-Point-Cir-94539/home/1087399,EBRD/CCAR/Bay East,40798554,N,Y,37.5182026,-121.9160868
PAST SALE,September-8-2017,Townhouse,43938 Paso Cedro Cmn,FREMONT,CA,94539,1145000,4,3.5,FREMONT,1842,1842,2012,152,622,260,Sold,,,http://www.redfin.com/CA/Fremont/43938-Paso-Cedro-Cmn-94539/home/40625416,MLSListings,ML81671033,N,Y,37.524201,-121.920532
PAST SALE,November-8-2017,Single Family Residential,6155 Club House Dr,Pleasanton,CA,94566,2650000,5,4.5,Happy Valley,5238,23136,2008,91,506,,Sold,,,http://www.redfin.com/CA/Pleasanton/6155-Club-House-Dr-94566/home/22656405,EBRD/CCAR/Bay East,40798735,N,Y,37.631998,-121.8621949
PAST SALE,,Single Family Residential,43523 Ellsworth St,Fremont,CA,94539,363100,4,2.0,,2571,7500,1931,,141,,,,,http://www.redfin.com/CA/Fremont/43523-Ellsworth-St-94539/home/1697553,,,N,Y,37.5294897,-121.9206343
PAST SALE,,Vacant Land,3410 Cornerstone Ct,Pleasanton,CA,94566,1127500,,,,,3888,,,,,,,,http://www.redfin.com/CA/Pleasanton/3410-Cornerstone-Ct-94566/home/143115864,,,N,Y,37.676565,-121.8623597
PAST SALE,November-8-2017,Single Family Residential,370 Happy Valley Rd,Pleasanton,CA,94566,1777777,4,3.5,Castlewood Hts,3409,23139,2002,91,521,110,Sold,,,http://www.redfin.com/CA/Pleasanton/370-Happy-Valley-Rd-94566/home/1538846,EBRD/CCAR/Bay East,40799595,N,Y,37.6372651,-121.881918
PAST SALE,January-11-2018,Single Family Residential,44280 Revere Pl,Fremont,CA,94539,1650000,4,2.5,Mission Area,2052,7072,1987,27,804,70,Sold,,,http://www.redfin.com/CA/Fremont/44280-Revere-Pl-94539/home/545616,EBRD/CCAR/Bay East,40804349,N,Y,37.5159879,-121.9231626
PAST SALE,November-14-2017,Single Family Residential,210 Tuolumne Dr,FREMONT,CA,94539,1406000,4,2.0,FREMONT,1692,5819,1979,85,831,,Sold,,,http://www.redfin.com/CA/Fremont/210-Tuolumne-Dr-94539/home/1887518,MLSListings,ML81681530,N,Y,37.4676633,-121.9145898
PAST SALE,October-6-2017,Single Family Residential,629 Chardonnay Dr,FREMONT,CA,94539,1480000,4,3.0,FREMONT,2283,7137,1987,124,648,,Sold,,,http://www.redfin.com/CA/Fremont/629-Chardonnay-Dr-94539/home/2043662,MLSListings,ML81675601,N,Y,37.4663029,-121.9078941
PAST SALE,September-6-2017,Single Family Residential,195 Yampa Way,Fremont,CA,94539,1155000,3,2.0,Warm Springs,1091,6026,1978,154,1059,,Sold,,,http://www.redfin.com/CA/Fremont/195-Yampa-Way-94539/home/957760,EBRD/CCAR/Bay East,40790923,N,Y,37.4635692,-121.9116803
PAST SALE,January-19-2018,Single Family Residential,1682 Prima Dr,Livermore,CA,94550,1239998,4,3.5,Livermore,2834,8790,2002,19,438,,Sold,,,http://www.redfin.com/CA/Livermore/1682-Prima-Dr-94550/home/1215029,EBRD/CCAR/Bay East,40805810,N,Y,37.6587425,-121.8028276
PAST SALE,January-18-2018,Single Family Residential,2455 Bay Meadows Cir,Pleasanton,CA,94566,835000,3,2.0,Northway Downs,1421,3842,1979,20,588,,Sold,,,http://www.redfin.com/CA/Pleasanton/2455-Bay-Meadows-Cir-94566/home/1477896,EBRD/CCAR/Bay East,40804649,N,Y,37.675908,-121.892832
PAST SALE,November-7-2017,Single Family Residential,3275 Runnymede Ct,Pleasanton,CA,94588,1068000,4,3.0,Pleasant Meadows,2471,6372,1971,92,432,31,Sold,,,http://www.redfin.com/CA/Pleasanton/3275-Runnymede-Ct-94588/home/1138453,EBRD/CCAR/Bay East,40799475,N,Y,37.6954627,-121.8690187
PAST SALE,January-24-2018,Single Family Residential,4129 Grant Ct,PLEASANTON,CA,94566,2160000,6,4.0,PLEASANTON,4554,18844,1993,14,474,142,Sold,,,http://www.redfin.com/CA/Pleasanton/4129-Grant-Ct-94566/home/1203558,MLSListings,ML81643507,N,Y,37.6511492,-121.8548705
PAST SALE,January-19-2018,Single Family Residential,31 Diamond Dr,Livermore,CA,94550,854000,4,2.0,Tempo,1785,7500,1970,19,478,,Sold,,,http://www.redfin.com/CA/Livermore/31-Diamond-Dr-94550/home/795170,EBRD/CCAR/Bay East,40805615,N,Y,37.6658991,-121.8023806
PAST SALE,December-7-2017,Condo/Co-op,3498 Serra Cir Lot 48,Pleasanton,CA,94588,918000,3,3.5,Alameda,2422,,2017,62,379,211,Sold,,,http://www.redfin.com/CA/Pleasanton/3498-Serra-Cir-94588/unit-48/home/143520531,EBRD/CCAR/Bay East,40795233,N,Y,37.6841944,-121.8961229
PAST SALE,December-28-2017,Single Family Residential,45259 S Grimmer Blvd,Fremont,CA,94539,1410000,4,2.0,Weibel,1585,6199,1977,41,890,,Sold,,,http://www.redfin.com/CA/Fremont/45259-S-Grimmer-Blvd-94539/home/1135863,EBRD/CCAR/Bay East,40804070,N,Y,37.5063673,-121.9220142
PAST SALE,December-11-2017,Single Family Residential,1171 Crystal Cir,Livermore,CA,94550,875000,4,2.0,Tempo,1785,8191,1971,58,490,,Sold,,,http://www.redfin.com/CA/Livermore/1171-Crystal-Cir-94550/home/1708647,EBRD/CCAR/Bay East,40802424,N,Y,37.6671151,-121.8030055
PAST SALE,February-1-2018,Single Family Residential,1429 Whispering Oaks Way,Pleasanton,CA,94566,1285000,3,2.5,Walnut Hills,2396,4882,2003,6,536,110,Sold,,,http://www.redfin.com/CA/Pleasanton/1429-Whispering-Oaks-Way-94566/home/1224720,EBRD/CCAR/Bay East,40806571,N,Y,37.6554159,-121.8932287
PAST SALE,December-5-2017,Single Family Residential,6102 Corte Altamira,Pleasanton,CA,94566,1100000,4,2.5,Del Prado,1876,8934,1973,64,586,,Sold,,,http://www.redfin.com/CA/Pleasanton/6102-Corte-Altamira-94566/home/1194942,EBRD/CCAR/Bay East,40801893,N,Y,37.6655621,-121.8975783
PAST SALE,February-1-2018,Single Family Residential,1955 Brooktree Way,Pleasanton,CA,94566,965000,3,2.0,Pleasanton Vally,1377,6500,1965,6,701,,Sold,,,http://www.redfin.com/CA/Pleasanton/1955-Brooktree-Way-94566/home/1618171,EBRD/CCAR/Bay East,40806215,N,Y,37.6757891,-121.8779867
PAST SALE,January-30-2018,Single Family Residential,542 Lorren Way,Livermore,CA,94550,841000,4,2.0,Livermore,1602,6833,1965,8,525,,Sold,,,http://www.redfin.com/CA/Livermore/542-Lorren-Way-94550/home/1625083,EBRD/CCAR/Bay East,40806025,N,Y,37.6739183,-121.7929957
PAST SALE,October-31-2017,Single Family Residential,4292 W Las Positas Blvd,Pleasanton,CA,94588,920000,3,2.0,Pleas Meadows,1637,6950,1967,99,562,35,Sold,,,http://www.redfin.com/CA/Pleasanton/4292-W-Las-Positas-Blvd-94588/home/1831239,EBRD/CCAR/Bay East,40788472,N,Y,37.6916843,-121.8764362
PAST SALE,,Condo/Co-op,46818 Fernald St #16,Fremont,CA,94539,550000,2,1.0,,940,,1981,,585,,,,,http://www.redfin.com/CA/Fremont/46818-Fernald-St-94539/unit-16/home/1089149,,,N,Y,37.4909272,-121.9239061
PAST SALE,November-22-2017,Single Family Residential,48951 Tonalea St,Fremont,CA,94539,1380006,4,2.5,Warm Springs,1655,6105,1978,77,834,,Sold,,,http://www.redfin.com/CA/Fremont/48951-Tonalea-St-94539/home/2028626,EBRD/CCAR/Bay East,40802094,N,Y,37.46254,-121.91324
PAST SALE,January-29-2018,Townhouse,4225 Sheldon Cir,Pleasanton,CA,94588,600000,2,2.0,Brookfield Place,1118,1260,1985,9,537,318,Sold,,,http://www.redfin.com/CA/Pleasanton/4225-Sheldon-Cir-94588/home/1840509,EBRD/CCAR/Bay East,40804303,N,Y,37.6764222,-121.9151281
PAST SALE,,Vacant Land,490 Persimmon Cmn Unit 8,Livermore,CA,94551,737500,,,,,,,,,,,,,http://www.redfin.com/CA/Livermore/490-Persimmon-Cmn-94551/unit-8/home/143118303,,,N,Y,37.7031149,-121.7921249
PAST SALE,November-3-2017,Townhouse,4408 Comanche Way,Pleasanton,CA,94588,495000,2,1.5,Las Positas Gdns,988,780,1971,96,501,270,Sold,,,http://www.redfin.com/CA/Pleasanton/4408-Comanche-Way-94588/home/1192912,EBRD/CCAR/Bay East,40798706,N,Y,37.690919,-121.878788
PAST SALE,December-29-2017,Single Family Residential,2384 Silver Oaks Ln,Pleasanton,CA,94566,2275000,5,4.5,Pleasanton,5351,17409,2017,40,425,237,Sold,,,http://www.redfin.com/CA/Pleasanton/2384-Silver-Oaks-Ln-94566/home/112886531,EBRD/CCAR/Bay East,40787026,N,Y,37.66189903998,-121.835249790286
PAST SALE,,Vacant Land,2366 Silver Oaks Ln,Pleasanton,CA,94566,2120000,,,,,16002,,,,,,,,http://www.redfin.com/CA/Pleasanton/2366-Silver-Oaks-Ln-94566/home/112886878,,,N,Y,37.661559118479,-121.835359696754
PAST SALE,November-1-2017,Single Family Residential,4145 Crisfield Ln,Pleasanton,CA,94566-4704,910000,4,2.0,Heritage Valley,1492,6825,1975,98,610,,Sold,,,http://www.redfin.com/CA/Pleasanton/4145-Crisfield-Ln-94566/home/647402,EBRD/CCAR/Bay East,40797840,N,Y,37.6816893,-121.8725927
PAST SALE,January-9-2018,Single Family Residential,47444 Cholla St,FREMONT,CA,94539,1230000,4,2.5,FREMONT,1544,6000,1971,29,797,,Sold,,,http://www.redfin.com/CA/Fremont/47444-Cholla-St-94539/home/1466899,MLSListings,ML81684872,N,Y,37.4854399,-121.9157851
PAST SALE,November-9-2017,Single Family Residential,109 Kimberlin Heights Dr,Oakland,CA,94619,1200000,5,2.5,Crestmont,2404,11346,1956,90,499,8,Sold,,,http://www.redfin.com/CA/Oakland/109-Kimberlin-Heights-Dr-94619/home/1689124,EBRD/CCAR/Bay East,40799927,N,Y,37.8008523,-122.177638
PAST SALE,December-29-2017,Single Family Residential,553 Santel Ct,Pleasanton,CA,94566,2555000,5,4.5,Ruby Hill,6050,30483,1997,40,422,215,Sold,,,http://www.redfin.com/CA/Pleasanton/553-Santel-Ct-94566/home/1238322,EBRD/CCAR/Bay East,40789546,N,Y,37.6488903,-121.809699
PAST SALE,November-8-2017,Single Family Residential,3027 Maxwell Ave,Oakland,CA,94619,675000,3,2.0,Maxwell  Park,1500,4410,1924,91,450,,Sold,,,http://www.redfin.com/CA/Oakland/3027-Maxwell-Ave-94619/home/560686,EBRD/CCAR/Bay East,40792810,N,Y,37.7806105,-122.1940659
PAST SALE,November-7-2017,Single Family Residential,,Oakland,CA,94601,370000,2,1.0,Melrose,986,3440,1922,92,375,,Sold,,,http://www.redfin.com/CA/Oakland/Undisclosed-address-94601/home/556647,EBRD/CCAR/Bay East,40796475,N,Y,37.7712064,-122.2035642
PAST SALE,January-2-2018,Single Family Residential,1222 Hearst Dr,Pleasanton,CA,94566,1715000,4,2.5,Kottinger Ranch,3123,15791,1994,36,549,140,Sold,,,http://www.redfin.com/CA/Pleasanton/1222-Hearst-Dr-94566/home/1853144,EBRD/CCAR/Bay East,40804639,N,Y,37.6528462,-121.8529175
PAST SALE,October-27-2017,Single Family Residential,2549 Kilkare Rd,Sunol,CA,94586,625000,3,2.0,Kilkare Woods,1660,6750,1928,103,377,40,Sold,,,http://www.redfin.com/CA/Sunol/2549-Kilkare-Rd-94586/home/1914860,EBRD/CCAR/Bay East,40793129,N,Y,37.629288,-121.914555
PAST SALE,November-14-2017,Single Family Residential,5423 Wadean Pl,Oakland,CA,94601,465000,3,2.0,Oakland,1180,3200,1920,85,394,,Sold,,,http://www.redfin.com/CA/Oakland/5423-Wadean-Pl-94601/home/1543541,EBRD/CCAR/Bay East,40790526,N,Y,37.7698549,-122.2031
PAST SALE,October-23-2017,Single Family Residential,3917 Burckhalter Ave,Oakland,CA,94605,500000,3,2.0,Oakland Hills,1350,5400,1948,107,370,,Sold,,,http://www.redfin.com/CA/Oakland/3917-Burckhalter-Ave-94605/home/1399064,EBRD/CCAR/Bay East,40796644,N,Y,37.774794,-122.1685735
PAST SALE,November-27-2017,Multi-Family (2-4 Unit),2857 69th,Oakland,CA,94605,440000,,,Oakland,1377,4047,1949,72,320,,Sold,,,http://www.redfin.com/CA/Oakland/2857-69th-Ave-94605/home/1031250,EBRD/CCAR/Bay East,40800572,N,Y,37.7706719,-122.1757705
PAST SALE,November-28-2017,Single Family Residential,6800 Outlook,Oakland,CA,94605-2508,610000,2,1.0,Alameda,1132,30640,1925,71,539,,Sold,,,http://www.redfin.com/CA/Oakland/6800-Outlook-Ave-94605/home/2013745,EBRD/CCAR/Bay East,40774195,N,Y,37.7734337,-122.1735647
PAST SALE,November-28-2017,Townhouse,6465 Bayview Dr,Oakland,CA,94605,815000,4,3.5,Leona Heights,2513,2519,2013,71,324,272,Sold,,,http://www.redfin.com/CA/Oakland/6465-Bayview-Dr-94605/home/22656391,EBRD/CCAR/Bay East,40796999,N,Y,37.779719,-122.163513
PAST SALE,December-8-2017,Single Family Residential,6530 Sunnymere Ave,Oakland,CA,94605,675000,3,1.0,Upper Millsmont,1182,5250,1948,61,571,,Sold,,,http://www.redfin.com/CA/Oakland/6530-Sunnymere-Ave-94605/home/563866,EBRD/CCAR/Bay East,40802048,N,Y,37.7779414,-122.1690566
PAST SALE,December-6-2017,Condo/Co-op,5717 N Picardy Dr,Oakland,CA,94605,600000,2,1.0,Normandy Gardens,1332,1332,1927,63,450,222,Sold,,,http://www.redfin.com/CA/Oakland/5717-Picardy-Dr-N-94605/home/40086824,EBRD/CCAR/Bay East,40792211,N,Y,37.774652,-122.1896065
PAST SALE,December-5-2017,Single Family Residential,3712 Quigley,Oakland,CA,94619,585000,2,1.0,Laural,1061,4455,1928,64,551,,Sold,,,http://www.redfin.com/CA/Oakland/3712-Quigley-St-94619/home/1716271,EBRD/CCAR/Bay East,40801636,N,Y,37.7910359,-122.2005749
PAST SALE,December-7-2017,Single Family Residential,2818 Best Ave,Oakland,CA,94619,807000,4,2.0,Maxwell Park,1982,4134,1922,62,407,,Sold,,,http://www.redfin.com/CA/Oakland/2818-Best-Ave-94619/home/812799,EBRD/CCAR/Bay East,40803270,N,Y,37.7796603,-122.1960779
PAST SALE,,Multi-Family (2-4 Unit),3257 Delaware St,Oakland,CA,94602,1050000,10,6.0,,4068,5756,1955,,258,,,,,http://www.redfin.com/CA/Oakland/3257-Delaware-St-94602/home/539780,,,N,Y,37.7937065,-122.2041779
PAST SALE,December-5-2017,Single Family Residential,5313 Belvedere St,Oakland,CA,94601,560000,2,1.0,Melrose Heights,1268,5200,1923,64,442,,Sold,,,http://www.redfin.com/CA/Oakland/5313-Belvedere-St-94601/home/557334,EBRD/CCAR/Bay East,40782175,N,Y,37.7731326,-122.1998994
PAST SALE,November-25-2017,Single Family Residential,4801 Fairfax Ave,Oakland,CA,94601,340000,1,1.0,Oakland,678,2500,1906,74,501,,Sold,,,http://www.redfin.com/CA/Oakland/4801-Fairfax-Ave-94601/home/557458,EBRD/CCAR/Bay East,40800461,N,Y,37.7783409,-122.2034625
PAST SALE,December-7-2017,Single Family Residential,2435 Potter St,Oakland,CA,94601,585000,2,1.0,Maxwell  Park,829,1938,1927,62,706,,Sold,,,http://www.redfin.com/CA/Oakland/2435-Potter-St-94601/home/2013713,EBRD/CCAR/Bay East,40803821,N,Y,37.7781297,-122.2016265
PAST SALE,November-14-2017,Single Family Residential,3030 Modesto Ave,Oakland,CA,94619,560000,2,2.0,Maxwell  Park,1478,4720,1925,85,379,,Sold,,,http://www.redfin.com/CA/Oakland/3030-Modesto-Ave-94619/home/1667291,EBRD/CCAR/Bay East,40797284,N,Y,37.7793881,-122.192394
PAST SALE,,Single Family Residential,6114 Buena Ventura Ave,Oakland,CA,94605,765000,4,3.0,,2085,4040,1928,,367,,,,,http://www.redfin.com/CA/Oakland/6114-Buena-Ventura-Ave-94605/home/564426,,,N,Y,37.7784204,-122.1776709
PAST SALE,December-11-2017,Townhouse,6003 Old Quarry Loop,Oakland,CA,94605,628000,2,3.0,Mis-Match,1476,1162,2005,58,425,272,Sold,,,http://www.redfin.com/CA/Oakland/6003-Old-Quarry-Loop-94605/home/2114838,EBRD/CCAR/Bay East,40801495,N,Y,37.777687,-122.1637497
PAST SALE,November-15-2017,Single Family Residential,3921 Altamont Ave,Oakland,CA,94605,710000,3,2.0,Millsmont Area,1405,5625,1949,84,505,,Sold,,,http://www.redfin.com/CA/Oakland/3921-Altamont-Ave-94605/home/729957,EBRD/CCAR/Bay East,40799896,N,Y,37.775396,-122.1695234
PAST SALE,October-30-2017,Condo/Co-op,6200 Boulder Ln #5010,Oakland,CA,94605,631000,3,3.5,Leona Heights,1596,,2009,100,395,328,Sold,,,http://www.redfin.com/CA/Oakland/6200-Boulder-Ln-94605/unit-5010/home/17184153,EBRD/CCAR/Bay East,40799614,N,Y,37.779488,-122.165402
PAST SALE,January-5-2018,Single Family Residential,3750 Madrone,Oakland,CA,94619,825000,2,1.0,Laurel,933,4557,1940,33,884,,Sold,,,http://www.redfin.com/CA/Oakland/3750-Madrone-Ave-94619/home/1999494,EBRD/CCAR/Bay East,40804708,N,Y,37.7882,-122.1910265
PAST SALE,,Single Family Residential,2754 74th Ave,Oakland,CA,94605,355000,2,1.0,,878,3500,1936,,404,,,,,http://www.redfin.com/CA/Oakland/2754-74th-Ave-94605/home/1649536,,,N,Y,37.7681769,-122.171706
PAST SALE,August-11-2017,Single Family Residential,55 Wildwood Gdns,Piedmont,CA,94611,2100000,3,3.5,Wildwood Gardens,3238,11617,1936,180,649,,Sold,,,http://www.redfin.com/CA/Piedmont/55-Wildwood-Gdns-94611/home/1544979,EBRD/CCAR/Bay East,40793084,N,Y,37.8182967,-122.2313564
PAST SALE,August-14-2017,Single Family Residential,5614 La Salle Ave,Oakland,CA,94611,3550000,5,5.5,Piedmont Side,,8577,2017,177,,,Sold,,,http://www.redfin.com/CA/Oakland/5614-La-Salle-Ave-94611/home/22727326,EBRD/CCAR/Bay East,40788652,N,Y,37.823671,-122.216716
PAST SALE,August-15-2017,Single Family Residential,391 Moraga Ave,Piedmont,CA,94611,1901000,5,3.0,Central Piedmont,2857,11058,1918,176,665,,Sold,,,http://www.redfin.com/CA/Piedmont/391-Moraga-Ave-94611/home/1590921,EBRD/CCAR/Bay East,40789165,N,Y,37.8307747,-122.2354391
PAST SALE,,Single Family Residential,363 Oakland Ave,Oakland,CA,94611,875000,2,1.0,,1114,4680,1925,,785,,,,,http://www.redfin.com/CA/Oakland/363-Oakland-Ave-94611/home/1653567,,,N,Y,37.8172418,-122.2564702
PAST SALE,August-16-2017,Condo/Co-op,10 Moss Ave #32,Oakland,CA,94610,385000,1,1.0,Rose Garden,576,,1965,175,668,242,Sold,,,http://www.redfin.com/CA/Oakland/10-Moss-Ave-94610/unit-32/home/1095042,EBRD/CCAR/Bay East,40787198,N,Y,37.818704,-122.2507584
PAST SALE,August-23-2017,Single Family Residential,1315 El Centro Ave,Oakland,CA,94602,1380000,3,1.5,Glenview Upper,1912,4000,1915,168,722,,Sold,,,http://www.redfin.com/CA/Oakland/1315-El-Centro-Ave-94602/home/812036,EBRD/CCAR/Bay East,40790531,N,Y,37.808554,-122.2180372
PAST SALE,,Multi-Family (2-4 Unit),734 Wesley Way,Oakland,CA,94610,1700000,3,5.0,,3717,5470,1920,,457,,,,,http://www.redfin.com/CA/Oakland/734-Wesley-Way-94610/home/1832947,,,N,Y,37.8099393,-122.2432624
PAST SALE,August-29-2017,Multi-Family (2-4 Unit),338 Warwick Ave,Oakland,CA,94610,1200000,2,4.0,Oakland,2301,5200,1911,162,522,,Sold,,,http://www.redfin.com/CA/Oakland/338-Warwick-Ave-94610/home/570044,EBRD/CCAR/Bay East,40790110,N,Y,37.8131802,-122.2538329
PAST SALE,,Multi-Family (2-4 Unit),412 Monte Vista Ave,Oakland,CA,94611,4950000,8,14.0,,8935,16861,1895,,554,,,,,http://www.redfin.com/CA/Oakland/412-Monte-Vista-Ave-94611/home/12348877,,,N,Y,37.821910452,-122.2484993
PAST SALE,September-7-2017,Condo/Co-op,127 Bayo Vista Ave #304,Oakland,CA,94611,630000,2,1.0,Bay O Vista,1113,,1972,153,566,354,Sold,,,http://www.redfin.com/CA/Oakland/127-Bayo-Vista-Ave-94611/unit-304/home/1039625,EBRD/CCAR/Bay East,40792902,N,Y,37.8212509,-122.250822
PAST SALE,,Condo/Co-op,370 Santa Clara Ave Apt 6,Oakland,CA,94610,605000,2,1.0,,1052,,1970,,575,,,,,http://www.redfin.com/CA/Oakland/370-Santa-Clara-Ave-94610/unit-6/home/1542297,,,N,Y,37.8136688,-122.2480372
PAST SALE,September-8-2017,Single Family Residential,1053 Ardmore Ave,Oakland,CA,94610-1202,1550000,3,2.5,Crocker Hghlands,2268,7293,1920,152,683,,Sold,,,http://www.redfin.com/CA/Oakland/1053-Ardmore-Ave-94610/home/1586463,EBRD/CCAR/Bay East,40789455,N,Y,37.8135082,-122.2278981
PAST SALE,,Single Family Residential,40 Wildwood Gdns,Piedmont,CA,94611,2375000,2,3.0,,2760,8400,1951,,861,,,,,http://www.redfin.com/CA/Piedmont/40-Wildwood-Gdns-94611/home/2000654,,,N,Y,37.8180385,-122.2304534
PAST SALE,October-25-2017,Single Family Residential,618 Moraga Ave,Piedmont,CA,94611,2325000,4,2.0,Central Piedmont,2759,8318,1912,105,843,,Sold,,,http://www.redfin.com/CA/Piedmont/618-Moraga-Ave-94611/home/646313,EBRD/CCAR/Bay East,40797234,N,Y,37.830999,-122.2322227
PAST SALE,October-20-2017,Condo/Co-op,127 Bayo Vista Ave #206,Oakland,CA,94611,660000,2,2.0,Bay O Vista,1149,1149,1972,110,574,356,Sold,,,http://www.redfin.com/CA/Oakland/127-Bayo-Vista-Ave-94611/unit-206/home/1715070,EBRD/CCAR/Bay East,40796960,N,Y,37.8212509,-122.250822
PAST SALE,October-30-2017,Condo/Co-op,427 Lagunitas Ave #203,Oakland,CA,94610,590000,1,1.0,Adams Point,706,,1967,100,836,288,Sold,,,http://www.redfin.com/CA/Oakland/427-Lagunitas-Ave-94610/unit-203/home/1157527,EBRD/CCAR/Bay East,40798814,N,Y,37.809902,-122.250247
PAST SALE,October-31-2017,Single Family Residential,869 Portal Ave,Oakland,CA,94610,1500000,3,4.0,Crocker Hghlands,3741,4692,1941,99,401,,Sold,,,http://www.redfin.com/CA/Oakland/869-Portal-Ave-94610/home/526814,EBRD/CCAR/Bay East,40797417,N,Y,37.8136321,-122.2304781
PAST SALE,October-30-2017,Single Family Residential,347 Magnolia Ave,Piedmont,CA,94610,1740000,3,2.0,Piedmont,2316,4158,1968,100,751,,Sold,,,http://www.redfin.com/CA/Piedmont/347-Magnolia-Ave-94610/home/643805,EBRD/CCAR/Bay East,40796925,N,Y,37.8222387,-122.2374364
PAST SALE,November-7-2017,Condo/Co-op,425 Orange St #305,Oakland,CA,94610,410000,1,1.0,Adams Point,541,,1966,92,758,515,Sold,,,http://www.redfin.com/CA/Oakland/425-Orange-St-94610/unit-305/home/784978,EBRD/CCAR/Bay East,40799430,N,Y,37.8176737,-122.2543008
PAST SALE,November-7-2017,Single Family Residential,4048 Lakeshore Ave,Oakland,CA,94610,1600000,3,2.5,Crocker Hghlands,2104,5600,1916,92,760,,Sold,,,http://www.redfin.com/CA/Oakland/4048-Lakeshore-Ave-94610/home/570118,EBRD/CCAR/Bay East,40798101,N,Y,37.8157726,-122.2356382
PAST SALE,November-8-2017,Single Family Residential,730 Walavista,Oakland,CA,94610,1405000,4,1.5,Crocker Hghlands,1687,3185,1924,91,833,,Sold,,,http://www.redfin.com/CA/Oakland/730-Walavista-Ave-94610/home/1711217,EBRD/CCAR/Bay East,40799503,N,Y,37.8147787,-122.2337623
PAST SALE,November-6-2017,Single Family Residential,105 Dale Ave,Piedmont,CA,94610,2100000,3,2.5,Piedmont,2600,6000,1928,93,808,,Sold,,,http://www.redfin.com/CA/Piedmont/105-Dale-Ave-94610/home/1244871,EBRD/CCAR/Bay East,40798459,N,Y,37.8222749,-122.2406949
PAST SALE,,Single Family Residential,827 Paloma Ave,Oakland,CA,94610,640000,3,1.0,,1385,3200,1924,,462,,,,,http://www.redfin.com/CA/Oakland/827-Paloma-Ave-94610/home/1963728,,,N,Y,37.8117984,-122.2356485
PAST SALE,,Single Family Residential,110 Dracena Ave,Piedmont,CA,94611,825000,3,3.0,,2241,6600,1959,,368,,,,,http://www.redfin.com/CA/Piedmont/110-Dracena-Ave-94611/home/1938109,,,N,Y,37.828414,-122.2376388
PAST SALE,December-8-2017,Single Family Residential,608 Jean St,Oakland,CA,94610,1305000,4,3.0,Grand Lake,2339,7025,1912,61,558,,Sold,,,http://www.redfin.com/CA/Oakland/608-Jean-St-94610/home/1871159,EBRD/CCAR/Bay East,40802538,N,Y,37.8179269,-122.2473282
PAST SALE,December-6-2017,Single Family Residential,788 Santa Ray Ave,Oakland,CA,94610,1450000,3,2.0,Crocker Hghlands,2054,6100,1910,63,706,,Sold,,,http://www.redfin.com/CA/Oakland/788-Santa-Ray-Ave-94610/home/2040102,EBRD/CCAR/Bay East,40802722,N,Y,37.8126612,-122.2334736
PAST SALE,December-5-2017,Single Family Residential,39 Park Way,Piedmont,CA,94611,2903000,4,2.5,Piedmont,2945,6450,1908,64,986,,Sold,,,http://www.redfin.com/CA/Piedmont/39-Park-Way-94611/home/1947144,EBRD/CCAR/Bay East,40802806,N,Y,37.8283131,-122.2390288
PAST SALE,November-30-2017,Single Family Residential,172 Mountain Ave,Piedmont,CA,94611,1900000,4,2.5,Central Piedmont,2400,3920,1918,69,792,,Sold,,,http://www.redfin.com/CA/Piedmont/172-Mountain-Ave-94611/home/646561,EBRD/CCAR/Bay East,40802010,N,Y,37.8255538,-122.2298531
PAST SALE,January-2-2018,Single Family Residential,204 Hillside Ave,Piedmont,CA,94611,2850000,3,2.5,Piedmont,2909,6885,1920,36,980,,Sold,,,http://www.redfin.com/CA/Piedmont/204-Hillside-Ave-94611/home/643377,EBRD/CCAR/Bay East,40806384,N,Y,37.8268605,-122.2360417
PAST SALE,January-19-2018,Single Family Residential,667 Santa Ray Ave,Oakland,CA,94610,655000,3,2.0,Crocker Hghlands,1287,4550,1920,19,509,,Sold,,,http://www.redfin.com/CA/Oakland/667-Santa-Ray-Ave-94610/home/1994581,EBRD/CCAR/Bay East,40797650,N,Y,37.810998,-122.238451
PAST SALE,August-11-2017,Single Family Residential,4058 Suffolk Way,Pleasanton,CA,94588,1065000,4,3.0,Pleasanton Mdws,1941,6201,1969,180,549,31,Sold,,,http://www.redfin.com/CA/Pleasanton/4058-Suffolk-Way-94588/home/1185786,EBRD/CCAR/Bay East,40780810,N,Y,37.6917071,-121.870842
PAST SALE,August-14-2017,Townhouse,1749 Corte Sueno,Livermore,CA,94551,673000,3,2.5,Portola Meadows,1840,4221,1996,177,366,209,Sold,,,http://www.redfin.com/CA/Livermore/1749-Corte-Sueno-94551/home/1471621,EBRD/CCAR/Bay East,40788974,N,Y,37.6937232,-121.7779812
PAST SALE,August-31-2017,Single Family Residential,1848 De Vaca Way,Livermore,CA,94550,545000,2,1.0,Ivanhoe Villas,858,4240,1970,160,635,,Sold,,,http://www.redfin.com/CA/Livermore/1848-De-Vaca-Way-94550/home/878137,EBRD/CCAR/Bay East,40790198,N,Y,37.6702519,-121.7696876
PAST SALE,,Single Family Residential,675 Sonoma Ct,Livermore,CA,94550,625000,3,1.0,,1120,6268,1962,,558,,,,,http://www.redfin.com/CA/Livermore/675-Sonoma-Ct-94550/home/903728,,,N,Y,37.6720059,-121.7923545
PAST SALE,September-1-2017,Townhouse,7482 Stonedale Dr,Pleasanton,CA,94588,798000,3,2.0,Stoneridge Twnhm,1660,2660,1981,159,481,410,Sold,,,http://www.redfin.com/CA/Pleasanton/7482-Stonedale-Dr-94588/home/534751,EBRD/CCAR/Bay East,40792908,N,Y,37.689636,-121.921577
PAST SALE,August-30-2017,Single Family Residential,3596 Pimlico Dr,Pleasanton,CA,94588-2915,1060000,4,2.0,Pleas Meadows,1764,9205,1981,161,601,,Sold,,,http://www.redfin.com/CA/Pleasanton/3596-Pimlico-Dr-94588/home/1979256,EBRD/CCAR/Bay East,40791042,N,Y,37.6983161,-121.8631532
PAST SALE,,Vacant Land,7419 Yountville St,Dublin,CA,94568,970000,,,,,2969,,,,,,,,http://www.redfin.com/CA/Dublin/7419-Yountville-St-94568/home/112886943,,,N,Y,37.7375367,-121.877764
PAST SALE,September-7-2017,Single Family Residential,603 Pinot Blanc Way,FREMONT,CA,94539,1495000,4,3.0,FREMONT,2283,6205,1987,153,655,,Sold,,,http://www.redfin.com/CA/Fremont/603-Pinot-Blanc-Way-94539/home/1400427,MLSListings,ML81671611,N,Y,37.4668953,-121.9085771
PAST SALE,September-12-2017,Condo/Co-op,48989 Meadowfaire Cmn,Fremont,CA,94539,324501,2,2.0,Warm Springs,1112,,2004,148,292,240,Sold,,,http://www.redfin.com/CA/Fremont/48989-Meadowfaire-Cmn-94539/home/2112538,EBRD/CCAR/Bay East,40781657,N,Y,37.4604003,-121.9143964
PAST SALE,,Vacant Land,7451 Yountville St,Dublin,CA,94568,1094500,,,,,3694,,,,,,,,http://www.redfin.com/CA/Dublin/7451-Yountville-St-94568/home/112887078,,,N,Y,37.7375367,-121.877764
PAST SALE,,Vacant Land,2811 Stringham Way,Dublin,CA,94568,880000,,,,,2010,,,,,,,,http://www.redfin.com/CA/Dublin/2811-Stringham-Way-94568/home/113844709,,,N,Y,37.7058239,-121.8551836
PAST SALE,,Vacant Land,5850 W Las Positas Blvd,Pleasanton,CA,94588,860000,,,,,,,,,,,,,http://www.redfin.com/CA/Pleasanton/5850-W-Las-Positas-Blvd-94588/home/143115735,,,N,Y,37.6839067,-121.8951664
PAST SALE,September-15-2017,Townhouse,106 Mission Dr,Pleasanton,CA,94566,535000,2,1.5,Casa Mission,1035,670,1985,145,517,200,Sold,,,http://www.redfin.com/CA/Pleasanton/106-Mission-Dr-94566/home/1852633,EBRD/CCAR/Bay East,40791783,N,Y,37.652381,-121.877663
PAST SALE,September-15-2017,Townhouse,793 Pine St,Livermore,CA,94551,480000,2,1.5,Livermore,1037,1483,1970,145,463,258,Sold,,,http://www.redfin.com/CA/Livermore/793-Pine-St-94551/home/1884941,EBRD/CCAR/Bay East,40789825,N,Y,37.688166,-121.789309
PAST SALE,September-15-2017,Single Family Residential,157 Nadine St,Livermore,CA,94550,705000,4,2.0,Livermore,1212,8544,1971,145,582,,Sold,,,http://www.redfin.com/CA/Livermore/157-Nadine-St-94550/home/1502528,EBRD/CCAR/Bay East,40792705,N,Y,37.6760871,-121.7935401
PAST SALE,September-15-2017,Single Family Residential,5650 Dresslar,Livermore,CA,94550,1215000,6,4.0,Lindenwood,3547,9335,2004,145,343,8,Sold,,,http://www.redfin.com/CA/Livermore/5650-Dresslar-Cir-94550/home/1216252,EBRD/CCAR/Bay East,40794106,N,Y,37.6787527,-121.7241444
PAST SALE,September-11-2017,Townhouse,3339 Rosada Ct,Pleasanton,CA,94588,760000,3,2.5,Pleasanton,1611,1171,1993,149,472,235,Sold,,,http://www.redfin.com/CA/Pleasanton/3339-Rosada-Ct-94588/home/1184163,EBRD/CCAR/Bay East,40790993,N,Y,37.687921,-121.885247
PAST SALE,September-5-2017,Single Family Residential,858 S K St,Livermore,CA,94550,850000,4,2.5,Old South Side,1854,7500,1898,155,458,,Sold,,,http://www.redfin.com/CA/Livermore/858-S-K-St-94550/home/1934995,EBRD/CCAR/Bay East,40786398,N,Y,37.6749672,-121.7668376
PAST SALE,September-15-2017,Single Family Residential,1174 Winged Foot Ct,Livermore,CA,94551,882000,5,3.0,Scenic Links,2343,4877,2004,145,376,,Sold,,,http://www.redfin.com/CA/Livermore/1174-Winged-Foot-Ct-94551/home/2111393,EBRD/CCAR/Bay East,40793370,N,Y,37.7166515,-121.7228795
PAST SALE,August-11-2017,Condo/Co-op,1087 Murrieta Blvd #129,Livermore,CA,94550,359000,2,2.0,Murrieta,955,,1974,180,376,430,Sold,,,http://www.redfin.com/CA/Livermore/1087-Murrieta-Blvd-94550/unit-129/home/987861,EBRD/CCAR/Bay East,40786961,N,Y,37.675151,-121.781444
PAST SALE,August-11-2017,Townhouse,735 Saint Michael Cir,Pleasanton,CA,94566,708000,3,2.5,Vintage Terrace,1540,1088,1984,180,460,213,Sold,,,http://www.redfin.com/CA/Pleasanton/735-Saint-Michael-Cir-94566/home/1944993,EBRD/CCAR/Bay East,40789227,N,Y,37.661659,-121.855223
PAST SALE,September-13-2017,Single Family Residential,10620 Tesla,Livermore,CA,94550-9708,1075000,3,2.0,Livermore,1512,207781,1957,147,711,,Sold,,,http://www.redfin.com/CA/Livermore/10620-Tesla-Rd-94550/home/1896234,EBRD/CCAR/Bay East,40751438,N,Y,37.65139,-121.662167
PAST SALE,September-1-2017,Single Family Residential,694 Sonoma Ct,Livermore,CA,94550,710000,3,2.0,Sunset West,1120,6635,1962,159,634,,Sold,,,http://www.redfin.com/CA/Livermore/694-Sonoma-Ct-94550/home/1661361,EBRD/CCAR/Bay East,40789969,N,Y,37.6718047,-121.7918278
PAST SALE,August-31-2017,Single Family Residential,7423 Aster Ct,Pleasanton,CA,94588,943000,3,2.0,Pleasanton,1890,7982,1984,160,499,,Sold,,,http://www.redfin.com/CA/Pleasanton/7423-Aster-Ct-94588/home/1168193,EBRD/CCAR/Bay East,40792253,N,Y,37.6721562,-121.9138171
PAST SALE,,Condo/Co-op,3385 Dublin Blvd Unit 334,Dublin,CA,94568,226000,2,2.0,,1124,,2007,,201,,,,,http://www.redfin.com/CA/Dublin/3385-Dublin-Blvd-94568/unit-334/home/17185349,,,N,Y,37.7054567,-121.8625517
PAST SALE,September-6-2017,Single Family Residential,349 Hummingbird Ln,LIVERMORE,CA,94551,765000,4,2.0,LIVERMORE,1561,7500,1972,154,490,,Sold,,,http://www.redfin.com/CA/Livermore/349-Hummingbird-Ln-94551/home/2019679,MLSListings,ML81671668,N,Y,37.681244,-121.8000892
PAST SALE,,Mobile/Manufactured Home,3290 Dyer Rd,Livermore,CA,94551,1175000,,,,1468,424710,1985,,800,,,,,http://www.redfin.com/CA/Livermore/3290-Dyer-Rd-94551/home/627423,,,N,Y,37.7523989,-121.680206
PAST SALE,September-8-2017,Single Family Residential,2076 Pulsar Ave,Livermore,CA,94550,1305000,4,2.5,Vineyard,3316,20078,1986,152,394,,Sold,,,http://www.redfin.com/CA/Livermore/2076-Pulsar-Ave-94550/home/1390120,EBRD/CCAR/Bay East,40794448,N,Y,37.6574209,-121.7903244
PAST SALE,September-4-2017,Single Family Residential,4910 Lyra Ct,Livermore,CA,94551,551000,2,1.5,Springtown,1171,4248,1985,156,471,,Sold,,,http://www.redfin.com/CA/Livermore/4910-Lyra-Ct-94551/home/1594593,EBRD/CCAR/Bay East,40790961,N,Y,37.7179906,-121.7388203
PAST SALE,September-11-2017,Single Family Residential,1970 Valdosta Ct,Pleasanton,CA,94566,958000,3,2.0,Heritage Valley,1439,7295,1975,149,666,,Sold,,,http://www.redfin.com/CA/Pleasanton/1970-Valdosta-Ct-94566/home/1356242,EBRD/CCAR/Bay East,40792602,N,Y,37.67993,-121.8746134
PAST SALE,September-13-2017,Townhouse,"4683 Mangrove Drive, #49",Dublin,CA,94568,760000,3,2.5,Brookside,1401,,1998,147,542,312,Sold,,,http://www.redfin.com/CA/Dublin/4683-Mangrove-Dr-94568/unit-49/home/1669446,EBRD/CCAR/Bay East,40795284,N,Y,37.708227,-121.882679
PAST SALE,September-26-2017,Condo/Co-op,190 Hackamore Cmn,Fremont,CA,94539,606800,2,1.0,Warm Springs,878,,1984,134,691,374,Sold,,,http://www.redfin.com/CA/Fremont/190-Hackamore-Cmn-94539/unit-80/home/1650679,EBRD/CCAR/Bay East,40792924,N,Y,37.4863299,-121.9246121
PAST SALE,September-28-2017,Condo/Co-op,46918 Lundy Ter,FREMONT,CA,94539,650000,2,1.5,FREMONT,1018,17491,1981,132,639,330,Sold,,,http://www.redfin.com/CA/Fremont/46918-Lundy-Ter-94539/unit-3/home/2005014,MLSListings,ML81673789,N,Y,37.488774,-121.925261
PAST SALE,October-12-2017,Single Family Residential,47305 Javalina Rd,Fremont,CA,94539,1300000,4,2.5,Warm Springs,1896,6177,1977,118,686,,Sold,,,http://www.redfin.com/CA/Fremont/47305-Javalina-Rd-94539/home/1638057,EBRD/CCAR/Bay East,40792862,N,Y,37.4836047,-121.9254046
PAST SALE,October-16-2017,Single Family Residential,2053 Rancho Higuera Ct,Fremont,CA,94539,2455888,5,5.5,Weibel,4676,31785,1995,114,525,,Sold,,,http://www.redfin.com/CA/Fremont/2053-Rancho-Higuera-Ct-94539/home/1829763,EBRD/CCAR/Bay East,40793673,N,Y,37.4974174,-121.9069035
PAST SALE,October-18-2017,Condo/Co-op,49002 Cinnamon Fern Cmn #202,Fremont,CA,94539,865000,3,2.0,Warm Springs,1382,,2009,112,626,374,Sold,,,http://www.redfin.com/CA/Fremont/49002-Cinnamon-Fern-Cmn-94539/unit-202/home/22812850,EBRD/CCAR/Bay East,40788295,N,Y,37.4616746,-121.9141314
PAST SALE,October-18-2017,Single Family Residential,1037 Sundance Dr,FREMONT,CA,94539,1945000,4,3.0,FREMONT,3034,9812,1980,112,641,,Sold,,,http://www.redfin.com/CA/Fremont/1037-Sundance-Dr-94539/home/1949031,MLSListings,ML81677221,N,Y,37.4987544,-121.910155
PAST SALE,September-29-2017,Condo/Co-op,99 Wenatchee Cmn,Fremont,CA,94539,715000,3,2.0,Warm Springs,1170,,1987,131,611,280,Sold,,,http://www.redfin.com/CA/Fremont/99-Wenatchee-Cmn-94539/unit-151/home/1272826,EBRD/CCAR/Bay East,40794742,N,Y,37.4889299,-121.9277001
PAST SALE,,Single Family Residential,315 Morengo Way,Fremont,CA,94539,229000,5,3.0,,1709,6000,1961,,134,,,,,http://www.redfin.com/CA/Fremont/315-Morengo-Way-94539/home/1014343,,,N,Y,37.4840377,-121.9214459
PAST SALE,October-31-2017,Single Family Residential,5826 Avenal Ave,Oakland,CA,94605,250000,2,1.0,East Oakland,1032,1848,1925,99,242,,Sold,,,http://www.redfin.com/CA/Oakland/5826-Avenal-Ave-94605/home/567630,EBRD/CCAR/Bay East,40798677,N,Y,37.7706651,-122.1924227
PAST SALE,January-9-2018,Single Family Residential,1493 Trimingham Dr,PLEASANTON,CA,94566,721000,2,2.0,PLEASANTON,1345,4728,1986,29,536,92,Sold,,,http://www.redfin.com/CA/Pleasanton/1493-Trimingham-Dr-94566/home/1201040,MLSListings,ML81685024,N,Y,37.6765851,-121.8714223
PAST SALE,October-18-2017,Single Family Residential,5455 Wadean Pl,Oakland,CA,94601,430000,3,1.0,Oakland,958,3200,1919,112,449,,Sold,,,http://www.redfin.com/CA/Oakland/5455-Wadean-Pl-94601/home/1277155,EBRD/CCAR/Bay East,40796786,N,Y,37.7694128,-122.2021243
PAST SALE,October-18-2017,Single Family Residential,4616 Congress Ave,Oakland,CA,94601,645000,4,1.0,Fairfax,1664,3800,1928,112,388,,Sold,,,http://www.redfin.com/CA/Oakland/4616-Congress-Ave-94601/home/1654795,EBRD/CCAR/Bay East,40796314,N,Y,37.7793252,-122.2050619
PAST SALE,January-5-2018,Townhouse,680 Concord Pl,Pleasanton,CA,94566,570000,2,1.5,Vintage Terrace,1096,1385,1985,33,520,260,Sold,,,http://www.redfin.com/CA/Pleasanton/680-Concord-Pl-94566/home/1190870,EBRD/CCAR/Bay East,40803781,N,Y,37.6602144,-121.8553435
PAST SALE,October-20-2017,Single Family Residential,937 Sherman Way,PLEASANTON,CA,94566,1527000,4,3.0,PLEASANTON,2915,9547,1989,110,524,,Sold,,,http://www.redfin.com/CA/Pleasanton/937-Sherman-Way-94566/home/1303929,MLSListings,ML81678210,N,Y,37.6478412,-121.8693298
PAST SALE,January-19-2018,Single Family Residential,496 Chardonnay Dr,Fremont,CA,94539,1466000,3,2.0,Scott Creek Terr,2075,6481,1985,19,707,,Sold,,,http://www.redfin.com/CA/Fremont/496-Chardonnay-Dr-94539/home/1135993,EBRD/CCAR/Bay East,40805649,N,Y,37.465372,-121.909552
PAST SALE,October-24-2017,Condo/Co-op,49002 Cinnamon Fern Cmn #216,Fremont,CA,94539,303022,2,2.0,Warm Springs,1081,,2009,106,280,348,Sold,,,http://www.redfin.com/CA/Fremont/49002-Cinnamon-Fern-Cmn-94539/unit-216/home/22682830,EBRD/CCAR/Bay East,40794491,N,Y,37.4616746,-121.9141314
PAST SALE,,Condo/Co-op,46906 Fernald Cmn #7,Fremont,CA,94539,639000,2,2.0,,1036,,1978,,617,,,,,http://www.redfin.com/CA/Fremont/46906-Fernald-Cmn-94539/unit-7/home/1091730,,,N,Y,37.4893847,-121.9235471
PAST SALE,October-12-2017,Condo/Co-op,6136 Old Quarry Loop,Oakland,CA,94605,580000,2,2.5,Oakland Hills,1377,,2007,118,421,308,Sold,,,http://www.redfin.com/CA/Oakland/6136-Old-Quarry-Loop-94605/home/17185988,EBRD/CCAR/Bay East,40791660,N,Y,37.77903,-122.165361
PAST SALE,,Single Family Residential,5421 Crittenden St,Oakland,CA,94601,113500,2,1.0,,912,4059,1922,,124,,,,,http://www.redfin.com/CA/Oakland/5421-Crittenden-St-94601/home/1744381,,,N,Y,37.7693868,-122.2037777
PAST SALE,January-8-2018,Townhouse,3849 Brockton Dr,Pleasanton,CA,94588,528000,2,1.0,Fairlands Park,897,1173,1977,30,589,225,Sold,,,http://www.redfin.com/CA/Pleasanton/3849-Brockton-Dr-94588/home/1241865,EBRD/CCAR/Bay East,40805291,N,Y,37.700517,-121.868157
PAST SALE,October-13-2017,Single Family Residential,8010 Shay Dr,Oakland,CA,94605,1050000,4,2.0,Sequoyah Hills,2421,8658,1965,117,434,5,Sold,,,http://www.redfin.com/CA/Oakland/8010-Shay-Dr-94605/home/1571999,EBRD/CCAR/Bay East,40791068,N,Y,37.7727355,-122.1374366
PAST SALE,October-17-2017,Multi-Family (2-4 Unit),3059 Georgia St,OAKLAND,CA,94602,960000,8,,OAKLAND,3587,5000,1962,113,268,,Sold,,,http://www.redfin.com/CA/Oakland/3059-Georgia-St-94602/home/1891478,MLSListings,ML81674354,N,Y,37.7959327,-122.2046177
PAST SALE,December-29-2017,Townhouse,7503 Ivy Ct,Pleasanton,CA,94588,730000,3,2.0,Stoneridge Twnhm,1342,2660,1971,40,544,470,Sold,,,http://www.redfin.com/CA/Pleasanton/7503-Ivy-Ct-94588/home/2029063,EBRD/CCAR/Bay East,40801021,N,Y,37.68845,-121.92217
PAST SALE,October-27-2017,Townhouse,1141 Tiffany Ln,Pleasanton,CA,94566,820000,2,2.0,Tiffany Lane,1531,2617,1986,103,536,196,Sold,,,http://www.redfin.com/CA/Pleasanton/1141-Tiffany-Ln-94566/home/1831677,EBRD/CCAR/Bay East,40799596,N,Y,37.6679395,-121.8784954
PAST SALE,October-13-2017,Townhouse,6471 Bayview Dr,Oakland,CA,94605,820800,4,3.5,Leona Heights,2513,3325,2013,117,327,272,Sold,,,http://www.redfin.com/CA/Oakland/6471-Bayview-Dr-94605/home/22656386,EBRD/CCAR/Bay East,40793607,N,Y,37.779585,-122.163208
PAST SALE,,Vacant Land,Altura Pl,Oakland,CA,94605,149000,,,,,11769,,,,,,,,http://www.redfin.com/CA/Oakland/Altura-Pl-94605/home/22804475,,,N,Y,37.7761407,-122.1602387
PAST SALE,December-28-2017,Single Family Residential,714 MORAGA Dr,Livermore,CA,94550-5342,750000,3,2.0,Sunset West,1404,6000,1962,41,534,,Sold,,,http://www.redfin.com/CA/Livermore/714-Moraga-Dr-94550/home/1348193,EBRD/CCAR/Bay East,40803887,N,Y,37.6714621,-121.7900183
PAST SALE,October-10-2017,Single Family Residential,3030 PARKER Ave,Oakland,CA,94605,700000,3,1.5,Eastmont,1628,5156,1951,120,430,,Sold,,,http://www.redfin.com/CA/Oakland/3030-Parker-Ave-94605/home/835806,EBRD/CCAR/Bay East,40795219,N,Y,37.7679656,-122.1656013
PAST SALE,October-6-2017,Single Family Residential,4509 TOMPKINS Ave,Oakland,CA,94619,975000,3,3.0,Redwood Heights,2617,4620,1947,124,373,,Sold,,,http://www.redfin.com/CA/Oakland/4509-Tompkins-Ave-94619/home/1589639,EBRD/CCAR/Bay East,40796102,N,Y,37.7893841,-122.1862326
PAST SALE,January-2-2018,Single Family Residential,673 Los Alamos Ave,Livermore,CA,94550,770000,3,2.0,Sunset West,1404,6100,1962,36,548,,Sold,,,http://www.redfin.com/CA/Livermore/673-Los-Alamos-Ave-94550/home/736484,EBRD/CCAR/Bay East,40804383,N,Y,37.6692072,-121.7906169
PAST SALE,September-26-2017,Single Family Residential,3119 Catawba Ct,Pleasanton,CA,94566,1250000,4,3.0,Vintage Hills,2106,8022,1975,134,594,,Sold,,,http://www.redfin.com/CA/Pleasanton/3119-Catawba-Ct-94566/home/1979312,EBRD/CCAR/Bay East,40794493,N,Y,37.6602193,-121.8478621
PAST SALE,December-22-2017,Condo/Co-op,49002 Cinnamon Fern Cmn #321,Fremont,CA,94539,750000,2,2.0,Warm Springs,1229,,2009,47,610,368,Sold,,,http://www.redfin.com/CA/Fremont/49002-Cinnamon-Fern-Cmn-94539/unit-321/home/22683089,EBRD/CCAR/Bay East,40803262,N,Y,37.4616746,-121.9141314
PAST SALE,October-11-2017,Single Family Residential,3086 Birdsall Ave,Oakland,CA,94619,670000,3,2.0,Maxwell  Park,1337,3136,1925,119,501,,Sold,,,http://www.redfin.com/CA/Oakland/3086-Birdsall-Ave-94619/home/1141712,EBRD/CCAR/Bay East,40796282,N,Y,37.7788484,-122.1917519
PAST SALE,October-10-2017,Single Family Residential,2947 75th Ave,Oakland,CA,94605,540000,4,1.5,East Oakl Hills,2136,3800,1935,120,253,,Sold,,,http://www.redfin.com/CA/Oakland/2947-75th-Ave-94605/home/1307551,EBRD/CCAR/Bay East,40789056,N,Y,37.770029,-122.1693151
PAST SALE,December-29-2017,Single Family Residential,1611 Lodestone Rd,Livermore,CA,94550,1163000,5,3.0,Sandhurst,2912,8769,1997,40,399,,Sold,,,http://www.redfin.com/CA/Livermore/1611-Lodestone-Rd-94550/home/1677308,EBRD/CCAR/Bay East,40804724,N,Y,37.662979,-121.8031607
PAST SALE,September-27-2017,Single Family Residential,2927 Florida St,Oakland,CA,94602,901000,3,1.0,Oakland,1432,5360,1923,133,629,,Sold,,,http://www.redfin.com/CA/Oakland/2927-Florida-St-94602/home/541621,EBRD/CCAR/Bay East,40795932,N,Y,37.7984425,-122.2056119
PAST SALE,October-2-2017,Single Family Residential,5539 Holway St,Oakland,CA,94621,423500,2,1.0,Seminary,953,4400,1922,128,444,,Sold,,,http://www.redfin.com/CA/Oakland/5539-Holway-St-94621/home/1289882,EBRD/CCAR/Bay East,40793429,N,Y,37.7698099,-122.1981673
PAST SALE,,Single Family Residential,228 Spring St,Pleasanton,CA,94566,892500,2,1.0,,1128,3900,1926,,791,,,,,http://www.redfin.com/CA/Pleasanton/228-Spring-St-94566/home/1048696,,,N,Y,37.6624561,-121.8736578
PAST SALE,September-26-2017,Condo/Co-op,244 Rachael Pl,Pleasanton,CA,94566,730000,3,2.5,Country Roads,1446,,1988,134,505,325,Sold,,,http://www.redfin.com/CA/Pleasanton/244-Rachael-Pl-94566/unit-37/home/1923549,EBRD/CCAR/Bay East,40795402,N,Y,37.667098,-121.868611
PAST SALE,September-15-2017,Single Family Residential,4620 Brookdale Ave,Oakland,CA,94619,750000,2,2.0,Maxwell  Park,1681,4061,1920,145,446,,Sold,,,http://www.redfin.com/CA/Oakland/4620-Brookdale-Ave-94619/home/1607024,EBRD/CCAR/Bay East,40792827,N,Y,37.7802617,-122.2012468
PAST SALE,,Vacant Land,4221 Oak Knoll Dr,Dublin,CA,94568,1335000,,,,,4206,,,,,,,,http://www.redfin.com/CA/Dublin/4221-Oak-Knoll-Dr-94568/home/112886967,,,N,Y,37.7343609,-121.875837
PAST SALE,October-30-2017,Single Family Residential,6792 Syrah Dr,Dublin,CA,94568,1350000,5,3.0,Dublin,3081,5505,2015,100,438,99,Sold,,,http://www.redfin.com/CA/Dublin/6792-Syrah-Dr-94568/home/40628140,EBRD/CCAR/Bay East,40796012,N,Y,37.7340178,-121.8656658
PAST SALE,September-18-2017,Single Family Residential,7708 Hillmont Dr,Oakland,CA,94605,419950,2,1.0,Eastmont Hills,630,21300,1922,142,667,,Sold,,,http://www.redfin.com/CA/Oakland/7708-Hillmont-Dr-94605/home/576253,EBRD/CCAR/Bay East,40783303,N,Y,37.7692095,-122.1653861
PAST SALE,January-26-2018,Condo/Co-op,490 Persimmon Cmn #7,Livermore,CA,94551,748000,3,2.5,Livermore,1667,,2017,12,449,358,Sold,,,http://www.redfin.com/CA/Livermore/490-Persimmon-Cmn-94551/unit-7/home/143118302,EBRD/CCAR/Bay East,40803335,N,Y,37.7032909,-121.7939034
PAST SALE,November-21-2017,Condo/Co-op,3488 Serra Cir,Pleasanton,CA,94588,828000,3,2.5,Alameda,1633,,2017,78,507,211,Sold,,,http://www.redfin.com/CA/Pleasanton/3488-Serra-Cir-94588/home/143409611,EBRD/CCAR/Bay East,40794412,N,Y,37.6841944,-121.8961229
PAST SALE,November-3-2017,Townhouse,5338 Campus Dr,Dublin,CA,94568,830000,4,3.0,Dublin,1753,,2015,96,473,189,Sold,,,http://www.redfin.com/CA/Dublin/5338-Campus-Dr-94568/home/95474742,EBRD/CCAR/Bay East,40802728,N,Y,37.705643,-121.89648
PAST SALE,November-2-2017,Single Family Residential,5521 Old Westbury Way,Dublin,CA,94568,899000,4,2.5,Tassajara Creek,1972,3036,2002,97,456,195,Sold,,,http://www.redfin.com/CA/Dublin/5521-Old-Westbury-Way-94568/home/1225465,EBRD/CCAR/Bay East,40791923,N,Y,37.7177086,-121.8726487
PAST SALE,,Vacant Land,2966 Stringham Way,Dublin,CA,94568,863000,,,,,2405,,,,,,,,http://www.redfin.com/CA/Dublin/2966-Stringham-Way-94568/home/142937166,,,N,Y,37.7065,-121.855
PAST SALE,,Townhouse,4862 Saginaw Cir,Pleasanton,CA,94588,500000,2,1.0,,988,760,1973,,506,,,,,http://www.redfin.com/CA/Pleasanton/4862-Saginaw-Cir-94588/home/995769,,,N,Y,37.690925,-121.881717
PAST SALE,November-17-2017,Condo/Co-op,4508 Mirano Ct,Dublin,CA,94568,899000,3,2.5,Dublin Ranch,2701,2701,2008,82,333,415,Sold,,,http://www.redfin.com/CA/Dublin/4508-Mirano-Ct-94568/home/18249856,EBRD/CCAR/Bay East,40790196,N,Y,37.7097659,-121.8646123
PAST SALE,,Condo/Co-op,3155 Delicado Ct,Pleasanton,CA,94588,725000,3,2.0,,1761,,1995,,412,,,,,http://www.redfin.com/CA/Pleasanton/3155-Delicado-Ct-94588/home/1979199,,,N,Y,37.6862939,-121.88836
PAST SALE,November-9-2017,Single Family Residential,3545 Ballantyne Dr,Pleasanton,CA,94588,1050000,4,2.0,Pleasant Meadows,1895,6500,1987,90,554,,Sold,,,http://www.redfin.com/CA/Pleasanton/3545-Ballantyne-Dr-94588/home/1998411,EBRD/CCAR/Bay East,40799643,N,Y,37.6966546,-121.8605602
PAST SALE,November-13-2017,Single Family Residential,3001 Boardwalk St,Pleasanton,CA,94588,1050000,3,2.0,Ca Place,1881,5919,1989,86,558,,Sold,,,http://www.redfin.com/CA/Pleasanton/3001-Boardwalk-St-94588/home/1922561,EBRD/CCAR/Bay East,40799665,N,Y,37.6948169,-121.8567166
PAST SALE,November-21-2017,Single Family Residential,4031 Schween Ct,Pleasanton,CA,94566,1335000,4,3.0,Autumn Glen,2304,6825,1984,78,579,,Sold,,,http://www.redfin.com/CA/Pleasanton/4031-Schween-Ct-94566/home/590916,EBRD/CCAR/Bay East,40801265,N,Y,37.6780357,-121.8675808
PAST SALE,November-21-2017,Condo/Co-op,3290 Maguire Way #200,Dublin,CA,94568,646800,3,2.0,The Terraces,1246,,2004,78,519,341,Sold,,,http://www.redfin.com/CA/Dublin/3290-Maguire-Way-94568/unit-200/home/1890299,EBRD/CCAR/Bay East,40800958,N,Y,37.7056045,-121.8610826
PAST SALE,November-22-2017,Condo/Co-op,3420 Finnian Way #126,Dublin,CA,94568,547000,2,2.0,The Terraces,965,,2007,77,567,336,Sold,,,http://www.redfin.com/CA/Dublin/3420-Finnian-Way-94568/unit-126/home/12117920,EBRD/CCAR/Bay East,40800963,N,Y,37.7059772,-121.8628522
PAST SALE,,Vacant Land,2965 Stringham Way,Dublin,CA,94568,899000,,,,,2563,,,,,,,,http://www.redfin.com/CA/Dublin/2965-Stringham-Way-94568/home/133957245,,,N,Y,37.7099,-121.854
PAST SALE,,Vacant Land,2978 Stringham Way,Dublin,CA,94568,863000,,,,,3089,,,,,,,,http://www.redfin.com/CA/Dublin/2978-Stringham-Way-94568/home/142937167,,,N,Y,37.7065,-121.855
PAST SALE,,Vacant Land,2951 Stringham Way,Dublin,CA,94568,896000,,,,,2563,,,,,,,,http://www.redfin.com/CA/Dublin/2951-Stringham-Way-94568/home/121316284,,,N,Y,37.7099,-121.854
PAST SALE,,Vacant Land,4046 Chalk Hill Way,Dublin,CA,94568,1010500,,,,,2844,,,,,,,,http://www.redfin.com/CA/Dublin/4046-Chalk-Hill-Way-94568/home/143118972,,,N,Y,37.7371586,-121.8725237
PAST SALE,,Vacant Land,2988 Stringham Way,Dublin,CA,94568,918000,,,,,2330,,,,,,,,http://www.redfin.com/CA/Dublin/2988-Stringham-Way-94568/home/143118598,,,N,Y,37.7065,-121.855
PAST SALE,,Vacant Land,4522 Alexander Valley Way,Dublin,CA,94568,1430000,,,,,4750,,,,,,,,http://www.redfin.com/CA/Dublin/4522-Alexander-Valley-Way-94568/home/143118861,,,N,Y,37.736763,-121.8796853
PAST SALE,,Vacant Land,7315 Kenwood Rd,Dublin,CA,94568,956000,,,,,2423,,,,,,,,http://www.redfin.com/CA/Dublin/7315-Kenwood-Rd-94568/home/112887153,,,N,Y,37.7369749,-121.8751358
PAST SALE,November-29-2017,Single Family Residential,3178 Weymouth Ct,Pleasanton,CA,94588,967000,3,2.5,Pleasanton Mdws,2023,6869,1969,70,478,32,Sold,,,http://www.redfin.com/CA/Pleasanton/3178-Weymouth-Ct-94588/home/1773320,EBRD/CCAR/Bay East,40798753,N,Y,37.691171,-121.8766714
PAST SALE,December-1-2017,Single Family Residential,4206 Dundalk Ct,Pleasanton,CA,94566,1190000,4,2.0,Heritage Valley,2177,8708,1975,68,547,,Sold,,,http://www.redfin.com/CA/Pleasanton/4206-Dundalk-Ct-94566/home/586154,EBRD/CCAR/Bay East,40801101,N,Y,37.6806273,-121.8735496
PAST SALE,,Vacant Land,4030 Windsor Way,Dublin,CA,94568,800000,,,,,4961,,,,,,,,http://www.redfin.com/CA/Dublin/4030-Windsor-Way-94568/home/143115524,,,N,Y,37.7355126,-121.8734459
PAST SALE,,Vacant Land,4038 Chalk Hill Way,Dublin,CA,94568,1033500,,,,,2880,,,,,,,,http://www.redfin.com/CA/Dublin/4038-Chalk-Hill-Way-94568/home/143118974,,,N,Y,37.7371586,-121.8725237
PAST SALE,December-5-2017,Single Family Residential,1648 Holly Cir,Pleasanton,CA,94566,970000,4,2.5,Charter Oaks,2030,6398,1989,64,478,272,Sold,,,http://www.redfin.com/CA/Pleasanton/1648-Holly-Cir-94566/home/1203439,EBRD/CCAR/Bay East,40802469,N,Y,37.6797429,-121.8677971
PAST SALE,,Condo/Co-op,4271 Clarinbridge Cir,Dublin,CA,94568,374000,2,2.0,,1428,,2004,,262,,,,,http://www.redfin.com/CA/Dublin/4271-Clarinbridge-Cir-94568/home/1186837,,,N,Y,37.7062295,-121.8664561
PAST SALE,August-17-2017,Single Family Residential,2231 Oakland Ave,Pleasanton,CA,94588,870000,3,3.0,Mohr Park,1588,3465,1989,174,548,,Sold,,,http://www.redfin.com/CA/Pleasanton/2231-Oakland-Ave-94588/home/1408151,EBRD/CCAR/Bay East,40784669,N,Y,37.6845296,-121.8708561
PAST SALE,December-19-2017,Single Family Residential,3658 Camelot Ct,Pleasanton,CA,94588,1030000,4,2.0,Pleasanton Mdws,1616,7809,1970,50,637,31,Sold,,,http://www.redfin.com/CA/Pleasanton/3658-Camelot-Ct-94588/home/770053,EBRD/CCAR/Bay East,40803174,N,Y,37.6983567,-121.8721559
PAST SALE,December-15-2017,Condo/Co-op,3374 Monaghan St,Dublin,CA,94568,680000,2,2.0,Courtyard,1519,,2004,54,448,245,Sold,,,http://www.redfin.com/CA/Dublin/3374-Monaghan-St-94568/home/1889860,EBRD/CCAR/Bay East,40803271,N,Y,37.707835,-121.862018
PAST SALE,December-18-2017,Single Family Residential,3583 Pinot Noir Ct,Dublin,CA,94568-2556,1125000,4,3.0,Dublin,2508,6178,2013,51,449,99,Sold,,,http://www.redfin.com/CA/Dublin/3583-Pinot-Noir-Ct-94568/home/50264494,EBRD/CCAR/Bay East,40803818,N,Y,37.7355907,-121.8665644
PAST SALE,,Condo/Co-op,3360 Maguire Way Unit 103,Dublin,CA,94568,620000,2,2.0,,1386,,2007,,447,,,,,http://www.redfin.com/CA/Dublin/3360-Maguire-Way-94568/unit-103/home/12119221,,,N,Y,37.7057578,-121.8620163
PAST SALE,December-14-2017,Condo/Co-op,,Dublin,CA,94568,455000,1,1.0,Dublin,840,,2007,55,542,323,Sold,,,http://www.redfin.com/CA/Dublin/Undisclosed-address-94568/home/17184247,EBRD/CCAR/Bay East,40802885,N,Y,37.7054567,-121.8625517
PAST SALE,,Condo/Co-op,4168 Meadow Vista Rd,Dublin,CA,94568,870000,4,4.0,,2428,,2015,,358,,,,,http://www.redfin.com/CA/Dublin/4168-Meadow-Vista-Rd-94568/home/143115920,,,N,Y,37.7103472,-121.8445022
PAST SALE,,Vacant Land,4281 Panorama Dr,Dublin,CA,94568,903500,,,,,2625,,,,,,,,http://www.redfin.com/CA/Dublin/4281-Panorama-Dr-94568/home/143118504,,,N,Y,37.7116037,-121.844086
PAST SALE,,Vacant Land,4022 Chalk Hill Way,Dublin,CA,94568,1223000,,,,,3594,,,,,,,,http://www.redfin.com/CA/Dublin/4022-Chalk-Hill-Way-94568/home/143118954,,,N,Y,37.7371586,-121.8725237
PAST SALE,,Vacant Land,6992 Calistoga Ln,Dublin,CA,94568,830000,,,,,,,,,,,,,http://www.redfin.com/CA/Dublin/6992-Calistoga-Ln-94568/home/143119196,,,N,Y,37.7351002,-121.873742
PAST SALE,,Single Family Residential,1462 Second St,Livermore,CA,94550,683500,3,1.0,,1139,5000,1952,,600,,,,,http://www.redfin.com/CA/Livermore/1462-Second-St-94550/home/1914765,,,N,Y,37.6783875,-121.7776901
PAST SALE,December-22-2017,Single Family Residential,2789 Kennedy St,Livermore,CA,94551,630000,3,2.0,Leland Heights,1400,5914,1957,47,450,,Sold,,,http://www.redfin.com/CA/Livermore/2789-Kennedy-St-94551/home/1838123,EBRD/CCAR/Bay East,40802135,N,Y,37.69032,-121.7654954
PAST SALE,December-22-2017,Single Family Residential,5672 Woodrose Way,Livermore,CA,94551,856000,4,2.5,Danbury,2080,7406,1994,47,412,,Sold,,,http://www.redfin.com/CA/Livermore/5672-Woodrose-Way-94551/home/1049610,EBRD/CCAR/Bay East,40803813,N,Y,37.7162187,-121.7278665
PAST SALE,,Vacant Land,6938 Atlas Peak Dr,Dublin,CA,94568,1393500,,,,,5836,,,,,,,,http://www.redfin.com/CA/Dublin/6938-Atlas-Peak-Dr-94568/home/112887398,,,N,Y,37.7338964,-121.8745035
PAST SALE,,Vacant Land,4402 Healdsburg Way,Dublin,CA,94568,1041500,,,,,2990,,,,,,,,http://www.redfin.com/CA/Dublin/4402-Healdsburg-Way-94568/home/112887316,,,N,Y,37.7384407,-121.8760312
PAST SALE,,Vacant Land,4423 Healdsburg Way,Dublin,CA,94568,1034500,,,,,3613,,,,,,,,http://www.redfin.com/CA/Dublin/4423-Healdsburg-Way-94568/home/112887185,,,N,Y,37.7384407,-121.8760312
PAST SALE,,Single Family Residential,599 Nightingale St,Livermore,CA,94551,212000,4,2.0,,1125,6032,1965,,188,,,,,http://www.redfin.com/CA/Livermore/599-Nightingale-St-94551/home/1302299,,,N,Y,37.6849986,-121.7891827
PAST SALE,,Townhouse,1475 Spring Valley Cmn,Livermore,CA,94551,385000,3,2.0,,1274,1140,1985,,302,,,,,http://www.redfin.com/CA/Livermore/1475-Spring-Valley-Cmn-94551/home/1962028,,,N,Y,37.708382,-121.746864
PAST SALE,December-22-2017,Single Family Residential,4119 Lorimer Loop,Dublin,CA,94568,928000,3,2.5,Tassajara Meadow,1843,4057,2000,47,504,150,Sold,,,http://www.redfin.com/CA/Dublin/4119-Lorimer-Loop-94568/home/978431,EBRD/CCAR/Bay East,40802786,N,Y,37.7153196,-121.8724742
PAST SALE,,Single Family Residential,3605 Oakhurst Ct,Dublin,CA,94568,1300000,6,4.0,,3547,7094,2000,,367,,,,,http://www.redfin.com/CA/Dublin/3605-Oakhurst-Ct-94568/home/1381652,,,N,Y,37.7189366,-121.8664271
PAST SALE,,Vacant Land,4033 Knightstown St,Dublin,CA,94568,947000,,,,,2010,,,,,,,,http://www.redfin.com/CA/Dublin/4033-Knightstown-St-94568/home/143118627,,,N,Y,37.7065,-121.855
PAST SALE,,Vacant Land,1504 Catalina Ct,Livermore,CA,94550,691000,,,,,3121,,,,,,,,http://www.redfin.com/CA/Livermore/1504-Catalina-Ct-94550/home/143119430,,,N,Y,37.6626829,-121.7826766
PAST SALE,,Vacant Land,1504 Catalina Ct,Livermore,CA,94550,724000,,,,,2013,,,,,,,,http://www.redfin.com/CA/Livermore/1504-Catalina-Ct-94550/home/143119431,,,N,Y,37.6626829,-121.7826766
PAST SALE,,Vacant Land,260 Fennel Way,Livermore,CA,94551,758000,,,,,,,,,,,,,http://www.redfin.com/CA/Livermore/260-Fennel-Way-94551/home/143118177,,,N,Y,37.7036739,-121.7922441
PAST SALE,December-27-2017,Condo/Co-op,578 Sandalwood Dr,Livermore,CA,94551,768000,3,2.5,Livermore,1733,,2017,42,443,358,Sold,,,http://www.redfin.com/CA/Livermore/578-Sandalwood-Dr-94551/home/143118386,EBRD/CCAR/Bay East,40799486,N,Y,37.7028159,-121.7923745
PAST SALE,September-25-2017,Townhouse,1568 Calle Santiago,Pleasanton,CA,94566,710000,3,2.0,Park Villas,1147,2363,1971,135,619,340,Sold,,,http://www.redfin.com/CA/Pleasanton/1568-Calle-Santiago-94566/home/1194972,EBRD/CCAR/Bay East,40794546,N,Y,37.668551,-121.886735
PAST SALE,January-12-2018,Single Family Residential,526 Bernal Ave,LIVERMORE,CA,94551,650000,3,2.0,LIVERMORE,1028,5001,1955,26,632,,Sold,,,http://www.redfin.com/CA/Livermore/526-Bernal-Ave-94551/home/884140,MLSListings,ML81687066,N,Y,37.6849916,-121.7840966
PAST SALE,January-3-2018,Single Family Residential,1075 Norfolk Rd,Livermore,CA,94551,750000,3,2.0,Old North Side,1480,6003,1965,35,507,,Sold,,,http://www.redfin.com/CA/Livermore/1075-Norfolk-Rd-94551/home/883437,EBRD/CCAR/Bay East,40804653,N,Y,37.6905341,-121.7900141
PAST SALE,,Single Family Residential,2376 Avon Pl,Livermore,CA,94550,216000,4,2.0,,2291,9837,1972,,94,,,,,http://www.redfin.com/CA/Livermore/2376-Avon-Pl-94550/home/1577828,,,N,Y,37.6525927,-121.7816844
PAST SALE,December-29-2017,Condo/Co-op,4271 Pleasanton Ave Unit B,Pleasanton,CA,94566,600000,2,1.5,Downtown Pleas.,884,,1970,40,679,270,Sold,,,http://www.redfin.com/CA/Pleasanton/4271-Pleasanton-Ave-94566/unit-B/home/1383500,EBRD/CCAR/Bay East,40805247,N,Y,37.664463,-121.87959
PAST SALE,December-29-2017,Single Family Residential,1584 5Th St,Livermore,CA,94550,665000,2,2.0,Old South Side,1154,5000,1948,40,576,,Sold,,,http://www.redfin.com/CA/Livermore/1584-5th-St-94550/home/874763,EBRD/CCAR/Bay East,40804478,N,Y,37.6767458,-121.7751248
PAST SALE,December-12-2017,Single Family Residential,350 Lloyd Ct,Livermore,CA,94550,981000,7,3.5,Granada,2350,8477,1965,57,417,,Sold,,,http://www.redfin.com/CA/Livermore/350-Lloyd-Ct-94550/home/2022641,EBRD/CCAR/Bay East,40802872,N,Y,37.674521,-121.7938395
PAST SALE,January-3-2018,Single Family Residential,6405 Owl Way,Livermore,CA,94551,922000,5,3.0,Maralisa Estates,2695,7616,1998,35,342,,Sold,,,http://www.redfin.com/CA/Livermore/6405-Owl-Way-94551/home/1337358,EBRD/CCAR/Bay East,40804632,N,Y,37.7199062,-121.7187785
PAST SALE,September-1-2017,Townhouse,6492 Bayview Dr,Oakland,CA,94605,825000,4,3.0,Leona Heights,2349,2007,2015,159,351,265,Sold,,,http://www.redfin.com/CA/Oakland/6492-Bayview-Dr-94605/home/22647632,EBRD/CCAR/Bay East,40789201,N,Y,37.7793291,-122.1621402
PAST SALE,,Vacant Land,2210 Central Pkwy,Dublin,CA,94568,799000,,,,,,,,,,,,,http://www.redfin.com/CA/Dublin/2210-Central-Pkwy-94568/home/143116017,,,N,Y,37.7096874,-121.844839
