SALE TYPE,SOLD DATE,PROPERTY TYPE,ADDRESS,CITY,STATE,ZIP,PRICE,BEDS,BATHS,LOCATION,SQUARE FEET,LOT SIZE,YEAR BUILT,DAYS ON MARKET,$/SQUARE FEET,HOA/MONTH,STATUS,NEXT OPEN HOUSE START TIME,NEXT OPEN HOUSE END TIME,URL (SEE http://www.redfin.com/buy-a-home/comparative-market-analysis FOR INFO ON PRICING),SOURCE,MLS#,FAVORITE,INTERESTED,LATITUDE,LONGITUDE
PAST SALE,December-8-2017,Townhouse,1020 Helm Ln,FOSTER CITY,CA,94404,1540000,3,2.5,FOSTER CITY,1530,974,1996,53,1007,435,Sold,,,http://www.redfin.com/CA/Foster-City/1020-Helm-Ln-94404/home/2053690,MLSListings,ML81684339,N,Y,37.5468649,-122.2558244
PAST SALE,November-14-2016,Townhouse,1052 Hull Ln,FOSTER CITY,CA,94404,1165000,2,2.5,FOSTER CITY,1510,808,1989,442,772,435,Sold,,,http://www.redfin.com/CA/Foster-City/1052-Hull-Ln-94404/home/1910420,MLSListings,ML81626697,N,Y,37.548055,-122.255424
PAST SALE,May-27-2016,Townhouse,889 Carina Ln,FOSTER CITY,CA,94404,1270000,3,2.5,FOSTER CITY,1546,1306,1977,613,821,453,Sold,,,http://www.redfin.com/CA/Foster-City/889-Carina-Ln-94404/home/1858902,MLSListings,ML81577563,N,Y,37.546899,-122.271
PAST SALE,January-29-2016,Townhouse,763 Foster City Blvd,FOSTER CITY,CA,94404,1200000,4,2.5,FOSTER CITY,1790,1777,1972,732,670,350,Sold,,,http://www.redfin.com/CA/Foster-City/763-Foster-City-Blvd-94404/home/2025192,MLSListings,ML81545262,N,Y,37.558978,-122.264112
PAST SALE,August-7-2015,Townhouse,854 Peary Ln,FOSTER CITY,CA,94404,1050000,3,2.5,FOSTER CITY,1340,1776,1974,907,784,310,Sold,,,http://www.redfin.com/CA/Foster-City/854-Peary-Ln-94404/home/1917080,MLSListings,ML81473016,N,Y,37.5476092,-122.2679166
PAST SALE,November-25-2015,Single Family Residential,1174 Polynesia Dr,FOSTER CITY,CA,94404,1375000,4,2.0,FOSTER CITY,1670,5985,1964,797,823,,Sold,,,http://www.redfin.com/CA/Foster-City/1174-Polynesia-Dr-94404/home/1317269,MLSListings,ML81518974,N,Y,37.5611888,-122.2596047
PAST SALE,November-3-2017,Single Family Residential,232 Killdeer Ct,FOSTER CITY,CA,94404,1525000,4,2.0,FOSTER CITY,1780,5280,1965,88,857,,Sold,,,http://www.redfin.com/CA/Foster-City/232-Killdeer-Ct-94404/home/1185910,MLSListings,ML81676655,N,Y,37.5681405,-122.2610285
PAST SALE,April-26-2017,Townhouse,860 Erickson Ln,FOSTER CITY,CA,94404,1220000,3,2.5,FOSTER CITY,1380,1440,1973,279,884,195,Sold,,,http://www.redfin.com/CA/Foster-City/860-Erickson-Ln-94404/home/1984882,MLSListings,ML81644472,N,Y,37.5502403,-122.2685142
PAST SALE,January-3-2018,Single Family Residential,1855 Beach Park Blvd,FOSTER CITY,CA,94404,1615000,4,2.0,FOSTER CITY,1810,5225,1965,27,892,,Sold,,,http://www.redfin.com/CA/Foster-City/1855-Beach-Park-Blvd-94404/home/927890,MLSListings,ML81685505,N,Y,37.5711025,-122.2593811
PAST SALE,March-16-2017,Single Family Residential,618 Bainbridge St,FOSTER CITY,CA,94404,1750000,4,2.0,FOSTER CITY,1810,5760,1978,320,967,,Sold,,,http://www.redfin.com/CA/Foster-City/618-Bainbridge-St-94404/home/2037993,MLSListings,ML81641171,N,Y,37.5475808,-122.2658065
PAST SALE,March-23-2017,Single Family Residential,1061 Pizarro Ln,FOSTER CITY,CA,94404,2000000,4,3.0,FOSTER CITY,2360,4600,1974,313,847,605,Sold,,,http://www.redfin.com/CA/Foster-City/1061-Pizarro-Ln-94404/home/1882982,MLSListings,ML81640231,N,Y,37.5532157,-122.2668227
PAST SALE,March-29-2017,Single Family Residential,967 Pizarro Ln,FOSTER CITY,CA,94404,1558000,3,2.0,FOSTER CITY,2110,4250,1974,307,738,605,Sold,,,http://www.redfin.com/CA/Foster-City/967-Pizarro-Ln-94404/home/927719,MLSListings,ML81638230,N,Y,37.5521391,-122.2698948
PAST SALE,April-21-2017,Condo/Co-op,1171 Compass Ln #210,FOSTER CITY,CA,94404,855000,2,2.0,FOSTER CITY,1349,278240,1976,284,634,498,Sold,,,http://www.redfin.com/CA/Foster-City/1171-Compass-Ln-94404/unit-210/home/113625809,MLSListings,ML81644959,N,Y,37.5498927,-122.2545987
PAST SALE,,Condo/Co-op,1041 Shell Blvd Apt 11,Foster City,CA,94404,378000,2,2.0,,1042,,1972,,363,,,,,http://www.redfin.com/CA/Foster-City/1041-Shell-Blvd-94404/unit-11/home/1680391,,,N,Y,37.549793,-122.2634045
PAST SALE,July-21-2017,Single Family Residential,323 Dolphin Isle,FOSTER CITY,CA,94404,2380000,4,3.0,FOSTER CITY,2690,7137,1969,193,885,,Sold,,,http://www.redfin.com/CA/Foster-City/323-Dolphin-Isle-94404/home/1777026,MLSListings,ML81668649,Y,Y,37.5601394,-122.2554971
PAST SALE,October-24-2017,Single Family Residential,361 Menhaden Ct,FOSTER CITY,CA,94404,2220000,5,3.0,FOSTER CITY,2540,6175,1967,98,874,,Sold,,,http://www.redfin.com/CA/Foster-City/361-Menhaden-Ct-94404/home/929932,MLSListings,ML81678417,N,Y,37.555803,-122.2494231
PAST SALE,,Townhouse,850 Erickson Ln,Foster City,CA,94404,1152000,2,2.0,,1260,2352,1974,,914,,,,,http://www.redfin.com/CA/Foster-City/850-Erickson-Ln-94404/home/1626509,,,N,Y,37.5506528,-122.268367
PAST SALE,June-7-2017,Condo/Co-op,8104 Admiralty Ln,FOSTER CITY,CA,94404,550000,1,1.0,FOSTER CITY,748,432988,1965,237,735,610,Sold,,,http://www.redfin.com/CA/Foster-City/8104-Admiralty-Ln-94404/home/1689716,MLSListings,ML81645850,N,Y,37.561437,-122.267213
PAST SALE,July-6-2017,Single Family Residential,911 Haddock St,FOSTER CITY,CA,94404,1660000,3,2.0,FOSTER CITY,1890,5225,1967,208,878,,Sold,,,http://www.redfin.com/CA/Foster-City/911-Haddock-St-94404/home/1711116,MLSListings,ML81654524,N,Y,37.5560056,-122.2497515
PAST SALE,May-3-2017,Single Family Residential,920 Marlin Ave,FOSTER CITY,CA,94404,1735000,5,2.5,FOSTER CITY,2680,5264,1973,272,647,,Sold,,,http://www.redfin.com/CA/Foster-City/920-Marlin-Ave-94404/home/1679364,MLSListings,ML81641804,N,Y,37.5572292,-122.2532715
PAST SALE,July-12-2017,Single Family Residential,632 Matsonia Dr,FOSTER CITY,CA,94404,1675000,4,2.0,FOSTER CITY,1760,5320,1964,202,952,,Sold,,,http://www.redfin.com/CA/Foster-City/632-Matsonia-Dr-94404/home/924303,MLSListings,ML81653739,N,Y,37.5640857,-122.2659345
PAST SALE,June-14-2017,Single Family Residential,376 Dolphin Isle,FOSTER CITY,CA,94404,1832000,4,3.0,FOSTER CITY,2180,7056,1973,230,840,,Sold,,,http://www.redfin.com/CA/Foster-City/376-Dolphin-Isle-94404/home/1317328,MLSListings,ML81649095,N,Y,37.56229,-122.2557204
PAST SALE,June-12-2017,Condo/Co-op,1057 Shell Blvd #2,FOSTER CITY,CA,94404,752500,2,2.0,FOSTER CITY,994,272190,1972,232,757,485,Sold,,,http://www.redfin.com/CA/Foster-City/1057-Shell-Blvd-94404/unit-2/home/1216302,MLSListings,ML81650994,N,Y,37.5497522,-122.2632582
PAST SALE,May-12-2017,Single Family Residential,1372 Marlin Ave,FOSTER CITY,CA,94404,1565000,5,2.0,FOSTER CITY,2010,5225,1966,263,779,,Sold,,,http://www.redfin.com/CA/Foster-City/1372-Marlin-Ave-94404/home/931829,MLSListings,ML81644681,N,Y,37.5629399,-122.2525063
PAST SALE,June-27-2017,Single Family Residential,851 Constitution Dr,FOSTER CITY,CA,94404,1728000,3,2.0,FOSTER CITY,1890,9432,1964,217,914,,Sold,,,http://www.redfin.com/CA/Foster-City/851-Constitution-Dr-94404/home/928476,MLSListings,ML81651211,N,Y,37.561105,-122.2590847
PAST SALE,June-20-2017,Single Family Residential,160 Yawl Ct,FOSTER CITY,CA,94404,1750000,4,2.0,FOSTER CITY,2070,5540,1967,224,845,,Sold,,,http://www.redfin.com/CA/Foster-City/160-Yawl-Ct-94404/home/1472003,MLSListings,ML81652162,N,Y,37.5512573,-122.2590829
PAST SALE,May-31-2017,Condo/Co-op,1081 Beach Park Blvd #314,FOSTER CITY,CA,94404,1100000,3,2.0,FOSTER CITY,1593,701664,1972,244,691,498,Sold,,,http://www.redfin.com/CA/Foster-City/1081-Beach-Park-Blvd-94404/unit-314/home/1911377,MLSListings,ML81649968,N,Y,37.5508746,-122.2523436
PAST SALE,July-13-2017,Condo/Co-op,1131 Compass Ln #107,FOSTER CITY,CA,94404,818000,2,2.0,FOSTER CITY,1286,701665,1973,201,636,499,Sold,,,http://www.redfin.com/CA/Foster-City/1131-Compass-Ln-94404/unit-107/home/1877766,MLSListings,ML81655287,N,Y,37.5511263,-122.254268
PAST SALE,May-11-2017,Condo/Co-op,5106 Admiralty Ln,FOSTER CITY,CA,94404,528000,1,1.0,FOSTER CITY,748,,1965,264,706,610,Sold,,,http://www.redfin.com/CA/Foster-City/5106-Admiralty-Ln-94404/home/1977184,MLSListings,ML81640092,N,Y,37.561437,-122.267213
PAST SALE,June-14-2017,Single Family Residential,738 Niantic Dr,FOSTER CITY,CA,94404,1560000,3,2.0,FOSTER CITY,1640,5510,1964,230,951,,Sold,,,http://www.redfin.com/CA/Foster-City/738-Niantic-Dr-94404/home/1372733,MLSListings,ML81651186,N,Y,37.5631395,-122.2621591
PAST SALE,November-14-2017,Condo/Co-op,720 Promontory Point Ln #2209,FOSTER CITY,CA,94404,1230000,3,2.5,FOSTER CITY,2264,346066,1990,77,543,1000,Sold,,,http://www.redfin.com/CA/Foster-City/720-Promontory-Point-Ln-94404/unit-2209/home/983607,MLSListings,ML81678000,N,Y,37.5499484,-122.2834345
PAST SALE,May-1-2015,Condo/Co-op,7205 Admiralty Ln,FOSTER CITY,CA,94404,550000,2,1.5,FOSTER CITY,998,,1965,1005,551,640,Sold,,,http://www.redfin.com/CA/Foster-City/7205-Admiralty-Ln-94404/home/1812261,MLSListings,ML81458163,N,Y,37.561437,-122.267213
PAST SALE,July-21-2017,Single Family Residential,1127 Blythe St,FOSTER CITY,CA,94404,2100000,4,2.0,FOSTER CITY,2200,6800,1978,193,955,,Sold,,,http://www.redfin.com/CA/Foster-City/1127-Blythe-St-94404/home/2049012,MLSListings,ML81656135,N,Y,37.5456455,-122.2644759
PAST SALE,June-9-2017,Condo/Co-op,1081 Beach Park Blvd #212,FOSTER CITY,CA,94404,875000,2,2.0,FOSTER CITY,1349,701665,1973,235,649,489,Sold,,,http://www.redfin.com/CA/Foster-City/1081-Beach-Park-Blvd-94404/unit-212/home/1381355,MLSListings,ML81652087,N,Y,37.5508746,-122.2523436
PAST SALE,June-2-2017,Single Family Residential,154 Barkentine,FOSTER CITY,CA,94404,1930000,4,3.0,FOSTER CITY,2360,6270,1972,242,818,,Sold,,,http://www.redfin.com/CA/Foster-City/154-Barkentine-St-94404/home/2002783,MLSListings,ML81647883,N,Y,37.55068,-122.2602992
PAST SALE,June-23-2017,Single Family Residential,971 De Soto Ln,FOSTER CITY,CA,94404,1545000,4,3.0,FOSTER CITY,2360,5150,1974,221,655,605,Sold,,,http://www.redfin.com/CA/Foster-City/971-De-Soto-Ln-94404/home/1499255,MLSListings,ML81648925,N,Y,37.5521603,-122.2688767
PAST SALE,June-9-2017,Single Family Residential,1116 Halsey Blvd,FOSTER CITY,CA,94404,2000000,4,2.5,FOSTER CITY,2790,5400,1978,235,717,,Sold,,,http://www.redfin.com/CA/Foster-City/1116-Halsey-Blvd-94404/home/1917087,MLSListings,ML81650309,N,Y,37.5470486,-122.2643105
PAST SALE,July-17-2017,Condo/Co-op,1037 Lido Ln,FOSTER CITY,CA,94404,1190000,2,2.0,FOSTER CITY,1395,,1975,197,853,593,Sold,,,http://www.redfin.com/CA/Foster-City/1037-Lido-Ln-94404/unit-2/home/1491047,MLSListings,ML81655539,N,Y,37.554044,-122.268222
PAST SALE,June-19-2017,Condo/Co-op,1051 Beach Park Blvd #207,FOSTER CITY,CA,94404,1053000,3,2.0,FOSTER CITY,1593,278240,1976,225,661,498,Sold,,,http://www.redfin.com/CA/Foster-City/1051-Beach-Park-Blvd-94404/unit-237/home/2010086,MLSListings,ML81652319,N,Y,37.5497512,-122.2532155
PAST SALE,August-4-2017,Condo/Co-op,1111 Compass Ln #101,FOSTER CITY,CA,94404,760000,2,2.0,FOSTER CITY,1286,701665,1973,179,591,499,Sold,,,http://www.redfin.com/CA/Foster-City/1111-Compass-Ln-94404/unit-101/home/967537,MLSListings,ML81655547,N,Y,37.552037,-122.25352
PAST SALE,August-1-2017,Townhouse,379 Catamaran St,FOSTER CITY,CA,94404,1268888,3,2.5,FOSTER CITY,1340,1963,1974,182,947,350,Sold,,,http://www.redfin.com/CA/Foster-City/379-Catamaran-St-94404/home/1899099,MLSListings,ML81655047,N,Y,37.5503831,-122.2693241
PAST SALE,May-17-2017,Condo/Co-op,2105 Admiralty Ln,FOSTER CITY,CA,94404,920000,3,2.0,FOSTER CITY,1505,432988,1965,258,611,711,Sold,,,http://www.redfin.com/CA/Foster-City/2105-Admiralty-Ln-94404/home/999384,MLSListings,ML81645862,N,Y,37.561437,-122.267213
PAST SALE,May-24-2017,Single Family Residential,261 Surfbird Isle,FOSTER CITY,CA,94404,2630000,4,3.0,FOSTER CITY,3200,7020,1966,251,822,,Sold,,,http://www.redfin.com/CA/Foster-City/261-Surfbird-Isle-94404/home/2047870,MLSListings,ML81651550,N,Y,37.5663201,-122.2634457
PAST SALE,June-30-2017,Single Family Residential,1384 Marlin Ave,FOSTER CITY,CA,94404,1360500,4,2.0,FOSTER CITY,1810,5225,1966,214,752,,Sold,,,http://www.redfin.com/CA/Foster-City/1384-Marlin-Ave-94404/home/2056638,MLSListings,ML81652315,N,Y,37.5630705,-122.2521513
PAST SALE,,Condo/Co-op,2103 Admiralty Ln,Foster City,CA,94404,407273,2,2.0,,1003,,1965,,406,,,,,http://www.redfin.com/CA/Foster-City/2103-Admiralty-Ln-94404/home/1922857,,,N,Y,37.561437,-122.267213
PAST SALE,August-28-2017,Condo/Co-op,1075 Shell Blvd #2,FOSTER CITY,CA,94404,760000,2,2.0,FOSTER CITY,994,272190,1972,155,765,485,Sold,,,http://www.redfin.com/CA/Foster-City/1075-Shell-Blvd-94404/unit-2/home/965145,MLSListings,ML81674288,N,Y,37.5497505,-122.2632557
PAST SALE,August-31-2017,Condo/Co-op,1131 Compass Ln #105,FOSTER CITY,CA,94404,875000,2,2.0,FOSTER CITY,1349,701665,1973,152,649,498,Sold,,,http://www.redfin.com/CA/Foster-City/1131-Compass-Ln-94404/unit-105/home/967493,MLSListings,ML81673560,N,Y,37.5511263,-122.254268
PAST SALE,August-30-2017,Condo/Co-op,3216 Admiralty Ln,FOSTER CITY,CA,94404,662000,2,1.5,FOSTER CITY,998,432988,1965,153,663,644,Sold,,,http://www.redfin.com/CA/Foster-City/3216-Admiralty-Ln-94404/home/1054029,MLSListings,ML81652631,N,Y,37.561437,-122.267213
PAST SALE,,Condo/Co-op,1171 Compass Ln Apt 295,Foster City,CA,94404,602000,1,1.0,,990,,1976,,608,,,,,http://www.redfin.com/CA/Foster-City/1171-Compass-Ln-94404/unit-295/home/1899707,,,N,Y,37.5498927,-122.2545987
PAST SALE,October-17-2017,Condo/Co-op,1051 Beach Park Blvd #302,FOSTER CITY,CA,94404,1130000,3,2.0,FOSTER CITY,1593,278240,1976,105,709,498,Sold,,,http://www.redfin.com/CA/Foster-City/1051-Beach-Park-Blvd-94404/unit-302/home/143822433,MLSListings,ML81678095,N,Y,37.5497512,-122.2532155
PAST SALE,July-13-2017,Single Family Residential,899 Constitution Dr,FOSTER CITY,CA,94404,1520000,4,2.0,FOSTER CITY,1700,5952,1964,201,894,,Sold,,,http://www.redfin.com/CA/Foster-City/899-Constitution-Dr-94404/home/927594,MLSListings,ML81652081,N,Y,37.5586253,-122.2584897
PAST SALE,,Townhouse,1086 Gull Ave,Foster City,CA,94404,435000,4,2.0,,1760,1757,1970,,247,,,,,http://www.redfin.com/CA/Foster-City/1086-Gull-Ave-94404/home/1810145,,,N,Y,37.5656505,-122.2518023
PAST SALE,March-17-2017,Single Family Residential,773 Marlin Ave,FOSTER CITY,CA,94404,1500000,4,2.0,FOSTER CITY,1830,5830,1967,319,820,,Sold,,,http://www.redfin.com/CA/Foster-City/773-Marlin-Ave-94404/home/1185960,MLSListings,ML81638723,N,Y,37.5551971,-122.2547711
PAST SALE,April-12-2017,Townhouse,819 Peary Ln,FOSTER CITY,CA,94404,1120000,3,1.5,FOSTER CITY,1460,2182,1973,293,767,350,Sold,,,http://www.redfin.com/CA/Foster-City/819-Peary-Ln-94404/home/1380328,MLSListings,ML81640876,N,Y,37.5485596,-122.2679508
PAST SALE,,Townhouse,831 Vespucci Ln,Foster City,CA,94404,980000,2,1.0,,1460,2182,1974,,671,,,,,http://www.redfin.com/CA/Foster-City/831-Vespucci-Ln-94404/home/1968525,,,N,Y,37.5473439,-122.2685673
PAST SALE,,Condo/Co-op,1171 Compass Ln #314,Foster City,CA,94404,855000,2,2.0,,1349,,1976,,634,,,,,http://www.redfin.com/CA/Foster-City/1171-Compass-Ln-94404/unit-314/home/1271573,,,N,Y,37.5498927,-122.2545987
PAST SALE,September-19-2017,Single Family Residential,627 Matsonia Dr,FOSTER CITY,CA,94404,2300627,4,3.0,FOSTER CITY,2180,6498,1973,133,1055,,Sold,,,http://www.redfin.com/CA/Foster-City/627-Matsonia-Dr-94404/home/1964784,MLSListings,ML81674271,N,Y,37.564465,-122.2661737
PAST SALE,September-14-2017,Single Family Residential,1228 Moonsail Ln,FOSTER CITY,CA,94404,1050000,2,1.5,FOSTER CITY,1350,2004,1977,138,778,355,Sold,,,http://www.redfin.com/CA/Foster-City/1228-Moonsail-Ln-94404/home/1215169,MLSListings,ML81673613,N,Y,37.5533798,-122.2514444
PAST SALE,September-28-2017,Townhouse,819 Cortez Ln,FOSTER CITY,CA,94404,1240698,3,2.5,FOSTER CITY,1380,1820,1975,124,899,195,Sold,,,http://www.redfin.com/CA/Foster-City/819-Cortez-Ln-94404/home/2017853,MLSListings,ML81672486,N,Y,37.5522997,-122.2661725
PAST SALE,October-10-2017,Townhouse,1038 Galley Ln,FOSTER CITY,CA,94404,1295000,2,2.5,FOSTER CITY,1440,1173,1996,112,899,435,Sold,,,http://www.redfin.com/CA/Foster-City/1038-Galley-Ln-94404/home/945204,MLSListings,ML81673795,N,Y,37.54753,-122.255435
PAST SALE,October-6-2017,Single Family Residential,280 Loon Ct,FOSTER CITY,CA,94404,1560000,3,2.0,FOSTER CITY,1890,7150,1966,116,825,,Sold,,,http://www.redfin.com/CA/Foster-City/280-Loon-Ct-94404/home/929669,MLSListings,ML81676059,Y,Y,37.5668942,-122.255342
PAST SALE,October-10-2017,Single Family Residential,151 Ketch Ct,FOSTER CITY,CA,94404,2360000,5,3.0,FOSTER CITY,2560,8075,1968,112,922,,Sold,,,http://www.redfin.com/CA/Foster-City/151-Ketch-Ct-94404/home/1626497,MLSListings,ML81675932,N,Y,37.5512915,-122.2579619
PAST SALE,April-13-2015,Condo/Co-op,4208 Admiralty Ln,FOSTER CITY,CA,94404,515000,2,1.5,FOSTER CITY,998,,1965,1023,516,640,Sold,,,http://www.redfin.com/CA/Foster-City/4208-Admiralty-Ln-94404/home/1365273,MLSListings,ML81453752,N,Y,37.561437,-122.267213
PAST SALE,October-17-2017,Condo/Co-op,740 Promontory Point Ln #3208,FOSTER CITY,CA,94404,1232000,3,2.5,FOSTER CITY,2224,346066,2005,105,554,1000,Sold,,,http://www.redfin.com/CA/Foster-City/740-Promontory-Point-Ln-94404/unit-3208/home/1934154,MLSListings,ML81676860,N,Y,37.5505856,-122.2828416
PAST SALE,October-25-2017,Condo/Co-op,1106 Admiralty Ln,FOSTER CITY,CA,94404,910000,3,2.0,FOSTER CITY,1505,432988,1965,97,605,711,Sold,,,http://www.redfin.com/CA/Foster-City/1106-Admiralty-Ln-94404/home/999363,MLSListings,ML81678107,N,Y,37.560991979,-122.2680766
PAST SALE,,Single Family Residential,839 Grenada Ln,Foster City,CA,94404,2000000,4,2.0,,2530,9283,1978,,791,,,,,http://www.redfin.com/CA/Foster-City/839-Grenada-Ln-94404/home/1937667,,,N,Y,37.5466023,-122.2609988
PAST SALE,May-26-2017,Single Family Residential,917 Constitution,FOSTER CITY,CA,94404,1685000,4,3.0,FOSTER CITY,2160,5795,1965,249,780,,Sold,,,http://www.redfin.com/CA/Foster-City/917-Constitution-Dr-94404/home/1975280,MLSListings,ML81647627,N,Y,37.5576613,-122.2587904
PAST SALE,October-23-2017,Single Family Residential,231 Topsail Ct,FOSTER CITY,CA,94404,1860000,4,2.0,FOSTER CITY,1780,5225,1967,99,1045,,Sold,,,http://www.redfin.com/CA/Foster-City/231-Topsail-Ct-94404/home/1696207,MLSListings,ML81680823,N,Y,37.5506055,-122.2577479
PAST SALE,,Townhouse,1008 Gull Ave,Foster City,CA,94404,113500,2,2.0,,1290,1757,1970,,88,,,,,http://www.redfin.com/CA/Foster-City/1008-Gull-Ave-94404/home/1113354,,,N,Y,37.564827,-122.2536178
PAST SALE,November-3-2017,Condo/Co-op,912 Beach Park Blvd #92,FOSTER CITY,CA,94404,759000,1,1.0,FOSTER CITY,810,394588,1973,88,937,530,Sold,,,http://www.redfin.com/CA/Foster-City/912-Beach-Park-Blvd-94404/unit-92/home/1697324,MLSListings,ML81678241,N,Y,37.547979,-122.258968
PAST SALE,November-3-2017,Condo/Co-op,1151 Compass Ln #108,FOSTER CITY,CA,94404,922000,2,2.0,FOSTER CITY,1286,278240,1976,88,717,498,Sold,,,http://www.redfin.com/CA/Foster-City/1151-Compass-Ln-94404/unit-108/home/1663178,MLSListings,ML81679224,N,Y,37.5502383,-122.2544217
PAST SALE,October-31-2017,Townhouse,260 Bonita Ln,FOSTER CITY,CA,94404,1220000,3,2.5,FOSTER CITY,1370,1752,1985,91,891,366,Sold,,,http://www.redfin.com/CA/Foster-City/260-Bonita-Ln-94404/home/1701797,MLSListings,ML81676302,N,Y,37.558661,-122.249983
PAST SALE,October-31-2017,Townhouse,1545 Beach Park Blvd,FOSTER CITY,CA,94404,1428000,3,2.5,FOSTER CITY,1460,1757,1970,91,978,235,Sold,,,http://www.redfin.com/CA/Foster-City/1545-Beach-Park-Blvd-94404/home/933301,MLSListings,ML81681686,N,Y,37.564782,-122.251255
PAST SALE,October-12-2017,Townhouse,1463 Marlin Ave,Foster City,CA,94404,1285000,3,2.5,Foster City,1530,1757,1970,110,840,235,Sold,,,http://www.redfin.com/CA/Foster-City/1463-Marlin-Ave-94404/home/1992478,EBRD/CCAR/Bay East,40796986,N,Y,37.564248,-122.251745
PAST SALE,November-13-2017,Single Family Residential,350 Spinnaker St,FOSTER CITY,CA,94404,1700000,3,2.0,FOSTER CITY,1890,5225,1967,78,899,,Sold,,,http://www.redfin.com/CA/Foster-City/350-Spinnaker-St-94404/home/2051628,MLSListings,ML81681536,N,Y,37.549067,-122.2555573
PAST SALE,November-20-2017,Townhouse,148 Albacore,FOSTER CITY,CA,94404,1300000,3,2.5,FOSTER CITY,1630,1800,1986,71,798,360,Sold,,,http://www.redfin.com/CA/Foster-City/148-Albacore-Ln-94404/home/1968546,MLSListings,ML81681292,N,Y,37.559268,-122.2508392
PAST SALE,November-22-2017,Condo/Co-op,7206 Admiralty Ln,FOSTER CITY,CA,94404,725000,2,1.5,FOSTER CITY,998,432988,1965,69,726,643,Sold,,,http://www.redfin.com/CA/Foster-City/7206-Admiralty-Ln-94404/home/999539,MLSListings,ML81681787,N,Y,37.561437,-122.267213
PAST SALE,November-20-2017,Condo/Co-op,1191 Compass Ln #204,FOSTER CITY,CA,94404,1150000,3,2.0,FOSTER CITY,1593,278240,1976,71,722,499,Sold,,,http://www.redfin.com/CA/Foster-City/1191-Compass-Ln-94404/unit-204/home/1326793,MLSListings,ML81681264,N,Y,37.5491339,-122.2542584
PAST SALE,November-22-2017,Condo/Co-op,6106 Admiralty Ln,FOSTER CITY,CA,94404,550000,1,1.0,FOSTER CITY,748,432988,1965,69,735,611,Sold,,,http://www.redfin.com/CA/Foster-City/6106-Admiralty-Ln-94404/home/999872,MLSListings,ML81682242,N,Y,37.561437,-122.267213
PAST SALE,,Townhouse,807 Peary Ln,Foster City,CA,94404,1575000,3,2.0,,1580,1776,1974,,997,,,,,http://www.redfin.com/CA/Foster-City/807-Peary-Ln-94404/home/937300,,,N,Y,37.5486233,-122.2685652
PAST SALE,December-22-2017,Single Family Residential,370 Sailfish Isle,FOSTER CITY,CA,94404,2280000,4,3.0,FOSTER CITY,2380,7686,1972,39,958,,Sold,,,http://www.redfin.com/CA/Foster-City/370-Sailfish-Isle-94404/home/930574,MLSListings,ML81683290,N,Y,37.5577979,-122.2550514
PAST SALE,,Single Family Residential,676 Pilgrim Dr,Foster City,CA,94404,1370000,3,2.0,,1340,5225,1964,,1022,,,,,http://www.redfin.com/CA/Foster-City/676-Pilgrim-Dr-94404/home/1988900,,,N,Y,37.5627264,-122.2647314
PAST SALE,November-30-2017,Single Family Residential,189 Flying Cloud Isle,FOSTER CITY,CA,94404,2300000,3,2.0,FOSTER CITY,2180,6384,1964,61,1055,,Sold,,,http://www.redfin.com/CA/Foster-City/189-Flying-Cloud-Isle-94404/home/2059320,MLSListings,ML81682094,N,Y,37.5648155,-122.2609713
PAST SALE,December-29-2017,Single Family Residential,603 Plymouth Ln,FOSTER CITY,CA,94404,1960000,3,2.5,FOSTER CITY,1790,4320,1977,32,1095,521,Sold,,,http://www.redfin.com/CA/Foster-City/603-Plymouth-Ln-94404/home/2027821,MLSListings,ML81686009,N,Y,37.5447426,-122.2691267
PAST SALE,December-11-2017,Townhouse,1046 Eagle Ln,FOSTER CITY,CA,94404,1200006,2,2.5,FOSTER CITY,1290,1777,1971,50,930,450,Sold,,,http://www.redfin.com/CA/Foster-City/1046-Eagle-Ln-94404/home/1408671,MLSListings,ML81683847,N,Y,37.563419,-122.253504
PAST SALE,,Single Family Residential,290 Killdeer Ct,Foster City,CA,94404,1780000,4,2.5,,2160,8212,1965,,824,,,,,http://www.redfin.com/CA/Foster-City/290-Killdeer-Ct-94404/home/1489833,,,N,Y,37.5675534,-122.2594144
PAST SALE,October-3-2017,Townhouse,313 Catamaran St,FOSTER CITY,CA,94404,1235000,3,1.5,FOSTER CITY,1460,1739,1973,119,846,350,Sold,,,http://www.redfin.com/CA/Foster-City/313-Catamaran-St-94404/home/1883084,MLSListings,ML81676184,N,Y,37.5488626,-122.2667672
PAST SALE,December-13-2017,Townhouse,1002 Lark Ln,Foster City,CA,94404,945000,2,1.5,Foster City,980,,1971,48,964,450,Sold,,,http://www.redfin.com/CA/Foster-City/1002-Lark-Ln-94404/home/929748,San Francisco MLS,464310,N,Y,37.564141,-122.254238
PAST SALE,December-14-2017,Single Family Residential,305 Mullet Ct,FOSTER CITY,CA,94404,1880000,3,2.0,FOSTER CITY,1860,7556,1967,47,1011,,Sold,,,http://www.redfin.com/CA/Foster-City/305-Mullet-Ct-94404/home/1948312,MLSListings,ML81686361,N,Y,37.5552471,-122.2514838
PAST SALE,December-14-2017,Townhouse,1115 Outrigger Ln,Foster City,CA,94404,1200000,2,2.5,Foster City,1580,,1989,47,759,435,Sold,,,http://www.redfin.com/CA/Foster-City/1115-Outrigger-Ln-94404/home/948042,San Francisco MLS,464496,N,Y,37.548552,-122.253795
PAST SALE,December-13-2017,Condo/Co-op,916 Beach Park Blvd #61,FOSTER CITY,CA,94404,875000,2,2.0,FOSTER CITY,1060,394588,1973,48,825,530,Sold,,,http://www.redfin.com/CA/Foster-City/916-Beach-Park-Blvd-94404/unit-61/home/1147359,MLSListings,ML81683749,N,Y,37.5480561,-122.2589148
PAST SALE,,Multi-Family (2-4 Unit),650 Shell Blvd Unit 303,Foster City,CA,94404,1200000,,,,,,,,,,,,,http://www.redfin.com/CA/Foster-City/650-Shell-Blvd-94404/unit-303/home/109203484,,,N,Y,37.557678,-122.2691795
PAST SALE,January-19-2018,Condo/Co-op,1029 Foster Square Ln #402,FOSTER CITY,CA,94404,1383000,2,2.5,FOSTER CITY,1746,15683,2017,11,792,414,Sold,,,http://www.redfin.com/CA/Foster-City/650-Shell-Blvd-94404/unit-402/home/144236560,MLSListings,ML81683738,N,Y,37.557678,-122.2691795
PAST SALE,November-14-2017,Single Family Residential,243 Turnstone Ct,FOSTER CITY,CA,94404,1650000,4,3.0,FOSTER CITY,2250,5978,1966,77,733,,Sold,,,http://www.redfin.com/CA/Foster-City/243-Turnstone-Ct-94404/home/929718,MLSListings,ML81684813,N,Y,37.5657519,-122.2553659
PAST SALE,December-28-2017,Condo/Co-op,1170 Foster City Blvd #111,FOSTER CITY,CA,94404,926000,2,2.0,FOSTER CITY,1349,701665,1973,33,686,517,Sold,,,http://www.redfin.com/CA/Foster-City/1170-Foster-City-Blvd-94404/unit-111/home/1663090,MLSListings,ML81685377,N,Y,37.5512784,-122.2533321
PAST SALE,December-28-2017,Townhouse,301 Catamaran St,FOSTER CITY,CA,94404,1355000,3,2.0,FOSTER CITY,1580,2695,1974,33,858,350,Sold,,,http://www.redfin.com/CA/Foster-City/301-Catamaran-St-94404/home/1794720,MLSListings,ML81686086,N,Y,37.5484635,-122.2663839
PAST SALE,March-8-2016,Single Family Residential,1961 Beach Park,FOSTER CITY,CA,94404,1299999,3,2.0,FOSTER CITY,1840,5225,1965,693,707,,Sold,,,http://www.redfin.com/CA/Foster-City/1961-Beach-Park-Blvd-94404/home/928454,MLSListings,ML81547690,N,Y,37.5702578,-122.2638548
PAST SALE,May-18-2016,Townhouse,737 Apollo Ln,FOSTER CITY,CA,94404,1210000,3,2.5,FOSTER CITY,1470,1751,1972,622,823,365,Sold,,,http://www.redfin.com/CA/Foster-City/737-Apollo-Ln-94404/home/1910268,MLSListings,ML81566213,N,Y,37.551744,-122.27594
PAST SALE,August-17-2016,Townhouse,608 Pisces Ln,FOSTER CITY,CA,94404,1390000,4,2.5,FOSTER CITY,1920,2199,1973,531,724,350,Sold,,,http://www.redfin.com/CA/Foster-City/608-Pisces-Ln-94404/home/1743682,MLSListings,ML81594486,N,Y,37.549299,-122.282192
PAST SALE,May-4-2016,Townhouse,654 Celestial Ln,FOSTER CITY,CA,94404,1104000,3,2.0,FOSTER CITY,1370,2925,1972,636,806,350,Sold,,,http://www.redfin.com/CA/Foster-City/654-Celestial-Ln-94404/home/2034870,MLSListings,ML81577964,N,Y,37.549288,-122.280147
PAST SALE,October-13-2015,Townhouse,605 Pisces Ln,FOSTER CITY,CA,94404,1351000,4,2.5,FOSTER CITY,1700,1890,1973,840,795,340,Sold,,,http://www.redfin.com/CA/Foster-City/605-Pisces-Ln-94404/home/934504,MLSListings,ML81514084,N,Y,37.5497159,-122.28206
PAST SALE,June-22-2016,Townhouse,648 Pegasus Ln,FOSTER CITY,CA,94404,1220000,3,2.5,FOSTER CITY,1470,1751,1972,587,830,365,Sold,,,http://www.redfin.com/CA/Foster-City/648-Pegasus-Ln-94404/home/1927373,MLSListings,ML81588634,N,Y,37.550765,-122.278559
PAST SALE,November-13-2015,Townhouse,733 Aries Ln,FOSTER CITY,CA,94404,805000,2,1.5,FOSTER CITY,1270,1890,1973,809,634,340,Sold,,,http://www.redfin.com/CA/Foster-City/733-Aries-Ln-94404/home/1278397,MLSListings,ML81516213,N,Y,37.550305,-122.281632
PAST SALE,,Single Family Residential,850 Regulus St,Foster City,CA,94404,1580000,4,2.0,,1950,5605,1969,,810,,,,,http://www.redfin.com/CA/Foster-City/850-Regulus-St-94404/home/1768875,,,N,Y,37.5500143,-122.275927
PAST SALE,December-18-2015,Townhouse,712 Hydra Ln,FOSTER CITY,CA,94404,1288000,4,2.5,FOSTER CITY,1920,2198,1973,774,671,340,Sold,,,http://www.redfin.com/CA/Foster-City/712-Hydra-Ln-94404/home/2057623,MLSListings,ML81522554,N,Y,37.549268,-122.280525
PAST SALE,,Townhouse,751 Celestial Ln,Foster City,CA,94404,800500,3,2.0,,1370,2925,1973,,584,,,,,http://www.redfin.com/CA/Foster-City/751-Celestial-Ln-94404/home/1576391,,,N,Y,37.5506347,-122.2806353
PAST SALE,January-14-2016,Single Family Residential,737 Gull Ave,FOSTER CITY,CA,94404,1208000,3,2.0,FOSTER CITY,1700,5320,1965,747,711,,Sold,,,http://www.redfin.com/CA/Foster-City/737-Gull-Ave-94404/home/1687189,MLSListings,ML81517468,N,Y,37.5682087,-122.2630467
PAST SALE,October-14-2016,Townhouse,1092 Gull Ave,FOSTER CITY,CA,94404,1040000,3,2.5,FOSTER CITY,1290,1755,1970,473,806,235,Sold,,,http://www.redfin.com/CA/Foster-City/1092-Gull-Ave-94404/home/932917,MLSListings,ML81612612,N,Y,37.5657403,-122.2515889
PAST SALE,May-30-2017,Townhouse,1157 Nimitz Ln,FOSTER CITY,CA,94404,1500000,3,2.5,FOSTER CITY,1700,1925,1975,245,882,385,Sold,,,http://www.redfin.com/CA/Foster-City/1157-Nimitz-Ln-94404/home/2037983,MLSListings,ML81648005,N,Y,37.5439269,-122.262216
PAST SALE,December-7-2017,Single Family Residential,703 Baffin St,FOSTER CITY,CA,94404,2000000,4,2.5,FOSTER CITY,2700,5936,1979,54,741,156,Sold,,,http://www.redfin.com/CA/Foster-City/703-Baffin-St-94404/home/2002822,MLSListings,ML81683785,N,Y,37.5409717,-122.2608434
PAST SALE,March-27-2017,Townhouse,808 Corvus Ln,FOSTER CITY,CA,94404,1000000,2,2.0,FOSTER CITY,1188,1188,1973,309,842,453,Sold,,,http://www.redfin.com/CA/Foster-City/808-Corvus-Ln-94404/home/965374,MLSListings,ML81638166,N,Y,37.549618,-122.273518
PAST SALE,March-29-2017,Townhouse,625 Celestial Ln,FOSTER CITY,CA,94404,1270000,3,2.5,FOSTER CITY,1430,1890,1972,307,888,360,Sold,,,http://www.redfin.com/CA/Foster-City/625-Celestial-Ln-94404/home/1499339,MLSListings,ML81639047,N,Y,37.549954,-122.279331
PAST SALE,April-19-2017,Condo/Co-op,700 Promontory Point Ln #1207,FOSTER CITY,CA,94404,1300000,3,2.5,FOSTER CITY,2264,,1990,286,574,1000,Sold,,,http://www.redfin.com/CA/Foster-City/700-Promontory-Point-Ln-94404/unit-1207/home/1989587,MLSListings,ML81639727,N,Y,37.550028,-122.283515
PAST SALE,July-6-2017,Condo/Co-op,840 Sea Spray Ln #114,FOSTER CITY,CA,94404,610000,1,1.0,FOSTER CITY,953,621905,1981,208,640,510,Sold,,,http://www.redfin.com/CA/Foster-City/840-Sea-Spray-Ln-94404/unit-114/home/973324,MLSListings,ML81654422,N,Y,37.5539293,-122.2803461
PAST SALE,June-30-2017,Townhouse,722 Aries Ln,FOSTER CITY,CA,94404,1285000,4,2.5,FOSTER CITY,1700,1890,1973,214,756,360,Sold,,,http://www.redfin.com/CA/Foster-City/722-Aries-Ln-94404/home/1380302,MLSListings,ML81650904,N,Y,37.549943,-122.281887
PAST SALE,May-12-2017,Townhouse,664 Portofino Ln,FOSTER CITY,CA,94404,1220000,2,2.5,FOSTER CITY,1780,224919,1975,263,685,719,Sold,,,http://www.redfin.com/CA/Foster-City/664-Portofino-Ln-94404/home/1960733,MLSListings,ML81647930,N,Y,37.5523499,-122.271969
PAST SALE,July-17-2017,Condo/Co-op,880 Meridian Bay Ln #113,FOSTER CITY,CA,94404,920000,2,2.0,FOSTER CITY,1350,206123,1998,197,681,625,Sold,,,http://www.redfin.com/CA/Foster-City/880-Meridian-Bay-Ln-94404/unit-113/home/2018370,MLSListings,ML81670458,N,Y,37.554083,-122.27858
PAST SALE,May-15-2017,Condo/Co-op,824 Balboa Ln,FOSTER CITY,CA,94404,1036000,2,2.0,FOSTER CITY,1395,305463,1975,260,743,715,Sold,,,http://www.redfin.com/CA/Foster-City/824-Balboa-Ln-94404/unit-67/home/974783,MLSListings,ML81648958,N,Y,37.552816,-122.270788
PAST SALE,,Single Family Residential,656 Scorpio Ln,Foster City,CA,94404,1200000,3,2.0,,1370,2925,1972,,876,,,,,http://www.redfin.com/CA/Foster-City/656-Scorpio-Ln-94404/home/2009784,,,N,Y,37.5502468,-122.2799584
PAST SALE,August-25-2017,Condo/Co-op,840 Sea Spray Ln #303,Foster City,CA,94404,850000,2,2.0,Foster City,1233,,1981,158,689,510,Sold,,,http://www.redfin.com/CA/Foster-City/Undisclosed-address-94404/home/1093541,San Francisco MLS,461016,N,Y,37.5539293,-122.2803461
PAST SALE,September-8-2017,Condo/Co-op,221 Village Ln,FOSTER CITY,CA,94404,1275000,2,2.5,FOSTER CITY,1630,800,1996,144,782,219,Sold,,,http://www.redfin.com/CA/Foster-City/221-Village-Ln-94404/home/1175581,MLSListings,ML81671658,N,Y,37.55805,-122.275563
PAST SALE,,Townhouse,831 Juno Ln,Foster City,CA,94404,1100000,2,1.0,,1196,384203,1973,,920,,,,,http://www.redfin.com/CA/Foster-City/831-Juno-Ln-94404/home/2058367,,,N,Y,37.5494283,-122.2735543
PAST SALE,October-23-2017,Condo/Co-op,1031 Foster Sq #401,FOSTER CITY,CA,94404,1323880,2,2.5,FOSTER CITY,1754,,2017,99,755,325,Sold,,,http://www.redfin.com/CA/Foster-City/1031-Foster-City-Levee-Pedway-94404/unit-401/home/114078814,MLSListings,ML81633138,N,Y,37.5531955,-122.2818008
PAST SALE,September-29-2017,Townhouse,804 Rigel Ln,FOSTER CITY,CA,94404,1188000,4,2.5,FOSTER CITY,1600,1750,1972,123,743,375,Sold,,,http://www.redfin.com/CA/Foster-City/804-Rigel-Ln-94404/home/934964,MLSListings,ML81673948,N,Y,37.5515929,-122.277106
PAST SALE,September-27-2017,Townhouse,803 Volans Ln,FOSTER CITY,CA,94404,1210000,3,2.5,FOSTER CITY,1546,49749,1978,125,783,453,Sold,,,http://www.redfin.com/CA/Foster-City/803-Volans-Ln-94404/home/969104,MLSListings,ML81675685,N,Y,37.547612,-122.27305
PAST SALE,October-12-2017,Townhouse,208 Village Ln,FOSTER CITY,CA,94404,1318000,2,3.0,FOSTER CITY,1630,1060,1996,110,809,219,Sold,,,http://www.redfin.com/CA/Foster-City/208-Village-Ln-94404/home/1455834,MLSListings,ML81678290,N,Y,37.558129,-122.274752
PAST SALE,October-9-2017,Condo/Co-op,1081 Beach Park Blvd #111,FOSTER CITY,CA,94404,910000,2,2.0,FOSTER CITY,1349,701665,1973,113,675,498,Sold,,,http://www.redfin.com/CA/Foster-City/1081-Beach-Park-Blvd-94404/unit-111/home/1611517,MLSListings,ML81676710,N,Y,37.5508746,-122.2523436
PAST SALE,July-6-2017,Single Family Residential,943 Aruba Ln,FOSTER CITY,CA,94404,2100000,4,2.0,FOSTER CITY,2090,5700,1978,208,1005,276,Sold,,,http://www.redfin.com/CA/Foster-City/943-Aruba-Ln-94404/home/1943781,MLSListings,ML81653262,N,Y,37.5462249,-122.2586953
PAST SALE,October-3-2017,Townhouse,660 Draco Ln,FOSTER CITY,CA,94404,1305000,3,2.5,FOSTER CITY,1430,1890,1973,119,913,360,Sold,,,http://www.redfin.com/CA/Foster-City/660-Draco-Ln-94404/home/933881,MLSListings,ML81675495,N,Y,37.549593,-122.28038
PAST SALE,December-6-2017,Townhouse,145 E Court Ln,FOSTER CITY,CA,94404,1130000,2,2.5,FOSTER CITY,1530,920,1986,55,739,380,Sold,,,http://www.redfin.com/CA/Foster-City/145-E-Court-Ln-94404/home/2054546,MLSListings,ML81683792,N,Y,37.559256,-122.273819
PAST SALE,November-15-2017,Condo/Co-op,612 Portofino Ln,FOSTER CITY,CA,94404,1012000,2,2.0,FOSTER CITY,1395,224919,1975,76,725,719,Sold,,,http://www.redfin.com/CA/Foster-City/612-Portofino-Ln-94404/unit-43-B/home/1318486,MLSListings,ML81681829,N,Y,37.553142,-122.2717812
PAST SALE,November-7-2017,Condo/Co-op,891 Balboa Ln,FOSTER CITY,CA,94404,1275000,2,2.0,FOSTER CITY,1490,,1975,84,856,719,Sold,,,http://www.redfin.com/CA/Foster-City/891-Balboa-Ln-94404/unit-40/home/2051713,MLSListings,ML81679198,N,Y,37.5538863,-122.2705821
PAST SALE,December-8-2017,Townhouse,619 Portofino Ln,FOSTER CITY,CA,94404,1110000,2,2.5,FOSTER CITY,1780,224919,1975,53,624,719,Sold,,,http://www.redfin.com/CA/Foster-City/619-Portofino-Ln-94404/unit-65-C/home/1720686,MLSListings,ML81683502,N,Y,37.5527911,-122.2716605
PAST SALE,November-24-2017,Condo/Co-op,648 Portofino Ln,FOSTER CITY,CA,94404,1250000,2,2.0,FOSTER CITY,1395,224919,1975,67,896,719,Sold,,,http://www.redfin.com/CA/Foster-City/648-Portofino-Ln-94404/unit-25-B/home/2057704,MLSListings,ML81684436,N,Y,37.552436,-122.2726342
PAST SALE,December-20-2017,Condo/Co-op,860 Meridian Bay Ln #239,FOSTER CITY,CA,94404,912000,2,2.0,FOSTER CITY,1245,206123,1999,41,733,625,Sold,,,http://www.redfin.com/CA/Foster-City/860-Meridian-Bay-Ln-94404/unit-239/home/1812075,MLSListings,ML81679633,N,Y,37.553985,-122.278843
PAST SALE,December-20-2017,Townhouse,119 E Court Ln,FOSTER CITY,CA,94404,1183000,2,2.5,FOSTER CITY,1530,920,1986,41,773,380,Sold,,,http://www.redfin.com/CA/Foster-City/119-E-Court-Ln-94404/home/2058328,MLSListings,ML81684267,N,Y,37.558995,-122.274672
PAST SALE,June-4-2015,Single Family Residential,211 Staysail Ct,FOSTER CITY,CA,94404,1549000,4,3.0,FOSTER CITY,2450,5600,1969,971,632,,Sold,,,http://www.redfin.com/CA/Foster-City/211-Staysail-Ct-94404/home/1711135,MLSListings,ML81450612,N,Y,37.5509682,-122.2569153
PAST SALE,,Single Family Residential,969 Laguna Cir,Foster City,CA,94404,1700000,4,2.0,,1930,6902,1969,,881,,,,,http://www.redfin.com/CA/Foster-City/969-Laguna-Cir-94404/home/1287494,,,N,Y,37.5443706,-122.2727206
PAST SALE,March-29-2017,Townhouse,718 Zumwalt Ln,FOSTER CITY,CA,94404,1550000,3,2.5,FOSTER CITY,1700,2700,1975,307,912,375,Sold,,,http://www.redfin.com/CA/Foster-City/718-Zumwalt-Ln-94404/home/1251624,MLSListings,ML81638717,N,Y,37.542977,-122.264047
PAST SALE,April-20-2017,Single Family Residential,614 Greenwich Ln,FOSTER CITY,CA,94404,1850000,3,2.5,FOSTER CITY,1800,6032,1977,285,1028,219,Sold,,,http://www.redfin.com/CA/Foster-City/614-Greenwich-Ln-94404/home/1362364,MLSListings,ML81637636,N,Y,37.5433474,-122.2665738
PAST SALE,May-5-2017,Single Family Residential,516 Hanbury Ln,FOSTER CITY,CA,94404,2068500,4,2.5,FOSTER CITY,2700,5550,1981,270,766,156,Sold,,,http://www.redfin.com/CA/Foster-City/516-Hanbury-Ln-94404/home/2041504,MLSListings,ML81644321,N,Y,37.5386041,-122.2649022
PAST SALE,,Single Family Residential,38 Williams Ln,Foster City,CA,94404,1265000,3,2.5,,1550,3087,1986,,816,,,,,http://www.redfin.com/CA/Foster-City/38-Williams-Ln-94404/home/1943836,,,N,Y,37.5346155,-122.2680634
PAST SALE,May-31-2017,Single Family Residential,416 Thatcher Ln,FOSTER CITY,CA,94404,1920000,3,2.5,FOSTER CITY,2390,5880,1985,244,803,100,Sold,,,http://www.redfin.com/CA/Foster-City/416-Thatcher-Ln-94404/home/1687339,MLSListings,ML81653851,N,Y,37.5376783,-122.2674721
PAST SALE,May-26-2017,Single Family Residential,1250 Martinique Ln,FOSTER CITY,CA,94404,2000000,4,3.0,FOSTER CITY,2180,4692,1976,249,917,175,Sold,,,http://www.redfin.com/CA/Foster-City/1250-Martinique-Ln-94404/home/1380394,MLSListings,ML81648778,N,Y,37.5395922,-122.2681119
PAST SALE,June-9-2017,Single Family Residential,297 Port Royal Ave,FOSTER CITY,CA,94404,1743300,4,3.0,FOSTER CITY,2430,6380,1980,235,717,,Sold,,,http://www.redfin.com/CA/Foster-City/297-Port-Royal-Ave-94404/home/2027801,MLSListings,ML81649763,N,Y,37.5401538,-122.2762073
PAST SALE,July-31-2017,Single Family Residential,507 Nottingham Ln,FOSTER CITY,CA,94404,1888000,4,2.5,FOSTER CITY,2350,5130,1980,183,803,156,Sold,,,http://www.redfin.com/CA/Foster-City/507-Nottingham-Ln-94404/home/1679414,MLSListings,ML81614227,N,Y,37.5396455,-122.2652302
PAST SALE,August-14-2017,Single Family Residential,610 Greenwich Ln,FOSTER CITY,CA,94404,1920000,3,2.5,FOSTER CITY,1800,6254,1977,169,1067,224,Sold,,,http://www.redfin.com/CA/Foster-City/610-Greenwich-Ln-94404/home/2034901,MLSListings,ML81671697,N,Y,37.5432706,-122.2662412
PAST SALE,August-15-2017,Single Family Residential,552 Trinidad Ln,FOSTER CITY,CA,94404,1340000,3,2.0,FOSTER CITY,1620,4900,1976,168,827,95,Sold,,,http://www.redfin.com/CA/Foster-City/Undisclosed-address-94404/home/1092381,MLSListings,ML81672225,N,Y,37.5403145,-122.2668369
PAST SALE,August-21-2017,Single Family Residential,420 Beach Park Blvd,FOSTER CITY,CA,94404,1933000,4,3.0,FOSTER CITY,2240,5225,1973,162,863,,Sold,,,http://www.redfin.com/CA/Foster-City/420-Beach-Park-Blvd-94404/home/936001,MLSListings,ML81670907,N,Y,37.5449039,-122.273822
PAST SALE,August-21-2017,Single Family Residential,248 Thatcher Ln,FOSTER CITY,CA,94404,2450000,4,2.5,FOSTER CITY,2730,5880,1985,162,897,180,Sold,,,http://www.redfin.com/CA/Foster-City/248-Thatcher-Ln-94404/home/1968550,MLSListings,ML81672836,N,Y,37.5374034,-122.2691457
PAST SALE,,Single Family Residential,380 Beach Park Blvd,Foster City,CA,94404,875000,4,2.0,,1970,8075,1969,,444,,,,,http://www.redfin.com/CA/Foster-City/380-Beach-Park-Blvd-94404/home/1499401,,,N,Y,37.5445314,-122.2746947
PAST SALE,April-21-2017,Single Family Residential,611 Santa Catalina Ln,FOSTER CITY,CA,94404,2115000,4,3.0,FOSTER CITY,2620,7137,1977,284,807,292,Sold,,,http://www.redfin.com/CA/Foster-City/611-Santa-Catalina-Ln-94404/home/1126243,MLSListings,ML81641893,N,Y,37.5409365,-122.2639085
PAST SALE,May-24-2017,Single Family Residential,34 Williams Ln,FOSTER CITY,CA,94404,1480000,3,2.5,FOSTER CITY,1670,3328,1986,251,886,491,Sold,,,http://www.redfin.com/CA/Foster-City/34-Williams-Ln-94404/home/1526048,MLSListings,ML81645887,N,Y,37.5346423,-122.2685617
PAST SALE,August-23-2017,Single Family Residential,16 Williams Ln,FOSTER CITY,CA,94404,1503000,3,2.5,FOSTER CITY,1550,3510,1986,160,970,491,Sold,,,http://www.redfin.com/CA/Foster-City/16-Williams-Ln-94404/home/944360,MLSListings,ML81671460,N,Y,37.5351128,-122.2701155
PAST SALE,June-9-2017,Single Family Residential,41 Williams Ln,FOSTER CITY,CA,94404,1400000,3,2.5,FOSTER CITY,1670,3245,1986,235,838,491,Sold,,,http://www.redfin.com/CA/Foster-City/41-Williams-Ln-94404/home/2027874,MLSListings,ML81647850,N,Y,37.5344487,-122.267654
PAST SALE,,Single Family Residential,1180 Nimitz Ln,Foster City,CA,94404,1196000,3,2.0,,1350,2772,1975,,886,,,,,http://www.redfin.com/CA/Foster-City/1180-Nimitz-Ln-94404/home/2044980,,,N,Y,37.5433189,-122.263686
PAST SALE,November-8-2017,Townhouse,713 Zumwalt Ln,FOSTER CITY,CA,94404,1370000,3,2.0,FOSTER CITY,1530,2464,1975,83,895,375,Sold,,,http://www.redfin.com/CA/Foster-City/713-Zumwalt-Ln-94404/home/937461,MLSListings,ML81681449,N,Y,37.543483,-122.263841
PAST SALE,,Single Family Residential,1 Williams Ln,Foster City,CA,94404,720000,3,2.0,,1670,3245,1986,,431,,,,,http://www.redfin.com/CA/Foster-City/1-Williams-Ln-94404/home/946972,,,N,Y,37.535763,-122.2690246
PAST SALE,April-25-2017,Single Family Residential,380 Winchester Ct,FOSTER CITY,CA,94404,1700000,4,2.0,FOSTER CITY,1470,10248,1971,280,1156,,Sold,,,http://www.redfin.com/CA/Foster-City/380-Winchester-Ct-94404/home/2046957,MLSListings,ML81644370,N,Y,37.5399221,-122.2746781
PAST SALE,,Single Family Residential,1023 Avalon Ave,Foster City,CA,94404,1818000,3,2.0,,2220,5000,1978,,819,,,,,http://www.redfin.com/CA/Foster-City/1023-Avalon-Ave-94404/home/1287517,,,N,Y,37.53964,-122.2700535
PAST SALE,,Single Family Residential,396 Sailfish Isle,Foster City,CA,94404,2000000,5,3.0,,3900,10350,1972,,513,,,,,http://www.redfin.com/CA/Foster-City/396-Sailfish-Isle-94404/home/1039582,,,N,Y,37.5585019,-122.2551316
PAST SALE,March-20-2015,Condo/Co-op,8213 Admiralty Ln,FOSTER CITY,CA,94404,510000,2,1.5,FOSTER CITY,998,,1965,1047,511,640,Sold,,,http://www.redfin.com/CA/Foster-City/8213-Admiralty-Ln-94404/home/1217407,MLSListings,ML81450615,N,Y,37.561437,-122.267213
PAST SALE,March-21-2017,Single Family Residential,526 Nottingham Ln,FOSTER CITY,CA,94404,1800000,4,2.5,FOSTER CITY,1970,5450,1980,315,914,156,Sold,,,http://www.redfin.com/CA/Foster-City/526-Nottingham-Ln-94404/home/2020598,MLSListings,ML81638537,N,Y,37.5396205,-122.2642955
PAST SALE,June-20-2016,Single Family Residential,608 Bridgeport Ln,FOSTER CITY,CA,94404,1743000,3,2.5,FOSTER CITY,1790,4573,1977,589,974,256,Sold,,,http://www.redfin.com/CA/Foster-City/608-Bridgeport-Ln-94404/home/1553781,MLSListings,ML81591469,N,Y,37.5455716,-122.2691486
PAST SALE,May-17-2016,Townhouse,1244 Moonsail Ln,FOSTER CITY,CA,94404,940000,2,1.5,FOSTER CITY,1350,1620,1977,623,696,350,Sold,,,http://www.redfin.com/CA/Foster-City/1244-Moonsail-Ln-94404/home/1877319,MLSListings,ML81566358,N,Y,37.552673,-122.250659
PAST SALE,,Townhouse,1087 Tiller Ln,Foster City,CA,94404,980000,3,2.0,,1540,974,1989,,636,,,,,http://www.redfin.com/CA/Foster-City/1087-Tiller-Ln-94404/home/1536728,,,N,Y,37.5482451,-122.2551049
PAST SALE,,Condo/Co-op,1061 Beach Park Blvd Apt 203,Foster City,CA,94404,715000,2,2.0,,1286,,1973,,556,,,,,http://www.redfin.com/CA/Foster-City/1061-Beach-Park-Blvd-94404/unit-203/home/2043562,,,N,Y,37.5505114,-122.2530553
PAST SALE,May-8-2015,Condo/Co-op,1131 Compass Ln #211,FOSTER CITY,CA,94404,720000,2,2.0,FOSTER CITY,1349,,1973,998,534,499,Sold,,,http://www.redfin.com/CA/Foster-City/1131-Compass-Ln-94404/unit-211/home/967503,MLSListings,ML81456878,N,Y,37.5511263,-122.254268
PAST SALE,March-19-2015,Single Family Residential,1101 Catamaran St,FOSTER CITY,CA,94404,1530000,4,3.0,FOSTER CITY,2250,6825,1969,1048,680,,Sold,,,http://www.redfin.com/CA/Foster-City/1101-Catamaran-St-94404/home/1837820,MLSListings,ML81447290,N,Y,37.5525716,-122.2559377
PAST SALE,June-29-2016,Condo/Co-op,1111 Compass Ln #205,FOSTER CITY,CA,94404,862000,3,2.0,FOSTER CITY,1593,,1973,580,541,499,Sold,,,http://www.redfin.com/CA/Foster-City/1111-Compass-Ln-94404/unit-205/home/1456679,MLSListings,ML81580607,N,Y,37.552037,-122.25352
PAST SALE,August-5-2015,Townhouse,996 Marquette Ln,FOSTER CITY,CA,94404,1258000,3,2.5,FOSTER CITY,1380,1440,1976,909,912,175,Sold,,,http://www.redfin.com/CA/Foster-City/996-Marquette-Ln-94404/home/1728198,MLSListings,ML81485554,N,Y,37.5490338,-122.2660066
PAST SALE,August-12-2015,Single Family Residential,730 Tender Ln,FOSTER CITY,CA,94404,2088000,5,3.0,FOSTER CITY,2710,7119,1987,902,770,119,Sold,,,http://www.redfin.com/CA/Foster-City/730-Tender-Ln-94404/home/2049022,MLSListings,ML81498708,N,Y,37.5428398,-122.257036
PAST SALE,July-21-2016,Condo/Co-op,1067 Shell Blvd #7,FOSTER CITY,CA,94404,575000,1,1.0,FOSTER CITY,760,,1973,558,757,470,Sold,,,http://www.redfin.com/CA/Foster-City/1067-Shell-Blvd-94404/unit-7/home/1508701,MLSListings,ML81589577,N,Y,37.5495046,-122.2632462
PAST SALE,June-2-2015,Condo/Co-op,1049 Shell Blvd #6,FOSTER CITY,CA,94404,710000,2,2.0,FOSTER CITY,1042,,1972,973,681,470,Sold,,,http://www.redfin.com/CA/Foster-City/1049-Shell-Blvd-94404/unit-6/home/1949039,MLSListings,ML81462504,N,Y,37.5497414,-122.2632653
PAST SALE,September-9-2016,Single Family Residential,1129 Blythe St,FOSTER CITY,CA,94404,1500000,3,2.0,FOSTER CITY,2030,5501,1978,508,739,,Sold,,,http://www.redfin.com/CA/Foster-City/1129-Blythe-St-94404/home/2017857,MLSListings,ML81595305,N,Y,37.5454662,-122.2644521
PAST SALE,,Townhouse,1121 Forrestal Ln,Foster City,CA,94404,1088000,3,2.5,,1700,1925,1975,,640,,,,,http://www.redfin.com/CA/Foster-City/1121-Forrestal-Ln-94404/home/2056653,,,N,Y,37.547884,-122.262491
PAST SALE,May-29-2015,Townhouse,819 Spruance Ln,FOSTER CITY,CA,94404,1100000,3,2.0,FOSTER CITY,1530,2560,1975,977,719,365,Sold,,,http://www.redfin.com/CA/Foster-City/819-Spruance-Ln-94404/home/1101786,MLSListings,ML81462748,N,Y,37.548029,-122.263732
PAST SALE,November-23-2016,Townhouse,1138 Nimitz Ln,FOSTER CITY,CA,94404,1300000,3,2.5,FOSTER CITY,1700,1925,1975,433,765,370,Sold,,,http://www.redfin.com/CA/Foster-City/1138-Nimitz-Ln-94404/home/2041497,MLSListings,ML81628662,N,Y,37.544475,-122.26272
PAST SALE,July-20-2016,Single Family Residential,904 Aruba Ln,FOSTER CITY,CA,94404,2700000,4,2.5,FOSTER CITY,2630,6250,1978,559,1027,276,Sold,,,http://www.redfin.com/CA/Foster-City/904-Aruba-Ln-94404/home/1553879,MLSListings,ML81591834,N,Y,37.545621,-122.259342
PAST SALE,October-28-2016,Townhouse,707 Radford Ln,FOSTER CITY,CA,94404,1253888,3,2.0,FOSTER CITY,1350,2770,1975,459,929,370,Sold,,,http://www.redfin.com/CA/Foster-City/707-Radford-Ln-94404/home/1308964,MLSListings,ML81625561,N,Y,37.54418,-122.263205
PAST SALE,August-6-2015,Townhouse,1112 Sprague Ln,FOSTER CITY,CA,94404,1110000,3,2.5,FOSTER CITY,1700,1925,1975,908,653,365,Sold,,,http://www.redfin.com/CA/Foster-City/1112-Sprague-Ln-94404/home/935797,MLSListings,ML81469879,N,Y,37.547961,-122.261316
PAST SALE,October-14-2015,Townhouse,1111 Nimitz Ln,FOSTER CITY,CA,94404,1310000,3,2.0,FOSTER CITY,1350,2772,1975,839,970,365,Sold,,,http://www.redfin.com/CA/Foster-City/1111-Nimitz-Ln-94404/home/1062356,MLSListings,ML81516228,N,Y,37.545799,-122.263385
PAST SALE,May-19-2015,Townhouse,1170 Rickover Ln,FOSTER CITY,CA,94404,1070000,3,2.0,FOSTER CITY,1350,2772,1975,987,793,365,Sold,,,http://www.redfin.com/CA/Foster-City/1170-Rickover-Ln-94404/home/1651527,MLSListings,ML81459530,N,Y,37.5443119,-122.2639769
PAST SALE,September-13-2016,Townhouse,1136 Nimitz Ln,FOSTER CITY,CA,94404,1200000,3,2.0,FOSTER CITY,1530,2465,1975,504,784,370,Sold,,,http://www.redfin.com/CA/Foster-City/1136-Nimitz-Ln-94404/home/1610592,MLSListings,ML81598388,N,Y,37.544517,-122.26282
PAST SALE,September-28-2015,Townhouse,815 Spruance Ln,FOSTER CITY,CA,94404,1350000,4,2.5,FOSTER CITY,1880,2000,1975,855,718,365,Sold,,,http://www.redfin.com/CA/Foster-City/815-Spruance-Ln-94404/home/1858112,MLSListings,ML81500121,N,Y,37.547888,-122.26374
PAST SALE,October-22-2015,Single Family Residential,797 Pitcairn Dr,FOSTER CITY,CA,94404,1825000,4,2.5,FOSTER CITY,2070,6593,1977,831,882,286,Sold,,,http://www.redfin.com/CA/Foster-City/797-Pitcairn-Dr-94404/home/1943782,MLSListings,ML81515387,N,Y,37.5444326,-122.260011
PAST SALE,January-26-2017,Townhouse,1037 Grebe St,FOSTER CITY,CA,94404,1180000,3,2.5,FOSTER CITY,1460,1757,1970,369,808,235,Sold,,,http://www.redfin.com/CA/Foster-City/1037-Grebe-St-94404/home/1992441,MLSListings,ML81633603,N,Y,37.564212,-122.25296
PAST SALE,July-7-2015,Single Family Residential,1351 Tarpon St,FOSTER CITY,CA,94404,1388000,4,2.5,FOSTER CITY,2160,5225,1966,938,643,,Sold,,,http://www.redfin.com/CA/Foster-City/1351-Tarpon-St-94404/home/931738,MLSListings,ML81468154,N,Y,37.5605383,-122.2517083
PAST SALE,December-3-2015,Single Family Residential,265 Curlew Ct,FOSTER CITY,CA,94404,1540000,4,3.0,FOSTER CITY,2450,7220,1965,789,629,,Sold,,,http://www.redfin.com/CA/Foster-City/265-Curlew-Ct-94404/home/2012261,MLSListings,ML81514993,N,Y,37.5706895,-122.2628021
PAST SALE,September-1-2016,Townhouse,245 Bonita Ln,FOSTER CITY,CA,94404,1090000,3,2.5,FOSTER CITY,1630,1441,1985,516,669,401,Sold,,,http://www.redfin.com/CA/Foster-City/245-Bonita-Ln-94404/home/939651,MLSListings,ML81597839,N,Y,37.559335,-122.250167
PAST SALE,March-10-2016,Single Family Residential,842 Lurline,FOSTER CITY,CA,94404,1485000,4,2.0,FOSTER CITY,1760,6080,1964,691,844,,Sold,,,http://www.redfin.com/CA/Foster-City/842-Lurline-Dr-94404/home/927068,MLSListings,ML81548816,N,Y,37.560286,-122.2582405
PAST SALE,September-7-2016,Single Family Residential,142 Shooting Star Isle,FOSTER CITY,CA,94404,1600000,4,2.5,FOSTER CITY,2380,7810,1965,510,672,,Sold,,,http://www.redfin.com/CA/Foster-City/142-Shooting-Star-Isle-94404/home/1233714,MLSListings,ML81592020,Y,Y,37.5586268,-122.2571238
PAST SALE,July-22-2016,Single Family Residential,1110 Flying Fish St,FOSTER CITY,CA,94404,1602000,4,2.5,FOSTER CITY,2320,7686,1973,557,691,,Sold,,,http://www.redfin.com/CA/Foster-City/1110-Flying-Fish-St-94404/home/932418,MLSListings,ML81589237,Y,Y,37.5606947,-122.2545683
PAST SALE,September-6-2016,Single Family Residential,854 Lurline Dr,FOSTER CITY,CA,94404,1450000,4,2.0,FOSTER CITY,1670,5702,1964,511,868,,Sold,,,http://www.redfin.com/CA/Foster-City/854-Lurline-Dr-94404/home/2009746,MLSListings,ML81600383,N,Y,37.5599379,-122.2581594
PAST SALE,April-22-2016,Single Family Residential,1150 Flying Fish St,FOSTER CITY,CA,94404,1700000,4,2.5,FOSTER CITY,2380,7686,1973,648,714,,Sold,,,http://www.redfin.com/CA/Foster-City/1150-Flying-Fish-St-94404/home/1810124,MLSListings,ML81565894,N,Y,37.5600334,-122.2544374
PAST SALE,March-13-2015,Single Family Residential,1283 Beach Park Blvd,FOSTER CITY,CA,94404,1302000,3,2.0,FOSTER CITY,1600,5225,1967,1054,814,,Sold,,,http://www.redfin.com/CA/Foster-City/1283-Beach-Park-Blvd-94404/home/2058295,MLSListings,ML81449662,N,Y,37.5565693,-122.2483714
PAST SALE,June-8-2015,Single Family Residential,1159 Flying Fish,FOSTER CITY,CA,94404,1610000,4,3.0,FOSTER CITY,2250,5208,1966,967,716,,Sold,,,http://www.redfin.com/CA/Foster-City/1159-Flying-Fish-St-94404/home/932438,MLSListings,ML81461678,N,Y,37.5600223,-122.2538955
PAST SALE,November-25-2015,Single Family Residential,109 Flying Mist Isle,FOSTER CITY,CA,94404,1860000,4,2.5,FOSTER CITY,2550,6323,1973,797,729,,Sold,,,http://www.redfin.com/CA/Foster-City/109-Flying-Mist-Isle-94404/home/1576228,MLSListings,ML81514351,N,Y,37.5636451,-122.2588701
PAST SALE,March-18-2016,Single Family Residential,892 Constitution Dr,FOSTER CITY,CA,94404,1390000,3,2.0,FOSTER CITY,1540,7152,1965,683,903,,Sold,,,http://www.redfin.com/CA/Foster-City/892-Constitution-Dr-94404/home/928598,MLSListings,ML81545282,N,Y,37.5588912,-122.2589593
PAST SALE,November-9-2016,Condo/Co-op,174 Albacore Ln #202,FOSTER CITY,CA,94404,790000,2,2.0,FOSTER CITY,1116,4142,1987,447,708,340,Sold,,,http://www.redfin.com/CA/Foster-City/174-Albacore-Ln-94404/unit-C-202/home/1261814,MLSListings,ML81626015,N,Y,37.5602123,-122.2509034
PAST SALE,October-11-2016,Single Family Residential,1016 Flying Fish St,FOSTER CITY,CA,94404,3008500,5,4.5,FOSTER CITY,4014,7686,1973,476,750,,Sold,,,http://www.redfin.com/CA/Foster-City/1016-Flying-Fish-St-94404/home/1851843,MLSListings,ML81595116,N,Y,37.5627431,-122.2554393
PAST SALE,September-23-2016,Single Family Residential,223 Killdeer Ct,FOSTER CITY,CA,94404,1560000,4,3.0,FOSTER CITY,2450,5941,1965,494,637,,Sold,,,http://www.redfin.com/CA/Foster-City/223-Killdeer-Ct-94404/home/930853,MLSListings,ML81598204,Y,Y,37.5685813,-122.2611296
PAST SALE,October-28-2016,Single Family Residential,1771 Beach Park Blvd,FOSTER CITY,CA,94404,1600000,4,2.5,FOSTER CITY,2265,5222,1969,459,706,,Sold,,,http://www.redfin.com/CA/Foster-City/1771-Beach-Park-Blvd-94404/home/1390735,MLSListings,ML81596733,N,Y,37.5694646,-122.2564575
PAST SALE,June-9-2015,Townhouse,1070 Gull Ave,FOSTER CITY,CA,94404,926000,2,2.5,FOSTER CITY,1290,1757,1970,966,718,235,Sold,,,http://www.redfin.com/CA/Foster-City/1070-Gull-Ave-94404/home/2012273,MLSListings,ML81461980,N,Y,37.565466,-122.252097
PAST SALE,April-1-2016,Single Family Residential,1047 Gull Ave,FOSTER CITY,CA,94404,1287000,4,3.0,FOSTER CITY,1630,6268,1966,669,790,,Sold,,,http://www.redfin.com/CA/Foster-City/1047-Gull-Ave-94404/home/2058292,MLSListings,ML81550478,N,Y,37.5655195,-122.2530984
PAST SALE,July-26-2016,Single Family Residential,880 Sea Island Ln,FOSTER CITY,CA,94404,2000000,5,4.5,FOSTER CITY,3210,6272,1998,553,623,60,Sold,,,http://www.redfin.com/CA/Foster-City/880-Sea-Island-Ln-94404/home/1865561,MLSListings,ML81584085,N,Y,37.5658149,-122.2523532
PAST SALE,November-4-2016,Condo/Co-op,815 Sea Spray Ln #202,FOSTER CITY,CA,94404,858000,3,2.0,FOSTER CITY,1500,,1981,452,572,510,Sold,,,http://www.redfin.com/CA/Foster-City/815-Sea-Spray-Ln-94404/unit-202/home/984040,MLSListings,ML81613758,N,Y,37.553696,-122.281415
PAST SALE,June-2-2015,Single Family Residential,272 Puffin Ct,FOSTER CITY,CA,94404,1610000,4,3.0,FOSTER CITY,2250,5719,1965,973,716,,Sold,,,http://www.redfin.com/CA/Foster-City/272-Puffin-Ct-94404/home/1711094,MLSListings,ML81455617,N,Y,37.5699604,-122.2588142
PAST SALE,April-20-2016,Condo/Co-op,680 Portofino Ln,FOSTER CITY,CA,94404,1050000,2,2.0,FOSTER CITY,1490,,1975,650,705,688,Sold,,,http://www.redfin.com/CA/Foster-City/680-Portofino-Ln-94404/unit-16/home/1519703,MLSListings,ML81577044,N,Y,37.5523499,-122.271969
PAST SALE,,Townhouse,206 Town Green Ln,Foster City,CA,94404,391500,2,3.0,,1460,1060,1997,,268,,,,,http://www.redfin.com/CA/Foster-City/206-Town-Green-Ln-94404/home/936724,,,N,Y,37.5570641,-122.2767152
PAST SALE,October-15-2015,Single Family Residential,750 Gull Ave,FOSTER CITY,CA,94404,1295000,3,2.0,FOSTER CITY,1570,6674,1965,838,825,,Sold,,,http://www.redfin.com/CA/Foster-City/750-Gull-Ave-94404/home/1101581,MLSListings,ML81512821,N,Y,37.5677021,-122.2624231
PAST SALE,November-8-2016,Townhouse,706 Zumwalt Ln,FOSTER CITY,CA,94404,1502000,3,2.0,FOSTER CITY,1530,2816,1975,448,982,375,Sold,,,http://www.redfin.com/CA/Foster-City/706-Zumwalt-Ln-94404/home/1803691,MLSListings,ML81631362,N,Y,37.54353,-122.2643796
PAST SALE,,Townhouse,1115 Sprague Ln,Foster City,CA,94404,1080000,3,2.0,,1530,2464,1975,,706,,,,,http://www.redfin.com/CA/Foster-City/1115-Sprague-Ln-94404/home/935857,,,N,Y,37.54788,-122.260738
PAST SALE,September-1-2016,Condo/Co-op,1083 Shell Blvd #3,FOSTER CITY,CA,94404,565000,1,1.0,FOSTER CITY,748,,1973,516,755,470,Sold,,,http://www.redfin.com/CA/Foster-City/1083-Shell-Blvd-94404/unit-3/home/1224018,MLSListings,ML81595980,N,Y,37.5492212,-122.2636016
PAST SALE,August-11-2016,Condo/Co-op,1171 Compass Ln #306,FOSTER CITY,CA,94404,825000,2,2.0,FOSTER CITY,1286,,1976,537,642,499,Sold,,,http://www.redfin.com/CA/Foster-City/1171-Compass-Ln-94404/unit-306/home/970842,MLSListings,ML81587366,N,Y,37.5498927,-122.2545987
PAST SALE,July-17-2015,Condo/Co-op,1025 Shell Boulevard #7,FOSTER CITY,CA,94404,751000,2,2.0,FOSTER CITY,1042,,1972,928,721,470,Sold,,,http://www.redfin.com/CA/Foster-City/1025-Shell-Blvd-94404/unit-7/home/967257,MLSListings,ML81469633,N,Y,37.5505865,-122.2630213
PAST SALE,April-24-2015,Condo/Co-op,1151 Compass Ln #212,FOSTER CITY,CA,94404,740000,2,2.0,FOSTER CITY,1349,,1976,1012,549,500,Sold,,,http://www.redfin.com/CA/Foster-City/1151-Compass-Ln-94404/unit-212/home/1558860,MLSListings,ML81457231,N,Y,37.5502383,-122.2544217
PAST SALE,February-2-2016,Condo/Co-op,1033 SHELL Blvd #3,FOSTER CITY,CA,94404,558888,1,1.0,FOSTER CITY,798,,1973,728,700,470,Sold,,,http://www.redfin.com/CA/Foster-City/1033-Shell-Blvd-94404/unit-3/home/1921944,MLSListings,ML81534118,N,Y,37.5503498,-122.2632798
PAST SALE,October-7-2015,Townhouse,776 Celestial Ln,FOSTER CITY,CA,94404,1030000,3,2.5,FOSTER CITY,1430,1890,1974,846,720,340,Sold,,,http://www.redfin.com/CA/Foster-City/776-Celestial-Ln-94404/home/1569078,MLSListings,ML81512235,N,Y,37.551076,-122.27995
PAST SALE,April-3-2015,Townhouse,811 Perseus Ln,FOSTER CITY,CA,94404,845000,2,2.5,FOSTER CITY,1196,1200,1973,1033,707,458,Sold,,,http://www.redfin.com/CA/Foster-City/811-Perseus-Ln-94404/home/2032986,MLSListings,ML81451331,N,Y,37.5504425,-122.2737943
PAST SALE,July-10-2015,Single Family Residential,171 Port Royal Ave,FOSTER CITY,CA,94404,1748000,4,3.0,FOSTER CITY,2430,6216,1981,935,719,,Sold,,,http://www.redfin.com/CA/Foster-City/171-Port-Royal-Ave-94404/home/1418561,MLSListings,ML81467813,N,Y,37.5375916,-122.2776611
PAST SALE,July-7-2015,Single Family Residential,1186 Essex Ln,FOSTER CITY,CA,94404,1875000,3,2.0,FOSTER CITY,1940,4960,1977,938,966,233,Sold,,,http://www.redfin.com/CA/Foster-City/Essex-Ln-94404/home/1334995,MLSListings,ML81467605,N,Y,37.5439792,-122.2656754
PAST SALE,November-10-2015,Townhouse,1109 Lord Ivelson Ln,FOSTER CITY,CA,94404,1150000,3,2.0,FOSTER CITY,1350,2772,1975,812,852,365,Sold,,,http://www.redfin.com/CA/Foster-City/1109-Lord-Ivelson-Ln-94404/home/1803697,MLSListings,ML81514727,N,Y,37.547813,-122.261671
PAST SALE,June-30-2015,Condo/Co-op,1061 Beach Park Blvd #307,FOSTER CITY,CA,94404,752000,2,2.0,FOSTER CITY,1286,99,1973,945,585,499,Sold,,,http://www.redfin.com/CA/Foster-City/1061-Beach-Park-Blvd-94404/unit-307/home/1437972,MLSListings,ML81467811,N,Y,37.5505114,-122.2530553
PAST SALE,,Townhouse,880 Ursa Ln,Foster City,CA,94404,950000,3,2.0,,1546,46952,1978,,614,,,,,http://www.redfin.com/CA/Foster-City/880-Ursa-Ln-94404/home/971573,,,N,Y,37.546341,-122.272124
PAST SALE,September-21-2015,Townhouse,215 Village Ln,FOSTER CITY,CA,94404,1220000,4,3.0,FOSTER CITY,1850,1134,1996,862,659,220,Sold,,,http://www.redfin.com/CA/Foster-City/215-Village-Ln-94404/home/1251664,MLSListings,ML81500928,N,Y,37.55776,-122.275237
PAST SALE,October-15-2015,Single Family Residential,220 Pelican Ct,FOSTER CITY,CA,94404,1575000,5,3.0,FOSTER CITY,2540,5785,1965,838,620,,Sold,,,http://www.redfin.com/CA/Foster-City/220-Pelican-Ct-94404/home/931367,MLSListings,ML81512109,N,Y,37.5689406,-122.2569473
PAST SALE,September-30-2016,Townhouse,1102 Balclutha Dr,FOSTER CITY,CA,94404,923000,2,2.5,FOSTER CITY,1340,997,1987,487,689,400,Sold,,,http://www.redfin.com/CA/Foster-City/1102-Balclutha-Dr-94404/home/1663610,MLSListings,ML81598521,N,Y,37.559774,-122.26527
PAST SALE,October-21-2016,Townhouse,226 Commons Ln,FOSTER CITY,CA,94404,1091000,2,2.0,FOSTER CITY,1500,919,1987,466,727,280,Sold,,,http://www.redfin.com/CA/Foster-City/226-Commons-Ln-94404/home/1399505,MLSListings,ML81613861,N,Y,37.556797,-122.277267
PAST SALE,June-20-2016,Townhouse,347 Catamaran St,FOSTER CITY,CA,94404,980000,3,2.5,FOSTER CITY,1340,1938,1974,589,731,324,Sold,,,http://www.redfin.com/CA/Foster-City/347-Catamaran-St-94404/home/1696285,MLSListings,ML81585625,N,Y,37.5489601,-122.2681748
PAST SALE,September-24-2016,Condo/Co-op,1051 Beach Park Blvd #211,FOSTER CITY,CA,94404,825000,2,2.0,FOSTER CITY,1349,,1976,493,612,497,Sold,,,http://www.redfin.com/CA/Foster-City/1051-Beach-Park-Blvd-94404/unit-211/home/113738788,MLSListings,ML81600927,N,Y,37.5497512,-122.2532154
PAST SALE,November-13-2015,Condo/Co-op,4218 Admiralty Ln,FOSTER CITY,CA,94404,592000,2,1.5,FOSTER CITY,998,,1965,809,593,641,Sold,,,http://www.redfin.com/CA/Foster-City/4218-Admiralty-Ln-94404/home/1839947,MLSListings,ML81516878,N,Y,37.561437,-122.267213
PAST SALE,September-11-2015,Condo/Co-op,1049 Shell Blvd #11,FOSTER CITY,CA,94404,600000,1,1.0,FOSTER CITY,760,,1973,872,789,470,Sold,,,http://www.redfin.com/CA/Foster-City/1049-Shell-Blvd-94404/unit-11/home/1697196,MLSListings,ML81499199,N,Y,37.5497414,-122.2632653
PAST SALE,December-11-2015,Single Family Residential,1017 Flying Fish St,FOSTER CITY,CA,94404,1560000,5,3.0,FOSTER CITY,2690,5734,1969,781,580,,Sold,,,http://www.redfin.com/CA/Foster-City/1017-Flying-Fish-St-94404/home/1803580,MLSListings,ML81519555,N,Y,37.5629636,-122.2549794
PAST SALE,July-8-2016,Single Family Residential,1260 Ribbon St,FOSTER CITY,CA,94404,1525000,5,2.0,FOSTER CITY,2010,5222,1966,571,759,,Sold,,,http://www.redfin.com/CA/Foster-City/1260-Ribbon-St-94404/home/929169,MLSListings,ML81583031,N,Y,37.5615965,-122.2499223
PAST SALE,January-28-2016,Townhouse,1072 Eagle Ln,FOSTER CITY,CA,94404,1008888,3,2.5,FOSTER CITY,1670,1777,1971,733,604,420,Sold,,,http://www.redfin.com/CA/Foster-City/1072-Eagle-Ln-94404/home/1669056,MLSListings,ML81521931,N,Y,37.562875,-122.254447
PAST SALE,February-8-2016,Single Family Residential,659 Crane Ave,FOSTER CITY,CA,94404,1600000,4,2.0,FOSTER CITY,1810,7600,1965,722,884,,Sold,,,http://www.redfin.com/CA/Foster-City/659-Crane-Ave-94404/home/1768744,MLSListings,ML81547106,N,Y,37.5701232,-122.262322
PAST SALE,November-10-2015,Townhouse,1014 Gull Ave,FOSTER CITY,CA,94404,1002000,3,2.5,FOSTER CITY,1460,1757,1970,812,686,230,Sold,,,http://www.redfin.com/CA/Foster-City/1014-Gull-Ave-94404/home/2039620,MLSListings,ML81516341,N,Y,37.564883,-122.253325
PAST SALE,July-25-2016,Single Family Residential,683 Pilgrim Dr,FOSTER CITY,CA,94404,1750000,5,3.0,FOSTER CITY,2540,6242,1966,554,689,,Sold,,,http://www.redfin.com/CA/Foster-City/683-Pilgrim-Dr-94404/home/1125948,MLSListings,ML81591030,Y,Y,37.5621606,-122.2644349
PAST SALE,,Single Family Residential,351 Dolphin Isle,Foster City,CA,94404,2300000,4,2.0,,2488,7137,1973,,924,,,,,http://www.redfin.com/CA/Foster-City/351-Dolphin-Isle-94404/home/1380216,,,N,Y,37.5612792,-122.2558109
PAST SALE,November-10-2016,Single Family Residential,19 Williams Ln,FOSTER CITY,CA,94404,1350000,3,2.5,FOSTER CITY,1670,3380,1986,446,808,494,Sold,,,http://www.redfin.com/CA/Foster-City/19-Williams-Ln-94404/home/946954,MLSListings,ML81626688,N,Y,37.5346456,-122.2700707
PAST SALE,May-19-2015,Townhouse,801 Norma Ln,FOSTER CITY,CA,94404,840000,2,2.0,FOSTER CITY,1196,,1973,987,702,454,Sold,,,http://www.redfin.com/CA/Foster-City/801-Norma-Ln-94404/home/1858720,MLSListings,ML81458199,N,Y,37.5487545,-122.2740047
PAST SALE,,Townhouse,746 Apollo Ln,Foster City,CA,94404,318500,3,2.0,,1470,1750,1972,,217,,,,,http://www.redfin.com/CA/Foster-City/746-Apollo-Ln-94404/home/1543234,,,N,Y,37.551342,-122.275668
PAST SALE,September-30-2015,Townhouse,878 Carina Ln,FOSTER CITY,CA,94404,938000,3,2.5,FOSTER CITY,1546,1759,1977,853,607,454,Sold,,,http://www.redfin.com/CA/Foster-City/878-Carina-Ln-94404/home/1127179,MLSListings,ML81459945,N,Y,37.54658,-122.271391
PAST SALE,,Single Family Residential,12 Commons Ln,Foster City,CA,94404,500000,2,2.0,,1410,960,1987,,355,,,,,http://www.redfin.com/CA/Foster-City/12-Commons-Ln-94404/home/1269963,,,N,Y,37.556235,-122.277255
PAST SALE,December-16-2016,Single Family Residential,160 Mira St,FOSTER CITY,CA,94404,1755000,4,2.5,FOSTER CITY,2000,5320,1969,410,878,,Sold,,,http://www.redfin.com/CA/Foster-City/160-Mira-St-94404/home/1701752,MLSListings,ML81631001,N,Y,37.5473889,-122.2784925
PAST SALE,September-1-2015,Single Family Residential,626 Greenwich Ln,FOSTER CITY,CA,94404,2000000,4,2.5,FOSTER CITY,2540,6095,1977,882,787,212,Sold,,,http://www.redfin.com/CA/Foster-City/626-Greenwich-Ln-94404/home/937881,MLSListings,ML81497853,N,Y,37.5437644,-122.2674799
PAST SALE,,Condo/Co-op,1191 Compass Ln Apt 106,Foster City,CA,94404,804000,2,2.0,,1349,,1976,,596,,,,,http://www.redfin.com/CA/Foster-City/1191-Compass-Ln-94404/unit-106/home/972232,,,N,Y,37.5491339,-122.2542584
PAST SALE,July-24-2015,Single Family Residential,501 Drake Ct,FOSTER CITY,CA,94404,1650000,4,2.5,FOSTER CITY,2400,7437,1978,921,688,,Sold,,,http://www.redfin.com/CA/Foster-City/501-Drake-Ct-94404/home/933365,MLSListings,ML81468819,N,Y,37.5424194,-122.2714928
PAST SALE,June-14-2016,Townhouse,809 1/2 Juno Ln,FOSTER CITY,CA,94404,1000000,3,1.5,FOSTER CITY,1296,384203,1973,595,772,453,Sold,,,http://www.redfin.com/CA/Foster-City/809-Juno-Ln-94404/home/1635535,MLSListings,ML81582587,N,Y,37.550471,-122.2729898
PAST SALE,February-28-2017,Condo/Co-op,846 Balboa Ln,FOSTER CITY,CA,94404,1025000,2,2.0,FOSTER CITY,1395,,1975,336,735,683,Sold,,,http://www.redfin.com/CA/Foster-City/846-Balboa-Ln-94404/unit-62/home/1646174,MLSListings,ML81635416,N,Y,37.552816,-122.270788
PAST SALE,August-17-2015,Condo/Co-op,6212 Admiralty Ln,Foster City,CA,94404,502000,2,2.0,Foster City,998,,1965,897,503,641,Sold,,,http://www.redfin.com/CA/Foster-City/6212-Admiralty-Ln-94404/home/1158145,San Francisco MLS,435237,N,Y,37.5606899,-122.2668688
PAST SALE,,Townhouse,2204 Admiralty Ln,Foster City,CA,94404,785000,3,2.0,,1505,432988,1965,,522,,,,,http://www.redfin.com/CA/Foster-City/2204-Admiralty-Ln-94404/home/1392794,,,N,Y,37.561437,-122.267213
PAST SALE,December-1-2015,Condo/Co-op,6203 Admiralty Ln,FOSTER CITY,CA,94404,580000,2,1.5,FOSTER CITY,998,,1965,791,581,640,Sold,,,http://www.redfin.com/CA/Foster-City/6203-Admiralty-Ln-94404/home/999496,MLSListings,ML81496979,N,Y,37.561437,-122.267213
PAST SALE,April-28-2017,Townhouse,1056 Rudder Ln,FOSTER CITY,CA,94404,1250000,2,2.5,FOSTER CITY,1420,1173,1990,277,880,435,Sold,,,http://www.redfin.com/CA/Foster-City/1056-Rudder-Ln-94404/home/1679486,MLSListings,ML81649056,N,Y,37.546429,-122.25478
PAST SALE,October-30-2017,Single Family Residential,1905 Beach Park Blvd,FOSTER CITY,CA,94404,1580000,4,2.0,FOSTER CITY,1810,5225,1965,92,873,,Sold,,,http://www.redfin.com/CA/Foster-City/1905-Beach-Park-Blvd-94404/home/1618463,MLSListings,ML81679589,N,Y,37.5712382,-122.2620394
PAST SALE,,Single Family Residential,685 Pilgrim Dr,Foster City,CA,94404,1100000,3,2.0,,1840,5700,1966,,598,,,,,http://www.redfin.com/CA/Foster-City/685-Pilgrim-Dr-94404/home/1831794,,,N,Y,37.5619936,-122.264554
PAST SALE,September-30-2015,Single Family Residential,301 Sea Horse Ct,FOSTER CITY,CA,94404,1625000,4,3.0,FOSTER CITY,2250,6175,1966,853,722,,Sold,,,http://www.redfin.com/CA/Foster-City/301-Sea-Horse-Ct-94404/home/2020564,MLSListings,ML81501405,N,Y,37.5576325,-122.2513242
PAST SALE,October-5-2016,Single Family Residential,697 Sandy Hook Ct,FOSTER CITY,CA,94404,2030000,5,2.5,FOSTER CITY,2680,10132,1973,482,757,,Sold,,,http://www.redfin.com/CA/Foster-City/697-Sandy-Hook-Ct-94404/home/1163957,MLSListings,ML81599649,Y,Y,37.5392504,-122.2719709
PAST SALE,January-28-2016,Condo/Co-op,860 Meridian Bay Ln #231,FOSTER CITY,CA,94404,860000,2,2.0,FOSTER CITY,1350,,1999,733,637,599,Sold,,,http://www.redfin.com/CA/Foster-City/860-Meridian-Bay-Ln-94404/unit-231/home/994814,MLSListings,ML81533635,N,Y,37.553985,-122.278843
PAST SALE,July-19-2016,Condo/Co-op,815 Sea Spray Ln #303,FOSTER CITY,CA,94404,908000,2,2.0,FOSTER CITY,1233,,1981,560,736,510,Sold,,,http://www.redfin.com/CA/Foster-City/815-Sea-Spray-Ln-94404/unit-303/home/982214,MLSListings,ML81589864,N,Y,37.553696,-122.281415
PAST SALE,September-3-2016,Townhouse,212 Commons Ln,FOSTER CITY,CA,94404,995000,2,2.0,FOSTER CITY,1500,919,1987,514,663,280,Sold,,,http://www.redfin.com/CA/Foster-City/212-Commons-Ln-94404/home/2051615,MLSListings,ML81592685,N,Y,37.556207,-122.278176
PAST SALE,February-20-2015,Condo/Co-op,840 SEA SPRAY Ln #103,Foster City,CA,94404,740000,2,2.0,Spinnaker Cove,1233,,1981,1075,600,510,Sold,,,http://www.redfin.com/CA/Foster-City/840-Sea-Spray-Ln-94404/unit-103/home/1627875,MLSListings,ML81438373,N,Y,37.5539293,-122.2803461
PAST SALE,April-22-2016,Single Family Residential,523 Pitcairn Dr,FOSTER CITY,CA,94404,1350000,3,2.5,FOSTER CITY,1880,4600,1976,648,718,162,Sold,,,http://www.redfin.com/CA/Foster-City/523-Pitcairn-Dr-94404/home/1937646,MLSListings,ML81563929,N,Y,37.5395718,-122.266237
PAST SALE,May-5-2015,Single Family Residential,833 Marlin Ave,FOSTER CITY,CA,94404,1335000,3,2.0,FOSTER CITY,1600,5664,1967,1001,834,,Sold,,,http://www.redfin.com/CA/Foster-City/833-Marlin-Ave-94404/home/2039624,MLSListings,ML81459067,N,Y,37.5562573,-122.2541913
PAST SALE,October-12-2016,Single Family Residential,1187 Beach Park Blvd,FOSTER CITY,CA,94404,1450000,3,2.0,FOSTER CITY,1600,7139,1968,475,906,,Sold,,,http://www.redfin.com/CA/Foster-City/1187-Beach-Park-Blvd-94404/home/933290,MLSListings,ML81611949,Y,Y,37.5532666,-122.2499781
PAST SALE,December-20-2016,Single Family Residential,374 Menhaden Ct,FOSTER CITY,CA,94404,1570000,4,3.0,FOSTER CITY,2020,5702,1967,406,777,,Sold,,,http://www.redfin.com/CA/Foster-City/374-Menhaden-Ct-94404/home/1877274,MLSListings,ML81631038,N,Y,37.5562034,-122.2488407
PAST SALE,March-16-2016,Townhouse,865 Cabot Ln,FOSTER CITY,CA,94404,1115000,3,2.5,FOSTER CITY,1380,1393,1974,685,808,175,Sold,,,http://www.redfin.com/CA/Foster-City/865-Cabot-Ln-94404/home/1472062,MLSListings,ML81548752,N,Y,37.5504898,-122.267199
PAST SALE,,Single Family Residential,1460 Schooner St,Foster City,CA,94404,1418000,3,2.0,,2070,6650,1969,,685,,,,,http://www.redfin.com/CA/Foster-City/1460-Schooner-St-94404/home/1325583,,,N,Y,37.5496923,-122.2557358
PAST SALE,,Single Family Residential,845 Cabot Ln,Foster City,CA,94404,1000000,3,2.0,,1640,1595,1974,,610,,,,,http://www.redfin.com/CA/Foster-City/845-Cabot-Ln-94404/home/1507959,,,N,Y,37.5509268,-122.2677994
PAST SALE,July-15-2016,Single Family Residential,160 Sloop Ct,FOSTER CITY,CA,94404,1715000,5,3.0,FOSTER CITY,2560,5540,1969,564,670,,Sold,,,http://www.redfin.com/CA/Foster-City/160-Sloop-Ct-94404/home/1270034,MLSListings,ML81588485,Y,Y,37.5512369,-122.2571361
PAST SALE,February-10-2015,Single Family Residential,703 San Miguel Ln,FOSTER CITY,CA,94404,2250000,4,3.0,FOSTER CITY,2620,13200,1977,1085,859,286,Sold,,,http://www.redfin.com/CA/Foster-City/703-San-Miguel-Ln-94404/home/1719609,MLSListings,ML81447801,N,Y,37.5436171,-122.2607111
PAST SALE,December-28-2016,Single Family Residential,957 Crane Ave,FOSTER CITY,CA,94404,1495000,5,2.0,FOSTER CITY,1930,5225,1965,398,775,,Sold,,,http://www.redfin.com/CA/Foster-City/957-Crane-Ave-94404/home/1113348,MLSListings,ML81632933,N,Y,37.5668266,-122.2537521
PAST SALE,May-16-2016,Condo/Co-op,800 Sea Spray Ln #204,FOSTER CITY,CA,94404,860000,2,2.0,FOSTER CITY,1233,40741,1984,624,697,530,Sold,,,http://www.redfin.com/CA/Foster-City/800-Sea-Spray-Ln-94404/unit-204/home/1976544,MLSListings,ML81579266,N,Y,37.5528449,-122.280676
PAST SALE,December-15-2016,Condo/Co-op,800 Sea Spray Ln #208,FOSTER CITY,CA,94404,775000,2,2.0,FOSTER CITY,1233,,1984,411,629,510,Sold,,,http://www.redfin.com/CA/Foster-City/800-Sea-Spray-Ln-94404/unit-208/home/1888474,MLSListings,ML81625533,N,Y,37.5528449,-122.280676
PAST SALE,June-2-2015,Townhouse,616 Aquarius Ln,FOSTER CITY,CA,94404,1200000,4,2.5,FOSTER CITY,1700,1890,1973,973,706,340,Sold,,,http://www.redfin.com/CA/Foster-City/616-Aquarius-Ln-94404/home/1980691,MLSListings,ML81460346,N,Y,37.5492149,-122.281875
PAST SALE,November-10-2016,Condo/Co-op,880 Meridian Bay Ln #316,FOSTER CITY,CA,94404,875000,2,2.0,FOSTER CITY,1350,,1998,446,648,609,Sold,,,http://www.redfin.com/CA/Foster-City/880-Meridian-Bay-Ln-94404/unit-316/home/1671202,MLSListings,ML81626455,N,Y,37.554083,-122.27858
PAST SALE,October-14-2016,Townhouse,232 Beach Park Blvd,FOSTER CITY,CA,94404,1300000,3,2.0,FOSTER CITY,1370,2922,1974,473,949,350,Sold,,,http://www.redfin.com/CA/Foster-City/232-Beach-Park-Blvd-94404/home/2020591,MLSListings,ML81613202,Y,Y,37.545184,-122.278106
PAST SALE,August-24-2016,Single Family Residential,931 Lurline Dr,FOSTER CITY,CA,94404,2080000,5,3.0,FOSTER CITY,2230,8581,1965,524,933,,Sold,,,http://www.redfin.com/CA/Foster-City/931-Lurline-Dr-94404/home/931527,MLSListings,ML81586624,N,Y,37.5567782,-122.2583465
PAST SALE,September-2-2016,Condo/Co-op,6209 Admiralty Ln,FOSTER CITY,CA,94404,575000,2,1.5,FOSTER CITY,998,,1965,515,576,640,Sold,,,http://www.redfin.com/CA/Foster-City/6209-Admiralty-Ln-94404/home/1299871,MLSListings,ML81595455,N,Y,37.561437,-122.267213
PAST SALE,October-30-2015,Condo/Co-op,5103 Admiralty Ln #5103,FOSTER CITY,CA,94404,515000,1,1.0,FOSTER CITY,748,,1965,823,689,608,Sold,,,http://www.redfin.com/CA/Foster-City/5103-Admiralty-Ln-94404/unit-5103/home/999460,MLSListings,ML81513204,N,Y,37.561437,-122.267213
PAST SALE,August-24-2016,Townhouse,213 Town Green Ln,FOSTER CITY,CA,94404,950000,2,2.5,FOSTER CITY,1370,622,1997,524,693,219,Sold,,,http://www.redfin.com/CA/Foster-City/213-Town-Green-Ln-94404/home/1984896,MLSListings,ML81594123,N,Y,37.557225,-122.276221
PAST SALE,December-4-2015,Single Family Residential,251 Killdeer Ct,FOSTER CITY,CA,94404,1575000,4,3.0,FOSTER CITY,2250,5640,1965,788,700,,Sold,,,http://www.redfin.com/CA/Foster-City/251-Killdeer-Ct-94404/home/930841,MLSListings,ML81514434,N,Y,37.5683184,-122.2601039
PAST SALE,September-25-2015,Single Family Residential,875 Chrysopolis Dr,FOSTER CITY,CA,94404,1508000,4,2.0,FOSTER CITY,1670,6210,1964,858,903,,Sold,,,http://www.redfin.com/CA/Foster-City/875-Chrysopolis-Dr-94404/home/2041469,MLSListings,ML81483359,N,Y,37.5594211,-122.2595263
PAST SALE,,Single Family Residential,801 Lurline Dr,Foster City,CA,94404,1750000,4,2.0,,2620,7994,1973,,668,,,,,http://www.redfin.com/CA/Foster-City/801-Lurline-Dr-94404/home/927195,,,N,Y,37.5617544,-122.2584734
PAST SALE,October-12-2015,Single Family Residential,511 Saint Vincent Ln,FOSTER CITY,CA,94404,1680000,4,2.5,FOSTER CITY,2070,5100,1987,841,812,109,Sold,,,http://www.redfin.com/CA/Foster-City/511-Saint-Vincent-Ln-94404/home/941217,MLSListings,ML81513056,N,Y,37.5363514,-122.2638665
PAST SALE,September-6-2016,Townhouse,106 Skipjack Ln,FOSTER CITY,CA,94404,1400000,3,2.5,FOSTER CITY,2240,2696,1988,511,625,425,Sold,,,http://www.redfin.com/CA/Foster-City/106-Skipjack-Ln-94404/home/2002865,MLSListings,ML81596514,N,Y,37.53577,-122.265725
PAST SALE,May-6-2016,Single Family Residential,521 Nottingham Ln,FOSTER CITY,CA,94404,1788000,3,2.0,FOSTER CITY,2340,6976,1980,634,764,156,Sold,,,http://www.redfin.com/CA/Foster-City/521-Nottingham-Ln-94404/home/1754787,MLSListings,ML81576779,Y,Y,37.5401258,-122.2641335
PAST SALE,February-24-2016,Townhouse,778 Comet Dr,FOSTER CITY,CA,94404,850000,2,1.5,FOSTER CITY,980,1955,1972,706,867,350,Sold,,,http://www.redfin.com/CA/Foster-City/778-Comet-Dr-94404/home/924970,MLSListings,ML81548592,N,Y,37.55943,-122.262857
PAST SALE,November-23-2016,Townhouse,758 Caravel Ln,FOSTER CITY,CA,94404,1200000,3,2.5,FOSTER CITY,1670,1777,1972,433,719,360,Sold,,,http://www.redfin.com/CA/Foster-City/758-Caravel-Ln-94404/home/1083613,MLSListings,ML81614312,N,Y,37.559224,-122.263668
PAST SALE,July-29-2015,Townhouse,774 Comet Dr,FOSTER CITY,CA,94404,925000,2,2.5,FOSTER CITY,1290,1777,1972,916,717,342,Sold,,,http://www.redfin.com/CA/Foster-City/774-Comet-Dr-94404/home/1576214,MLSListings,ML81483294,N,Y,37.5595,-122.262988
PAST SALE,September-27-2016,Townhouse,736 Chebec Ln,FOSTER CITY,CA,94404,920000,2,1.5,FOSTER CITY,980,1955,1972,490,939,360,Sold,,,http://www.redfin.com/CA/Foster-City/736-Chebec-Ln-94404/home/2030138,MLSListings,ML81613929,N,Y,37.559703,-122.263974
PAST SALE,,Townhouse,4211 Admiralty Ln,Foster City,CA,94404,165000,2,1.0,,998,432988,1965,,165,,,,,http://www.redfin.com/CA/Foster-City/4211-Admiralty-Ln-94404/home/1235667,,,N,Y,37.561437,-122.267213
PAST SALE,May-3-2017,Single Family Residential,367 Port Royal Ave,FOSTER CITY,CA,94404,2015000,4,3.0,FOSTER CITY,2491,9960,1980,272,809,,Sold,,,http://www.redfin.com/CA/Foster-City/367-Port-Royal-Ave-94404/home/1992507,MLSListings,ML81643047,N,Y,37.5424868,-122.2764178
PAST SALE,June-30-2017,Single Family Residential,1071 Hatteras Ct,FOSTER CITY,CA,94404,2000000,4,3.0,FOSTER CITY,2360,5225,1971,214,847,,Sold,,,http://www.redfin.com/CA/Foster-City/1071-Hatteras-Ct-94404/home/1711186,MLSListings,ML81655177,N,Y,37.541978,-122.2724472
PAST SALE,June-22-2017,Single Family Residential,513 Broughton Ln,FOSTER CITY,CA,94404,1530000,6,3.0,FOSTER CITY,1987,7326,1982,222,770,156,Sold,,,http://www.redfin.com/CA/Foster-City/513-Broughton-Ln-94404/home/1455865,MLSListings,ML81650384,N,Y,37.5385648,-122.2668756
PAST SALE,May-30-2017,Single Family Residential,150 Winchester Ct,FOSTER CITY,CA,94404,1550000,4,2.0,FOSTER CITY,1470,6262,1970,245,1054,,Sold,,,http://www.redfin.com/CA/Foster-City/150-Winchester-Ct-94404/home/1865614,MLSListings,ML81649090,N,Y,37.537025,-122.2764631
PAST SALE,October-16-2017,Single Family Residential,198 Boothbay Ave,FOSTER CITY,CA,94404,1700000,3,2.0,FOSTER CITY,1620,6141,1971,106,1049,,Sold,,,http://www.redfin.com/CA/Foster-City/198-Boothbay-Ave-94404/home/1557739,MLSListings,ML81674573,N,Y,37.5364195,-122.2759339
PAST SALE,November-21-2017,Single Family Residential,335 Bodega St,FOSTER CITY,CA,94404,1630000,4,2.0,FOSTER CITY,1470,6076,1971,70,1109,,Sold,,,http://www.redfin.com/CA/Foster-City/335-Bodega-St-94404/home/1446369,MLSListings,ML81682214,N,Y,37.5368725,-122.2739999
PAST SALE,March-7-2017,Townhouse,966 Marquette Ln,FOSTER CITY,CA,94404,1106800,2,2.0,FOSTER CITY,1260,2352,1973,329,878,195,Sold,,,http://www.redfin.com/CA/Foster-City/966-Marquette-Ln-94404/home/933753,MLSListings,ML81638501,N,Y,37.5495461,-122.266364
PAST SALE,January-29-2016,Townhouse,144 Beach Park Blvd,FOSTER CITY,CA,94404,1325000,4,2.5,FOSTER CITY,1700,1890,1972,732,779,340,Sold,,,http://www.redfin.com/CA/Foster-City/144-Beach-Park-Blvd-94404/home/935959,MLSListings,ML81534130,N,Y,37.547587,-122.279477
PAST SALE,November-20-2015,Townhouse,876 Andromeda Ln,FOSTER CITY,CA,94404,1310000,3,2.5,FOSTER CITY,1618,1624,1977,802,810,454,Sold,,,http://www.redfin.com/CA/Foster-City/876-Andromeda-Ln-94404/home/971447,MLSListings,ML81520893,N,Y,37.54852,-122.271991
PAST SALE,March-24-2017,Townhouse,126 Beach Park Blvd,FOSTER CITY,CA,94404,1068000,2,1.5,FOSTER CITY,1270,1890,1972,312,841,360,Sold,,,http://www.redfin.com/CA/Foster-City/126-Beach-Park-Blvd-94404/home/935152,MLSListings,ML81639114,N,Y,37.548363,-122.279627
PAST SALE,April-19-2017,Townhouse,194 Beach Park Blvd,FOSTER CITY,CA,94404,1540000,4,2.5,FOSTER CITY,1920,2198,1974,286,802,360,Sold,,,http://www.redfin.com/CA/Foster-City/194-Beach-Park-Blvd-94404/home/2050779,MLSListings,ML81637887,N,Y,37.545964,-122.278801
PAST SALE,April-24-2017,Single Family Residential,840 Polaris Ave,FOSTER CITY,CA,94404,2000000,4,2.5,FOSTER CITY,2780,5795,1973,281,719,,Sold,,,http://www.redfin.com/CA/Foster-City/840-Polaris-Ave-94404/home/936231,MLSListings,ML81643281,N,Y,37.5471214,-122.2755754
PAST SALE,May-2-2017,Condo/Co-op,800 Sea Spray Ln #211,FOSTER CITY,CA,94404,808000,2,2.0,FOSTER CITY,1213,40742,1984,273,666,510,Sold,,,http://www.redfin.com/CA/Foster-City/800-Sea-Spray-Ln-94404/unit-211/home/977473,MLSListings,ML81644669,N,Y,37.5528449,-122.280676
PAST SALE,July-5-2017,Townhouse,606 Celestial Ln,FOSTER CITY,CA,94404,1460000,4,2.5,FOSTER CITY,1920,2198,1972,209,760,360,Sold,,,http://www.redfin.com/CA/Foster-City/606-Celestial-Ln-94404/home/1593419,MLSListings,ML81655101,N,Y,37.55046,-122.279287
PAST SALE,June-13-2017,Townhouse,224 Beach Park Blvd,FOSTER CITY,CA,94404,1600000,4,2.5,FOSTER CITY,1920,2198,1974,231,833,360,Sold,,,http://www.redfin.com/CA/Foster-City/224-Beach-Park-Blvd-94404/home/1601886,MLSListings,ML81649905,N,Y,37.545311,-122.278249
PAST SALE,,Condo/Co-op,848 Balboa Ln #55,Foster City,CA,94404,11500,2,2.0,,1395,,1975,,8,,,,,http://www.redfin.com/CA/Foster-City/848-Balboa-Ln-94404/unit-55/home/1839018,,,N,Y,37.552816,-122.270788
PAST SALE,April-22-2016,Townhouse,857 Cabot Ln,FOSTER CITY,CA,94404,1060000,2,2.0,FOSTER CITY,1260,2688,1974,648,841,190,Sold,,,http://www.redfin.com/CA/Foster-City/857-Cabot-Ln-94404/home/936493,MLSListings,ML81563555,N,Y,37.5507673,-122.2674116
PAST SALE,April-21-2017,Townhouse,323 Catamaran St,FOSTER CITY,CA,94404,1355000,3,2.5,FOSTER CITY,1700,2294,1973,284,797,350,Sold,,,http://www.redfin.com/CA/Foster-City/323-Catamaran-St-94404/home/1762665,MLSListings,ML81642047,N,Y,37.5486969,-122.2673157
PAST SALE,March-22-2017,Single Family Residential,1172 Dover Ln,FOSTER CITY,CA,94404,1878000,3,2.5,FOSTER CITY,1808,4280,1977,314,1039,249,Sold,,,http://www.redfin.com/CA/Foster-City/1172-Dover-Ln-94404/home/937835,MLSListings,ML81637854,N,Y,37.5441015,-122.2663194
PAST SALE,March-29-2017,Single Family Residential,604 Bainbridge St,FOSTER CITY,CA,94404,1830000,4,2.5,FOSTER CITY,2120,5000,1978,307,863,,Sold,,,http://www.redfin.com/CA/Foster-City/604-Bainbridge-St-94404/home/938888,MLSListings,ML81640088,N,Y,37.5468952,-122.2665795
PAST SALE,September-22-2017,Townhouse,704 Celestial Ln,FOSTER CITY,CA,94404,1440000,4,2.5,FOSTER CITY,1700,1890,1973,130,847,360,Sold,,,http://www.redfin.com/CA/Foster-City/704-Celestial-Ln-94404/home/2058310,MLSListings,ML81675232,N,Y,37.548957,-122.281351
PAST SALE,November-30-2017,Townhouse,853 Vespucci Ln,FOSTER CITY,CA,94404,1256000,3,1.5,FOSTER CITY,1460,1855,1974,61,860,350,Sold,,,http://www.redfin.com/CA/Foster-City/853-Vespucci-Ln-94404/home/937424,MLSListings,ML81680573,N,Y,37.5471241,-122.268747
PAST SALE,October-19-2017,Single Family Residential,1161 Blythe St,FOSTER CITY,CA,94404,1990000,4,2.5,FOSTER CITY,2120,5626,1978,103,939,,Sold,,,http://www.redfin.com/CA/Foster-City/1161-Blythe-St-94404/home/2041500,MLSListings,ML81677822,N,Y,37.5452169,-122.2668386
PAST SALE,December-18-2017,Townhouse,654 Portofino Ln,FOSTER CITY,CA,94404,1360000,2,2.5,FOSTER CITY,1780,224919,1975,43,764,719,Sold,,,http://www.redfin.com/CA/Foster-City/654-Portofino-Ln-94404/unit-30/home/1438023,MLSListings,ML81684358,N,Y,37.5523337,-122.2725411
PAST SALE,December-26-2017,Condo/Co-op,681 Portofino Ln,FOSTER CITY,CA,94404,1098000,2,2.0,FOSTER CITY,1358,224919,1975,35,809,719,Sold,,,http://www.redfin.com/CA/Foster-City/681-Portofino-Ln-94404/unit-81-A/home/2018093,MLSListings,ML81685470,N,Y,37.5523499,-122.271969
PAST SALE,November-18-2016,Single Family Residential,627 Pilgrim Dr,FOSTER CITY,CA,94404,1500000,5,2.0,FOSTER CITY,1920,5510,1964,438,781,,Sold,,,http://www.redfin.com/CA/Foster-City/627-Pilgrim-Dr-94404/home/924318,MLSListings,ML81627510,N,Y,37.5637868,-122.2661065
PAST SALE,November-29-2016,Condo/Co-op,3211 Admiralty Ln,FOSTER CITY,CA,94404,640000,2,1.5,FOSTER CITY,998,,1965,427,641,640,Sold,,,http://www.redfin.com/CA/Foster-City/3211-Admiralty-Ln-94404/home/1158135,MLSListings,ML81627828,N,Y,37.561437,-122.267213
PAST SALE,February-25-2016,Townhouse,256 Commons Ln,FOSTER CITY,CA,94404,1215000,2,2.0,FOSTER CITY,1589,919,1987,705,765,280,Sold,,,http://www.redfin.com/CA/Foster-City/256-Commons-Ln-94404/home/924875,MLSListings,ML81547943,N,Y,37.556832,-122.278551
PAST SALE,April-21-2017,Single Family Residential,225 W Commons Ln,FOSTER CITY,CA,94404,1028000,2,2.0,FOSTER CITY,1230,960,1987,284,836,280,Sold,,,http://www.redfin.com/CA/Foster-City/225-Commons-Ln-94404/home/2027761,MLSListings,ML81644490,N,Y,37.556739,-122.277233
PAST SALE,May-19-2016,Condo/Co-op,2201 Admiralty Ln,FOSTER CITY,CA,94404,870000,3,2.5,FOSTER CITY,1505,,1965,621,578,709,Sold,,,http://www.redfin.com/CA/Foster-City/2201-Admiralty-Ln-94404/home/2043740,MLSListings,ML81579186,N,Y,37.561437,-122.267213
PAST SALE,February-25-2016,Condo/Co-op,1217 Admiralty Ln,FOSTER CITY,CA,94404,830000,3,2.5,FOSTER CITY,1505,,1965,705,551,710,Sold,,,http://www.redfin.com/CA/Foster-City/1217-Admiralty-Ln-94404/home/1721812,MLSListings,ML81547930,N,Y,37.561437,-122.267213
PAST SALE,May-5-2017,Townhouse,130 Cityhomes Ln,FOSTER CITY,CA,94404,1085000,2,2.5,FOSTER CITY,1530,920,1987,270,709,290,Sold,,,http://www.redfin.com/CA/Foster-City/130-Cityhomes-Ln-94404/home/1727986,MLSListings,ML81644606,N,Y,37.555873,-122.278373
PAST SALE,,Multi-Family (2-4 Unit),650 Shell Blvd #1019,Foster City,CA,94404,1380000,,,,,,,,,,,,,http://www.redfin.com/CA/Foster-City/650-Shell-Blvd-94404/unit-1019/home/109581408,,,N,Y,37.557678,-122.2691795
PAST SALE,September-21-2017,Condo/Co-op,7213 Admiralty Ln,FOSTER CITY,CA,94404,672000,2,1.5,FOSTER CITY,998,432988,1965,131,673,644,Sold,,,http://www.redfin.com/CA/Foster-City/7213-Admiralty-Ln-94404/home/1993421,MLSListings,ML81669085,N,Y,37.561437,-122.267213
PAST SALE,October-23-2017,Condo/Co-op,1031 Foster Square Ln #401,Foster City,CA,94404,1323880,2,2.5,Foster City,1754,,2017,99,755,325,Sold,,,http://www.redfin.com/CA/Foster-City/1031-Foster-Square-Ln-94404/unit-401/home/130473517,EBRD/CCAR/Bay East,40765159,N,Y,37.5584207,-122.2682162
PAST SALE,November-3-2017,Condo/Co-op,7202 Admiralty Ln,FOSTER CITY,CA,94404,703800,2,1.5,FOSTER CITY,998,432988,1965,88,705,644,Sold,,,http://www.redfin.com/CA/Foster-City/7202-Admiralty-Ln-94404/home/1217399,MLSListings,ML81679717,N,Y,37.561437,-122.267213
PAST SALE,,Multi-Family (2-4 Unit),790 Alma Ln Unit 204,Foster City,CA,94404,1226000,,,,,,,,,,,,,http://www.redfin.com/CA/Foster-City/790-Alma-Ln-94404/unit-204/home/109581439,,,N,Y,37.5589959,-122.2673123
PAST SALE,December-28-2017,Single Family Residential,664 Harvester Dr,FOSTER CITY,CA,94404,1925000,5,3.0,FOSTER CITY,2540,5546,1966,33,758,,Sold,,,http://www.redfin.com/CA/Foster-City/664-Harvester-Dr-94404/home/926618,MLSListings,ML81687644,N,Y,37.5619144,-122.2656053
PAST SALE,May-19-2016,Single Family Residential,48 Port Royal Ave,FOSTER CITY,CA,94404,2127000,5,3.0,FOSTER CITY,3130,10500,1985,621,680,,Sold,,,http://www.redfin.com/CA/Foster-City/48-Port-Royal-Ave-94404/home/1092447,MLSListings,ML81581763,N,Y,37.5355811,-122.2749528
PAST SALE,March-2-2017,Single Family Residential,211 Hudson Bay St,FOSTER CITY,CA,94404,1445000,3,2.0,FOSTER CITY,1280,7830,1971,334,1129,,Sold,,,http://www.redfin.com/CA/Foster-City/211-Hudson-Bay-St-94404/home/934702,MLSListings,ML81635800,Y,Y,37.5367831,-122.2748247
PAST SALE,July-20-2015,Single Family Residential,116 Williams Ln,FOSTER CITY,CA,94404,1350000,3,2.5,FOSTER CITY,1670,3192,1986,925,808,467,Sold,,,http://www.redfin.com/CA/Foster-City/116-Williams-Ln-94404/home/1932903,MLSListings,ML81469196,N,Y,37.5351121,-122.2690022
PAST SALE,July-5-2016,Townhouse,190 Beach Park Blvd,FOSTER CITY,CA,94404,1415000,4,2.5,FOSTER CITY,1700,1890,1974,574,832,350,Sold,,,http://www.redfin.com/CA/Foster-City/190-Beach-Park-Blvd-94404/home/935989,MLSListings,ML81581693,N,Y,37.546177,-122.278932
PAST SALE,June-23-2015,Townhouse,775 Gemini Ln,FOSTER CITY,CA,94404,1150000,3,2.5,FOSTER CITY,1430,1890,1974,952,804,340,Sold,,,http://www.redfin.com/CA/Foster-City/775-Gemini-Ln-94404/home/1687244,MLSListings,ML81466498,N,Y,37.55137,-122.280599
PAST SALE,March-27-2015,Single Family Residential,678 Libra Ln,Foster City,CA,94044,780000,2,1.5,Foster City,1270,1890,1974,1040,614,340,Sold,,,http://www.redfin.com/CA/Foster-City/678-Libra-Ln-94404/home/1984878,San Francisco MLS,428583,N,Y,37.550893,-122.279729
PAST SALE,April-14-2015,Townhouse,603 Emerald Bay Ln,FOSTER CITY,CA,94404,1000000,2,2.5,FOSTER CITY,1530,179821,1991,1022,654,325,Sold,,,http://www.redfin.com/CA/Foster-City/603-Emerald-Bay-Ln-94404/home/1410128,MLSListings,ML81457464,N,Y,37.554728,-122.280753
PAST SALE,October-31-2016,Condo/Co-op,880 Meridian Bay Ln #222,FOSTER CITY,CA,94404,965000,3,2.0,FOSTER CITY,1606,,1998,456,601,609,Sold,,,http://www.redfin.com/CA/Foster-City/880-Meridian-Bay-Ln-94404/unit-222/home/996294,MLSListings,ML81615021,N,Y,37.554083,-122.27858
PAST SALE,August-31-2016,Condo/Co-op,815 Sea Spray Ln #201,FOSTER CITY,CA,94404,789000,2,2.0,FOSTER CITY,1213,,1981,517,650,510,Sold,,,http://www.redfin.com/CA/Foster-City/815-Sea-Spray-Ln-94404/unit-201/home/1878151,MLSListings,ML81598482,N,Y,37.553696,-122.281415
PAST SALE,October-27-2016,Condo/Co-op,820 Sea Spray Ln #302,FOSTER CITY,CA,94404,840000,3,2.0,FOSTER CITY,1500,,1981,460,560,510,Sold,,,http://www.redfin.com/CA/Foster-City/820-Sea-Spray-Ln-94404/unit-302/home/2050870,MLSListings,ML81611772,N,Y,37.5534646,-122.2803476
PAST SALE,June-15-2016,Condo/Co-op,720 Promontory Point Ln #2402,FOSTER CITY,CA,94404,1520000,3,3.5,FOSTER CITY,2697,,1990,594,564,900,Sold,,,http://www.redfin.com/CA/Foster-City/720-Promontory-Point-Ln-94404/unit-2402/home/1770543,MLSListings,ML81565983,N,Y,37.5499484,-122.2834345
PAST SALE,May-4-2016,Condo/Co-op,720 Promontory Point Ln #2103,FOSTER CITY,CA,94404,910000,2,2.5,FOSTER CITY,2421,,1990,636,376,900,Sold,,,http://www.redfin.com/CA/Foster-City/720-Promontory-Point-Ln-94404/unit-2103/home/1697849,MLSListings,ML81578237,N,Y,37.5499484,-122.2834345
PAST SALE,June-4-2015,Single Family Residential,723 Coronado Ln,FOSTER CITY,CA,94404,1425000,4,2.5,FOSTER CITY,1930,4050,1977,971,738,576,Sold,,,http://www.redfin.com/CA/Foster-City/723-Coronado-Ln-94404/home/936657,MLSListings,ML81460776,N,Y,37.5504106,-122.2706953
PAST SALE,August-30-2016,Townhouse,629 Portofino Ln,FOSTER CITY,CA,94404,1225000,3,2.5,FOSTER CITY,2140,,1975,518,572,688,Sold,,,http://www.redfin.com/CA/Foster-City/629-Portofino-Ln-94404/home/1906146,MLSListings,ML81596343,N,Y,37.5523499,-122.271969
PAST SALE,September-16-2015,Condo/Co-op,938 LIDO Ln,FOSTER CITY,CA,94404,1035000,2,2.0,FOSTER CITY,1270,,1975,867,815,553,Sold,,,http://www.redfin.com/CA/Foster-City/938-Lido-Ln-94404/unit-33/home/1989433,MLSListings,ML81512075,N,Y,37.554044,-122.268222
PAST SALE,March-13-2015,Townhouse,864 Andromeda Ln,FOSTER CITY,CA,94404,1115000,3,2.5,FOSTER CITY,1546,,1977,1054,721,458,Sold,,,http://www.redfin.com/CA/Foster-City/864-Andromeda-Ln-94404/home/1400862,MLSListings,ML81449864,N,Y,37.54852,-122.271991
PAST SALE,August-29-2016,Townhouse,10 Commons Ln,FOSTER CITY,CA,94404,1050000,2,2.5,FOSTER CITY,1530,920,1987,519,686,280,Sold,,,http://www.redfin.com/CA/Foster-City/10-Commons-Ln-94404/home/1651377,MLSListings,ML81601004,N,Y,37.556139,-122.277526
PAST SALE,July-20-2015,Townhouse,143 E Court Ln,FOSTER CITY,CA,94404,1035000,2,2.5,FOSTER CITY,1410,946,1986,925,734,310,Sold,,,http://www.redfin.com/CA/Foster-City/143-E-Court-Ln-94404/home/2058329,MLSListings,ML81471219,N,Y,37.559235,-122.273585
PAST SALE,,Condo/Co-op,710 Portofino Ln #2,Foster City,CA,94404,1042000,2,2.0,,1395,,1975,,747,,,,,http://www.redfin.com/CA/Foster-City/710-Portofino-Ln-94404/unit-2/home/1157488,,,N,Y,37.5512736,-122.2717136
