SALE TYPE,SOLD DATE,PROPERTY TYPE,ADDRESS,CITY,STATE,ZIP,PRICE,BEDS,BATHS,LOCATION,SQUARE FEET,LOT SIZE,YEAR BUILT,DAYS ON MARKET,$/SQUARE FEET,HOA/MONTH,STATUS,NEXT OPEN HOUSE START TIME,NEXT OPEN HOUSE END TIME,URL (SEE http://www.redfin.com/buy-a-home/comparative-market-analysis FOR INFO ON PRICING),SOURCE,MLS#,FAVORITE,INTERESTED,LATITUDE,LONGITUDE
PAST SALE,November-3-2017,Single Family Residential,516 Roxbury Way,BELMONT,CA,94002,1400000,3,1.0,BELMONT,1010,5130,1953,88,1386,,Sold,,,http://www.redfin.com/CA/Belmont/516-Roxbury-Way-94002/home/743043,MLSListings,ML81680677,N,Y,37.5263062,-122.2781106
PAST SALE,November-17-2017,Single Family Residential,318 Hiller St,BELMONT,CA,94002,1395000,3,1.0,BELMONT,1010,5000,1953,74,1381,,Sold,,,http://www.redfin.com/CA/Belmont/318-Hiller-St-94002/home/1760261,MLSListings,ML81682274,N,Y,37.528769,-122.2815143
PAST SALE,November-20-2017,Single Family Residential,500 E 40th Ave,SAN MATEO,CA,94403,1281000,3,2.0,SAN MATEO,1380,5500,1951,71,928,,Sold,,,http://www.redfin.com/CA/San-Mateo/500-E-40th-Ave-94403/home/752626,MLSListings,ML81680856,N,Y,37.5349024,-122.2818593
PAST SALE,December-1-2017,Single Family Residential,404 Yorkshire Way,BELMONT,CA,94002,1585000,3,1.0,BELMONT,1340,5000,1953,60,1183,,Sold,,,http://www.redfin.com/CA/Belmont/404-Yorkshire-Way-94002/home/741613,MLSListings,ML81683700,N,Y,37.5278268,-122.2807437
PAST SALE,December-22-2017,Condo/Co-op,23 Tidal,SAN MATEO,CA,94401,999990,2,2.5,SAN MATEO,1235,,2017,39,810,326,Sold,,,http://www.redfin.com/CA/San-Mateo/2050-Detroit-Dr-94401/home/144235251,MLSListings,ML81683674,N,Y,37.5690872,-122.2921924
PAST SALE,December-1-2017,Single Family Residential,640 Fathom Dr,SAN MATEO,CA,94404,1660000,3,2.5,SAN MATEO,1860,2522,1967,60,892,170,Sold,,,http://www.redfin.com/CA/San-Mateo/640-Fathom-Dr-94404/home/1097508,MLSListings,ML81683642,Y,Y,37.5648743,-122.2858566
PAST SALE,,Condo/Co-op,400 Mariners Island Blvd Unit 104,San Mateo,CA,94404,1149000,3,2.0,,1425,,2016,,806,,,,,http://www.redfin.com/CA/San-Mateo/400-Mariners-Island-Blvd-94404/unit-104/home/144108555,,,N,Y,37.569763,-122.28538
PAST SALE,December-19-2017,Single Family Residential,1216 Shoal Dr,SAN MATEO,CA,94404,1205000,2,2.0,SAN MATEO,1290,3150,1969,42,934,125,Sold,,,http://www.redfin.com/CA/San-Mateo/1216-Shoal-Dr-94404/home/727377,MLSListings,ML81684609,N,Y,37.5628246,-122.2916074
PAST SALE,,Single Family Residential,749 Fallon Ave,San Mateo,CA,94401,150000,3,1.0,,1160,5000,1949,,129,,,,,http://www.redfin.com/CA/San-Mateo/749-Fallon-Ave-94401/home/709269,,,N,Y,37.5713504,-122.3056229
PAST SALE,November-30-2017,Single Family Residential,1465 SW LAKEVIEW DRIVE Dr,HILLSBOROUGH,CA,94010,3380000,5,3.5,HILLSBOROUGH,2980,21780,1970,61,1134,,Sold,,,http://www.redfin.com/CA/Hillsborough/1465-Lakeview-Dr-94010/home/735017,MLSListings,ML81682431,N,Y,37.5353358,-122.3608785
PAST SALE,November-9-2017,Single Family Residential,440 Remillard Dr,HILLSBOROUGH,CA,94010,3372000,3,2.5,HILLSBOROUGH,2850,23625,1960,82,1183,,Sold,,,http://www.redfin.com/CA/Hillsborough/440-Remillard-Dr-94010/home/2038839,MLSListings,ML81674680,N,Y,37.5528875,-122.3686707
PAST SALE,November-17-2017,Single Family Residential,105 Glengarry Way,HILLSBOROUGH,CA,94010,2850000,5,4.0,HILLSBOROUGH,4270,23958,1978,74,667,,Sold,,,http://www.redfin.com/CA/Hillsborough/105-Glengar-Way-94010/home/735566,MLSListings,ML81673530,N,Y,37.5393287,-122.3571075
PAST SALE,November-3-2017,Single Family Residential,75 Windermere Rd,HILLSBOROUGH,CA,94010,3500000,3,2.5,HILLSBOROUGH,2300,22338,1953,88,1522,,Sold,,,http://www.redfin.com/CA/Hillsborough/75-Windermere-Rd-94010/home/1079515,MLSListings,ML81680560,N,Y,37.5371766,-122.3594502
PAST SALE,December-15-2017,Single Family Residential,545 Darrell Rd,HILLSBOROUGH,CA,94010,5700000,5,5.5,HILLSBOROUGH,6272,29185,2017,46,909,,Sold,,,http://www.redfin.com/CA/Hillsborough/545-Darrell-Rd-94010/home/1451837,MLSListings,ML81667343,N,Y,37.5522293,-122.3751812
PAST SALE,December-13-2017,Condo/Co-op,1919 Alameda De Las Pulgas #29,SAN MATEO,CA,94403,795000,2,2.0,SAN MATEO,1024,107051,1974,48,776,525,Sold,,,http://www.redfin.com/CA/San-Mateo/1919-Alameda-de-las-Pulgas-94403/unit-29/home/1917751,MLSListings,ML81682290,N,Y,37.5466223,-122.3207843
PAST SALE,November-7-2017,Single Family Residential,1680 S Norfolk St,SAN MATEO,CA,94403,1375000,6,3.0,SAN MATEO,2630,6000,1954,84,523,,Sold,,,http://www.redfin.com/CA/San-Mateo/1680-S-Norfolk-St-94403/home/1504641,MLSListings,ML81673563,N,Y,37.5605622,-122.2986969
PAST SALE,,Single Family Residential,1707 Celeste Dr,San Mateo,CA,94402,855000,4,2.0,,1540,4998,1956,,555,,,,,http://www.redfin.com/CA/San-Mateo/1707-Celeste-Dr-94402/home/1782618,,,N,Y,37.556776,-122.3043282
PAST SALE,December-1-2017,Single Family Residential,1662 Washington St,SAN MATEO,CA,94403,1110000,3,2.0,SAN MATEO,1020,6000,1953,60,1088,,Sold,,,http://www.redfin.com/CA/San-Mateo/1662-Washington-St-94403/home/1504651,MLSListings,ML81684160,N,Y,37.5599289,-122.3013337
PAST SALE,,Single Family Residential,1680 Washington St,San Mateo,CA,94403,3950000,3,1.0,,1050,6000,1953,,3762,,,,,http://www.redfin.com/CA/San-Mateo/1680-Washington-St-94403/home/1642084,,,N,Y,37.5592661,-122.3007434
PAST SALE,,Single Family Residential,1737 Pierce St,San Mateo,CA,94403,962500,3,1.0,,1030,5150,1954,,934,,,,,http://www.redfin.com/CA/San-Mateo/1737-Pierce-St-94403/home/1914842,,,N,Y,37.558118,-122.2979455
PAST SALE,January-8-2018,Single Family Residential,1419 Speers Ave,SAN MATEO,CA,94403,955777,3,1.0,SAN MATEO,1050,8066,1954,22,910,,Sold,,,http://www.redfin.com/CA/San-Mateo/1419-Speers-Ave-94403/home/1815019,MLSListings,ML81686638,N,Y,37.5591952,-122.2981217
PAST SALE,,Single Family Residential,1316 Hancock Ave,San Mateo,CA,94403,935000,3,2.0,,1220,5000,1954,,766,,,,,http://www.redfin.com/CA/San-Mateo/1316-Hancock-Ave-94403/home/1800934,,,N,Y,37.5588834,-122.2992003
PAST SALE,November-9-2017,Condo/Co-op,1608 Marina Ct Unit B,SAN MATEO,CA,94403,558888,1,1.0,SAN MATEO,590,94954,1961,82,947,371,Sold,,,http://www.redfin.com/CA/San-Mateo/1608-Marina-Ct-94403/unit-B/home/105500595,MLSListings,ML81680851,N,Y,37.550964,-122.28586
PAST SALE,December-8-2017,Condo/Co-op,1570 Day Ave Unit B,SAN MATEO,CA,94403,611000,1,1.0,SAN MATEO,590,220318,1961,53,1036,372,Sold,,,http://www.redfin.com/CA/San-Mateo/1570-Day-Ave-94403/unit-B/home/105497858,MLSListings,ML81683080,N,Y,37.5508461,-122.2876839
PAST SALE,,Condo/Co-op,1548 Day Ave Unit A,San Mateo,CA,94403,450000,1,1.0,,590,,1961,,763,,,,,http://www.redfin.com/CA/San-Mateo/1548-Day-Ave-94403/unit-A/home/1310096,,,N,Y,37.550843,-122.28769
PAST SALE,January-3-2018,Condo/Co-op,2425 S Norfolk St #208,SAN MATEO,CA,94403,705000,2,2.0,SAN MATEO,1000,38396,1988,27,705,495,Sold,,,http://www.redfin.com/CA/San-Mateo/2425-S-Norfolk-St-94403/unit-208/home/1918012,MLSListings,ML81682210,N,Y,37.5500117,-122.2880464
PAST SALE,November-3-2017,Condo/Co-op,129 W 3rd Ave,SAN MATEO,CA,94402,2300000,3,3.0,SAN MATEO,2301,30128,2005,88,1000,889,Sold,,,http://www.redfin.com/CA/San-Mateo/129-W-3rd-Ave-94402/unit-7/home/12302008,MLSListings,ML81679737,N,Y,37.560661,-122.328092
PAST SALE,December-21-2017,Multi-Family (2-4 Unit),38 W 5th Ave,SAN MATEO,CA,94402,1801000,2,,SAN MATEO,2219,5750,1939,40,812,,Sold,,,http://www.redfin.com/CA/San-Mateo/38-W-5th-Ave-94402/home/1987527,MLSListings,ML81684862,N,Y,37.561065,-122.325793
PAST SALE,November-22-2017,Single Family Residential,158 Northam Ave,SAN CARLOS,CA,94070,1500000,3,2.0,SAN CARLOS,1210,11300,1962,69,1240,,Sold,,,http://www.redfin.com/CA/San-Carlos/158-Northam-Ave-94070/home/1892008,MLSListings,ML81685401,N,Y,37.5091399,-122.2762948
PAST SALE,December-15-2017,Single Family Residential,337 Elm St,SAN CARLOS,CA,94070,1670000,3,2.5,SAN CARLOS,2260,7650,1950,46,739,,Sold,,,http://www.redfin.com/CA/San-Carlos/337-Elm-St-94070/home/2011526,MLSListings,ML81677357,N,Y,37.5085077,-122.2656554
PAST SALE,November-10-2017,Single Family Residential,2163 Ralmar Ave,EAST PALO ALTO,CA,94303,775000,3,1.0,EAST PALO ALTO,920,5000,1950,81,842,,Sold,,,http://www.redfin.com/CA/East-Palo-Alto/2163-Ralmar-Ave-94303/home/1850949,MLSListings,ML81681458,N,Y,37.4665195,-122.1493821
PAST SALE,November-14-2017,Single Family Residential,2182 Ralmar Ave,EAST PALO ALTO,CA,94303,875000,3,2.0,EAST PALO ALTO,1030,5000,1955,77,850,,Sold,,,http://www.redfin.com/CA/East-Palo-Alto/2182-Ralmar-Ave-94303/home/1617394,MLSListings,ML81675091,N,Y,37.4669759,-122.1487923
PAST SALE,November-21-2017,Single Family Residential,1132 Bay Rd,EAST PALO ALTO,CA,94303,670000,2,1.0,EAST PALO ALTO,1060,5400,1939,70,632,,Sold,,,http://www.redfin.com/CA/East-Palo-Alto/1132-Bay-Rd-94303/home/1886952,MLSListings,ML81675765,N,Y,37.4703055,-122.1485871
PAST SALE,November-29-2017,Single Family Residential,203 Haight St,MENLO PARK,CA,94025,1805000,2,1.0,MENLO PARK,890,7550,1949,62,2028,,Sold,,,http://www.redfin.com/CA/Menlo-Park/203-Haight-St-94025/home/2050625,MLSListings,ML81682273,N,Y,37.4660319,-122.152603
PAST SALE,December-29-2017,Single Family Residential,2234 Ralmar Ave,EAST PALO ALTO,CA,94303,668000,2,1.0,EAST PALO ALTO,730,2500,1953,32,915,,Sold,,,http://www.redfin.com/CA/East-Palo-Alto/2234-Ralmar-Ave-94303/home/1124813,MLSListings,ML81683618,N,Y,37.4684348,-122.1484468
PAST SALE,January-26-2018,Single Family Residential,1224 Carlton Ave,MENLO PARK,CA,94025,1005000,2,1.0,MENLO PARK,800,6000,1950,4,1256,,Sold,,,http://www.redfin.com/CA/Menlo-Park/1224-Carlton-Ave-94025/home/1947657,MLSListings,ML81687322,N,Y,37.4739154,-122.1550771
PAST SALE,November-6-2017,Single Family Residential,1901 Menalto Ave,MENLO PARK,CA,94025,1980000,2,1.0,MENLO PARK,1010,6930,1940,85,1960,,Sold,,,http://www.redfin.com/CA/Menlo-Park/1901-Menalto-Ave-94025/home/1816571,MLSListings,ML81679741,Y,Y,37.4580949,-122.1531063
PAST SALE,,Single Family Residential,117 Okeefe St,Menlo Park,CA,94025,2570000,2,1.0,,1020,7000,1949,,2520,,,,,http://www.redfin.com/CA/Menlo-Park/117-Okeefe-St-94025/home/1836887,,,N,Y,37.4628073,-122.1525989
PAST SALE,,Condo/Co-op,165 Okeefe St Apt 9,Menlo Park,CA,94025,725000,2,1.5,,1182,,1983,,613,,,,,http://www.redfin.com/CA/Menlo-Park/165-Okeefe-St-94025/unit-9/home/1364699,,,N,Y,37.4627839,-122.1505527
PAST SALE,December-1-2017,Single Family Residential,1355 Hillcrest Blvd,MILLBRAE,CA,94030,1699990,3,2.0,MILLBRAE,1600,7424,1941,60,1062,,Sold,,,http://www.redfin.com/CA/Millbrae/1355-Hillcrest-Blvd-94030/home/2044027,MLSListings,ML81686111,N,Y,37.5905806,-122.4081313
PAST SALE,,Single Family Residential,243 Aviador Ave,Millbrae,CA,94030,200000,2,1.0,,990,5200,1945,,202,,,,,http://www.redfin.com/CA/Millbrae/243-Aviador-Ave-94030/home/1875001,,,N,Y,37.6021602,-122.3873966
PAST SALE,,Single Family Residential,1248 Millbrae Ave,Millbrae,CA,94030,2100000,4,2.0,,2370,27300,1961,,886,,,,,http://www.redfin.com/CA/Millbrae/1248-Millbrae-Ave-94030/home/1773169,,,N,Y,37.5888827,-122.4053295
PAST SALE,December-14-2017,Single Family Residential,716 Berkshire Dr,MILLBRAE,CA,94030,2150000,5,3.0,MILLBRAE,3200,5400,1973,47,672,,Sold,,,http://www.redfin.com/CA/Millbrae/716-Berkshire-Dr-94030/home/1513502,MLSListings,ML81682874,N,Y,37.5974755,-122.4055452
PAST SALE,,Single Family Residential,471 Anita Dr,Millbrae,CA,94030,205500,3,1.0,,1290,5000,1946,,159,,,,,http://www.redfin.com/CA/Millbrae/471-Anita-Dr-94030/home/1715300,,,N,Y,37.6005686,-122.4037023
PAST SALE,January-8-2018,Single Family Residential,708 Barcelona Dr,MILLBRAE,CA,94030,1493000,2,2.0,MILLBRAE,1860,5008,1949,22,803,,Sold,,,http://www.redfin.com/CA/Millbrae/708-Barcelona-Dr-94030/home/1750544,MLSListings,ML81688538,N,Y,37.6076053,-122.4118406
PAST SALE,November-15-2017,Single Family Residential,15 Iris Ln,MENLO PARK,CA,94025,1507500,3,2.5,MENLO PARK,1328,3609,2014,76,1135,,Sold,,,http://www.redfin.com/CA/Menlo-Park/15-Iris-Ln-94025/home/52783569,MLSListings,ML81681395,N,Y,37.4758988,-122.1679544
PAST SALE,November-21-2017,Single Family Residential,1025 Oakland Ave,MENLO PARK,CA,94025,1903000,3,1.0,MENLO PARK,1200,6500,1946,70,1586,,Sold,,,http://www.redfin.com/CA/Menlo-Park/1025-Oakland-Ave-94025/home/1259062,MLSListings,ML81682505,Y,Y,37.4721716,-122.1662483
PAST SALE,,Single Family Residential,1057 Sonoma Ave,Menlo Park,CA,94025,1550000,3,1.0,,1090,5200,1950,,1422,,,,,http://www.redfin.com/CA/Menlo-Park/1057-Sonoma-Ave-94025/home/1836915,,,N,Y,37.474583,-122.1671646
PAST SALE,,Single Family Residential,528 Eighth Ave,Menlo Park,CA,94025,400000,2,1.0,,990,5350,1928,,404,,,,,http://www.redfin.com/CA/Menlo-Park/528-Eighth-Ave-94025/home/1444814,,,N,Y,37.475172,-122.1989687
PAST SALE,December-13-2017,Single Family Residential,411 7th Ave,Menlo Park,CA,94025,1165000,3,2.0,Menlo Park,1370,6000,1968,48,850,,Sold,,,http://www.redfin.com/CA/Menlo-Park/411-Seventh-Ave-94025/home/846065,San Francisco MLS,464544,N,Y,37.4718222,-122.2026999
PAST SALE,January-18-2018,Single Family Residential,619 4th Ave,REDWOOD CITY,CA,94063,1100000,2,2.0,REDWOOD CITY,1460,6000,1925,12,753,,Sold,,,http://www.redfin.com/CA/Redwood-City/619-Fourth-Ave-94063/home/1926527,MLSListings,ML81685547,N,Y,37.47734,-122.2027269
PAST SALE,November-21-2017,Single Family Residential,335 Bodega St,FOSTER CITY,CA,94404,1630000,4,2.0,FOSTER CITY,1470,6076,1971,70,1109,,Sold,,,http://www.redfin.com/CA/Foster-City/335-Bodega-St-94404/home/1446369,MLSListings,ML81682214,N,Y,37.5368725,-122.2739999
PAST SALE,November-14-2017,Townhouse,411 Franklin Pkwy,SAN MATEO,CA,94403,1840000,4,3.5,SAN MATEO,2551,1,2017,77,721,382,Sold,,,http://www.redfin.com/CA/San-Mateo/411-Franklin-Pkwy-94403/home/113704945,MLSListings,ML81646176,N,Y,37.540691,-122.295388
PAST SALE,November-27-2017,Single Family Residential,413 Poinsettia Ave,SAN MATEO,CA,94403,1725000,4,2.5,SAN MATEO,2040,6750,1948,64,846,,Sold,,,http://www.redfin.com/CA/San-Mateo/413-Poinsettia-Ave-94403/home/1230037,MLSListings,ML81682350,N,Y,37.541838,-122.2889132
PAST SALE,December-20-2017,Single Family Residential,168 Poinsettia Ave,SAN MATEO,CA,94403,1450000,4,2.0,SAN MATEO,1660,7475,1946,41,873,,Sold,,,http://www.redfin.com/CA/San-Mateo/168-Poinsettia-Ave-94403/home/1122238,MLSListings,ML81684984,N,Y,37.5398648,-122.2911547
PAST SALE,November-3-2017,Single Family Residential,732 E 16th Ave,SAN MATEO,CA,94402,1568922,3,3.0,SAN MATEO,1451,4600,1946,88,1081,,Sold,,,http://www.redfin.com/CA/San-Mateo/732-E-16th-Ave-94402/home/1998817,MLSListings,ML81680525,N,Y,37.5592054,-122.3063359
PAST SALE,November-30-2017,Single Family Residential,1677 Eleanor Dr,SAN MATEO,CA,94402,1650000,4,2.0,SAN MATEO,1540,5000,1955,61,1071,,Sold,,,http://www.redfin.com/CA/San-Mateo/1677-Eleanor-Dr-94402/home/1908522,MLSListings,ML81682275,N,Y,37.5558523,-122.3066101
PAST SALE,,Single Family Residential,1315 S Grant St,San Mateo,CA,94402,636500,3,1.0,,1330,4500,1948,,479,,,,,http://www.redfin.com/CA/San-Mateo/1315-S-Grant-St-94402/home/1423081,,,N,Y,37.5614909,-122.3070415
PAST SALE,December-13-2017,Single Family Residential,1408 S B St,SAN MATEO,CA,94402,1651000,3,2.0,SAN MATEO,1635,5200,1921,48,1010,,Sold,,,http://www.redfin.com/CA/San-Mateo/1408-S-B-St-94402/home/1675868,MLSListings,ML81684496,N,Y,37.5568752,-122.3131316
PAST SALE,November-28-2017,Single Family Residential,84 Wilburn Ave,ATHERTON,CA,94027,2525000,3,2.5,ATHERTON,2172,13500,1946,63,1163,,Sold,,,http://www.redfin.com/CA/Atherton/84-Wilburn-Ave-94027/home/849626,MLSListings,ML81679964,N,Y,37.4669912,-122.2036285
PAST SALE,December-26-2017,Single Family Residential,57 North Gate,ATHERTON,CA,94027,4260000,6,5.5,ATHERTON,3873,6750,2017,35,1100,,Sold,,,http://www.redfin.com/CA/Atherton/57-Northgate-St-94027/home/889251,MLSListings,ML81681687,N,Y,37.4634264,-122.2047919
PAST SALE,November-22-2017,Multi-Family (2-4 Unit),1361 Valota Rd,REDWOOD CITY,CA,94061,1515000,4,,REDWOOD CITY,2479,6700,1948,69,611,,Sold,,,http://www.redfin.com/CA/Redwood-City/1361-Valota-Rd-94061/home/1963785,MLSListings,ML81683091,N,Y,37.4661228,-122.2341684
PAST SALE,December-5-2017,Single Family Residential,1951 Palm Ave,REDWOOD CITY,CA,94061,1662000,4,2.0,REDWOOD CITY,1650,10050,1959,56,1007,,Sold,,,http://www.redfin.com/CA/Redwood-City/1951-Palm-Ave-94061/home/1202613,MLSListings,ML81683225,N,Y,37.4627422,-122.2332973
PAST SALE,November-9-2017,Single Family Residential,27 Sequoia Dr,LA HONDA,CA,94020,487000,3,2.5,LA HONDA,1400,4400,1930,82,348,337,Sold,,,http://www.redfin.com/CA/La-Honda/27-Sequoia-Dr-94020/home/2047830,MLSListings,ML81651530,N,Y,37.3156109,-122.273142
PAST SALE,December-22-2017,Single Family Residential,11880 San Mateo Rd,HALF MOON BAY,CA,94019,682500,1,1.0,HALF MOON BAY,600,57934,1930,39,1138,,Sold,,,http://www.redfin.com/CA/Half-Moon-Bay/11880-San-Mateo-Rd-94019/home/1258430,MLSListings,ML81684227,N,Y,37.4879491,-122.3949772
PAST SALE,January-26-2018,Single Family Residential,530 Main St,HALF MOON BAY,CA,94019,1600000,3,2.0,HALF MOON BAY,2900,5367,1946,4,552,,Sold,,,http://www.redfin.com/CA/Half-Moon-Bay/530-Main-St-94019/home/40151270,MLSListings,ML81673801,N,Y,37.463087,-122.4295667
PAST SALE,November-7-2017,Single Family Residential,1175 Encanto Way,PACIFICA,CA,94044,875000,3,1.0,PACIFICA,1040,5000,1954,84,841,,Sold,,,http://www.redfin.com/CA/Pacifica/1175-Encanto-Way-94044/home/1647148,MLSListings,ML81679904,N,Y,37.5943542,-122.499522
PAST SALE,November-27-2017,Single Family Residential,1157 Manzanita Dr,PACIFICA,CA,94044,920000,3,2.0,PACIFICA,1500,8250,1961,64,613,,Sold,,,http://www.redfin.com/CA/Pacifica/1157-Manzanita-Dr-94044/home/1357813,MLSListings,ML81680866,N,Y,37.5852347,-122.4807289
PAST SALE,,Single Family Residential,758 Rockaway Beach Ave,Pacifica,CA,94044,600000,1,1.0,,940,5500,1953,,638,,,,,http://www.redfin.com/CA/Pacifica/758-Rockaway-Beach-Ave-94044/home/653082,,,N,Y,37.6036168,-122.4879351
PAST SALE,November-30-2017,Single Family Residential,1410 De Solo Dr,PACIFICA,CA,94044,1000000,5,3.0,PACIFICA,1656,5800,1954,61,604,,Sold,,,http://www.redfin.com/CA/Pacifica/De-Solo-Dr-94044/home/1874887,MLSListings,ML81680777,N,Y,37.5914365,-122.502138
PAST SALE,December-28-2017,Single Family Residential,18 Malavear Ct,PACIFICA,CA,94044,1210000,3,3.0,PACIFICA,1500,5500,1963,33,807,,Sold,,,http://www.redfin.com/CA/Pacifica/18-Malavear-Ct-94044/home/1597874,MLSListings,ML81685797,N,Y,37.5860452,-122.4874465
PAST SALE,December-19-2017,Townhouse,1211 Terra Nova Blvd,PACIFICA,CA,94044,700000,3,2.0,PACIFICA,1400,870,1970,42,500,365,Sold,,,http://www.redfin.com/CA/Pacifica/1211-Terra-Nova-Blvd-94044/home/1941047,MLSListings,ML81687360,N,Y,37.586255,-122.477321
PAST SALE,,Single Family Residential,1043 Monte Verde Dr,Pacifica,CA,94044,585000,4,2.0,,2190,10850,1954,,267,,,,,http://www.redfin.com/CA/Pacifica/1043-Monte-Verde-Dr-94044/home/1421942,,,N,Y,37.5834819,-122.495045
PAST SALE,January-25-2018,Single Family Residential,820 Crespi Dr,PACIFICA,CA,94044,915000,3,2.0,PACIFICA,1370,6696,1957,5,668,,Sold,,,http://www.redfin.com/CA/Pacifica/820-Crespi-Dr-94044/home/1581321,MLSListings,ML81687057,N,Y,37.5930164,-122.4951798
PAST SALE,December-21-2017,Single Family Residential,1327 Hermosa Ave,Pacifica,CA,94044,950000,3,1.0,Pacifica,1040,5000,1954,40,913,,Sold,,,http://www.redfin.com/CA/Pacifica/1327-Hermosa-Ave-94044/home/1180537,San Francisco MLS,464887,N,Y,37.5890031,-122.4962857
PAST SALE,November-9-2017,Single Family Residential,301 Alameda Ave,HALF MOON BAY,CA,94019,1775000,4,2.5,HALF MOON BAY,3330,11860,1997,82,533,,Sold,,,http://www.redfin.com/CA/Half-Moon-Bay/301-Alameda-Ave-94019/home/2033322,MLSListings,ML81674814,N,Y,37.495678,-122.4600195
PAST SALE,January-24-2018,Other,00 5th Ave,HALF MOON BAY,CA,94019,11000,,,HALF MOON BAY,,7500,,6,,,Sold,,,http://www.redfin.com/CA/Half-Moon-Bay/5th-Ave-94019/home/23471445,MLSListings,ML81686453,N,Y,37.496771,-122.456735
PAST SALE,,Single Family Residential,2 Fleur Pl,Atherton,CA,94027,8500000,4,3.0,,3690,42253,1960,,2304,,,,,http://www.redfin.com/CA/Atherton/2-Fleur-Pl-94027/home/1535871,,,N,Y,37.4490672,-122.2148276
PAST SALE,November-22-2017,Condo/Co-op,50 Mounds Rd #702,SAN MATEO,CA,94402,1500000,2,2.0,SAN MATEO,2076,171751,1973,69,723,1175,Sold,,,http://www.redfin.com/CA/San-Mateo/50-Mounds-Rd-94402/unit-702/home/2057682,MLSListings,ML81683006,N,Y,37.5666792,-122.3329061
PAST SALE,November-1-2017,Single Family Residential,43 Willow Glen Way,SAN CARLOS,CA,94070,1650000,3,2.0,SAN CARLOS,1900,10900,1933,90,868,,Sold,,,http://www.redfin.com/CA/San-Carlos/43-Willow-Glen-Way-94070/home/781011,MLSListings,ML81677163,N,Y,37.4987188,-122.2787359
PAST SALE,November-9-2017,Condo/Co-op,1 Elm St #102,SAN CARLOS,CA,94070,920000,2,2.0,SAN CARLOS,1180,,1981,82,780,440,Sold,,,http://www.redfin.com/CA/San-Carlos/1-Elm-St-94070/unit-102/home/1253056,MLSListings,ML81679612,N,Y,37.5124978,-122.2694072
PAST SALE,November-28-2017,Single Family Residential,1031 Sunset Dr,SAN CARLOS,CA,94070,1285000,3,2.0,SAN CARLOS,1280,5350,1951,63,1004,,Sold,,,http://www.redfin.com/CA/San-Carlos/1031-Sunset-Dr-94070/home/789327,MLSListings,ML81680008,N,Y,37.4905693,-122.270095
PAST SALE,November-21-2017,Single Family Residential,403 De Anza Ave,SAN CARLOS,CA,94070,2289000,4,3.0,SAN CARLOS,2510,11800,1937,70,912,,Sold,,,http://www.redfin.com/CA/San-Carlos/403-De-Anza-Ave-94070/home/1143964,MLSListings,ML81678298,N,Y,37.4862491,-122.2640057
PAST SALE,December-6-2017,Single Family Residential,755 Orange Ave,SAN CARLOS,CA,94070,1750000,3,2.0,SAN CARLOS,1660,5800,1939,55,1054,,Sold,,,http://www.redfin.com/CA/San-Carlos/755-Orange-Ave-94070/home/1608418,MLSListings,ML81681666,N,Y,37.5004517,-122.2628581
PAST SALE,January-3-2018,Single Family Residential,2756 Debbie Ct,SAN CARLOS,CA,94070,1865000,3,2.5,SAN CARLOS,2670,10200,1980,27,699,,Sold,,,http://www.redfin.com/CA/San-Carlos/2756-Debbie-Ct-94070/home/144453319,MLSListings,ML81686680,N,Y,37.482385,-122.2652343
PAST SALE,December-29-2017,Townhouse,1263 Holly St Unit A,SAN CARLOS,CA,94070,1250500,2,2.5,SAN CARLOS,1260,4871,2000,32,992,300,Sold,,,http://www.redfin.com/CA/San-Carlos/1263-Holly-St-94070/unit-A/home/1138956,MLSListings,ML81685847,N,Y,37.507293,-122.2631105
PAST SALE,December-27-2017,Single Family Residential,240 Lemoore Dr,SAN CARLOS,CA,94070,2568000,5,3.5,SAN CARLOS,2680,9075,1950,34,958,,Sold,,,http://www.redfin.com/CA/San-Carlos/240-Lemoore-Dr-94070/home/1231101,MLSListings,ML81685200,N,Y,37.4821787,-122.2626463
PAST SALE,January-2-2018,Single Family Residential,338 De Anza Ave,SAN CARLOS,CA,94070,1663500,4,2.0,SAN CARLOS,1640,8132,1951,28,1014,,Sold,,,http://www.redfin.com/CA/San-Carlos/338-De-Anza-Ave-94070/home/1036289,MLSListings,ML81685695,N,Y,37.4864731,-122.2617339
PAST SALE,,Condo/Co-op,633 Elm St Apt 300,San Carlos,CA,94070,370000,1,1.0,,774,,2003,,478,,,,,http://www.redfin.com/CA/San-Carlos/633-Elm-St-94070/unit-300/home/1739993,,,N,Y,37.5048088,-122.2620109
PAST SALE,December-29-2017,Single Family Residential,141 Palm Ave,SAN CARLOS,CA,94070,2317000,3,2.5,SAN CARLOS,2150,4998,1942,32,1078,,Sold,,,http://www.redfin.com/CA/San-Carlos/141-Palm-Ave-94070/home/788666,MLSListings,ML81686072,N,Y,37.5029035,-122.271649
PAST SALE,December-29-2017,Single Family Residential,200 Sycamore St,SAN CARLOS,CA,94070,1652000,3,2.5,SAN CARLOS,2340,7000,1979,32,706,,Sold,,,http://www.redfin.com/CA/San-Carlos/200-Sycamore-St-94070/home/785265,MLSListings,ML81681630,N,Y,37.506931,-122.2706422
PAST SALE,January-8-2018,Single Family Residential,12 Riviera Cir,Redwood Shores,CA,94065,2100000,4,2.5,Redwood Shores,2490,4784,1979,22,843,91,Sold,,,http://www.redfin.com/CA/Redwood-City/12-Riviera-Cir-94065/home/942115,MLSListings,ML81685912,N,Y,37.5297226,-122.2447309
PAST SALE,,Single Family Residential,1016 Eighth Ave,Redwood City,CA,94063,1200000,3,2.0,,1030,7000,1939,,1165,,,,,http://www.redfin.com/CA/Redwood-City/1016-Eighth-Ave-94063/home/1915816,,,N,Y,37.4830648,-122.1945697
PAST SALE,November-16-2017,Single Family Residential,916 5th Ave,REDWOOD CITY,CA,94063,1050000,2,1.0,REDWOOD CITY,930,6105,1951,75,1129,,Sold,,,http://www.redfin.com/CA/Redwood-City/Fifth-Ave-94063/home/2051436,MLSListings,ML81682032,N,Y,37.4821079,-122.1980238
PAST SALE,January-5-2018,Single Family Residential,1197 18th Ave,REDWOOD CITY,CA,94063,1200000,2,2.0,REDWOOD CITY,1060,5900,1948,25,1132,,Sold,,,http://www.redfin.com/CA/Redwood-City/1197-18th-Ave-94063/home/1470229,MLSListings,ML81668407,N,Y,37.4833113,-122.1848009
PAST SALE,,Condo/Co-op,7 Bremerton Cir #4,Redwood City,CA,94065,1450000,,,,,,,,,,,,,http://www.redfin.com/CA/Redwood-City/7-Bremerton-Cir-94065/unit-4/home/40100322,,,N,Y,37.5434569,-122.2446334
PAST SALE,December-5-2017,Townhouse,4 Brigantine Ln,Redwood Shores,CA,94065,1275000,3,2.5,Redwood Shores,1400,739720,1995,56,911,289,Sold,,,http://www.redfin.com/CA/Redwood-City/4-Brigantine-Ln-94065/home/1907107,MLSListings,ML81684304,N,Y,37.5432023,-122.238524
PAST SALE,December-5-2017,Townhouse,27 Bremerton Cir,Redwood Shores,CA,94065,1175000,2,2.5,Redwood Shores,1473,70160,2010,56,798,297,Sold,,,http://www.redfin.com/CA/Redwood-City/27-Bremerton-Cir-94065/unit-20/home/40100306,MLSListings,ML81683236,N,Y,37.544444,-122.244599
PAST SALE,January-5-2018,Townhouse,10 Breaker Ln,Redwood Shores,CA,94065,1300000,3,2.5,Redwood Shores,1610,739720,1995,25,807,285,Sold,,,http://www.redfin.com/CA/Redwood-City/10-Breaker-Ln-94065/home/1620866,MLSListings,ML81680888,N,Y,37.5422251,-122.2373631
PAST SALE,,Single Family Residential,1712 Yorktown Rd,San Mateo,CA,94402,1300000,4,3.0,,1920,7500,1957,,677,,,,,http://www.redfin.com/CA/San-Mateo/1712-Yorktown-Rd-94402/home/1725161,,,N,Y,37.5213909,-122.3480111
PAST SALE,November-13-2017,Single Family Residential,2300 Poppy Dr,BURLINGAME,CA,94010,3330000,4,3.5,BURLINGAME,4130,4998,1925,78,806,,Sold,,,http://www.redfin.com/CA/Burlingame/2300-Poppy-Dr-94010/home/2057072,MLSListings,ML81681480,Y,Y,37.5840113,-122.3793032
PAST SALE,November-24-2017,Condo/Co-op,1500 Willow Ave #302,BURLINGAME,CA,94010,862000,2,2.0,BURLINGAME,1032,15426,1981,67,835,338,Sold,,,http://www.redfin.com/CA/Burlingame/1500-Willow-Ave-94010/unit-302/home/1680994,MLSListings,ML81680312,N,Y,37.5795729,-122.3585077
PAST SALE,January-19-2018,Single Family Residential,1248 Paloma Ave,BURLINGAME,CA,94010,1650000,2,1.0,BURLINGAME,1180,6000,1920,11,1398,,Sold,,,http://www.redfin.com/CA/Burlingame/1248-Paloma-Ave-94010/home/1548104,MLSListings,ML81686814,N,Y,37.586816,-122.3668366
PAST SALE,November-2-2017,Vacant Land,0 Presidio,EL GRANADA,CA,94018,355000,,,EL GRANADA,,6250,,89,,,Sold,,,http://www.redfin.com/CA/EL-GRANADA/0-Presidio-94018/home/143939460,MLSListings,ML81679787,N,Y,37.5017068,-122.4688381
PAST SALE,November-15-2017,Single Family Residential,830 Avenue Balboa,EL GRANADA,CA,94018,1645000,4,3.0,EL GRANADA,2850,6250,2008,76,577,,Sold,,,http://www.redfin.com/CA/El-Granada/830-Avenue-Balboa-94018/home/113828672,MLSListings,ML81677770,N,Y,37.509528,-122.476557
PAST SALE,November-17-2017,Vacant Land,00 Columbus,EL GRANADA,CA,94018,210000,,,EL GRANADA,,7500,,74,,,Sold,,,http://www.redfin.com/CA/EL-GRANADA/00-Columbus-94018/home/144235301,MLSListings,ML81683686,N,Y,37.5017068,-122.4688381
PAST SALE,November-17-2017,Other,O FERDINAND Ave,EL GRANADA,CA,94018,365000,,,EL GRANADA,,6000,,74,,,Sold,,,http://www.redfin.com/CA/El-Granada/O-Ferdinand-Ave-94018/home/113665201,MLSListings,ML81645435,N,Y,37.5075574,-122.4725789
PAST SALE,November-3-2017,Single Family Residential,530 Valencia Ave,EL GRANADA,CA,94019,975000,3,2.0,EL GRANADA,1650,6250,1965,88,591,,Sold,,,http://www.redfin.com/CA/Half-Moon-Bay/530-Valencia-Ave-94019/home/1963422,MLSListings,ML81679861,N,Y,37.5072894,-122.4767802
PAST SALE,November-9-2017,Single Family Residential,771 Palma St,EL GRANADA,CA,94018,1246320,3,3.0,EL GRANADA,1818,6302,1947,82,686,,Sold,,,http://www.redfin.com/CA/EL-GRANADA/771-PALMA-ST-94018/home/1632705,MLSListings,ML81672451,N,Y,37.503169,-122.465377
PAST SALE,,Single Family Residential,830 Avenue Balboa,Half Moon Bay,CA,94019,1645000,4,3.0,,2850,6250,2008,,577,,,,,http://www.redfin.com/CA/Half-Moon-Bay/830-Avenue-Balboa-94019/home/17309288,,,N,Y,37.509528,-122.476557
PAST SALE,November-20-2017,Single Family Residential,447 Montecito Ave,EL GRANADA,CA,94019,995000,3,2.0,EL GRANADA,1290,5000,1971,71,771,,Sold,,,http://www.redfin.com/CA/Half-Moon-Bay/447-Montecito-Ave-94019/home/1931427,MLSListings,ML81681366,N,Y,37.5093226,-122.4778658
PAST SALE,November-21-2017,Condo/Co-op,4100 N Cabrillo Hwy #101,HALF MOON BAY,CA,94019,362500,0,1.0,HALF MOON BAY,480,68642,1997,70,755,828,Sold,,,http://www.redfin.com/CA/Half-Moon-Bay/4100-Cabrillo-Hwy-N-94019/unit-101/home/17308011,MLSListings,ML81681810,N,Y,37.501984,-122.4743184
PAST SALE,December-29-2017,Single Family Residential,654 Isabella,EL GRANADA,CA,94018,1350000,4,2.5,EL GRANADA,3140,7930,1999,32,430,,Sold,,,http://www.redfin.com/CA/El-Granada/654-Isabella-Rd-94018/home/2042907,MLSListings,ML81687428,N,Y,37.5087745,-122.4673701
PAST SALE,December-6-2017,Single Family Residential,270 Francisco St,EL GRANADA,CA,94019,1075000,4,2.0,EL GRANADA,2110,6000,1966,55,509,,Sold,,,http://www.redfin.com/CA/Half-Moon-Bay/270-Francisco-St-94019/home/1306113,MLSListings,ML81683917,N,Y,37.5056716,-122.4743706
PAST SALE,December-13-2017,Single Family Residential,131 Escalona Ave,EL GRANADA,CA,94019,1888888,4,3.5,EL GRANADA,3000,10780,1989,48,630,,Sold,,,http://www.redfin.com/CA/Half-Moon-Bay/131-Escalona-Ave-94019/home/1925998,MLSListings,ML81684612,N,Y,37.5105634,-122.4762836
PAST SALE,December-15-2017,Single Family Residential,415 The Alameda,EL GRANADA,CA,94019,1047000,3,2.0,EL GRANADA,2050,5700,1996,46,511,,Sold,,,http://www.redfin.com/CA/Half-Moon-Bay/415-The-Alameda-94019/home/778503,MLSListings,ML81669103,N,Y,37.5049624,-122.4714482
PAST SALE,,Single Family Residential,947 Francisco St,Half Moon Bay,CA,94019,920000,2,1.0,,740,9000,1920,,1243,,,,,http://www.redfin.com/CA/Half-Moon-Bay/947-Francisco-St-94019/home/1541014,,,N,Y,37.500938,-122.463357
PAST SALE,January-24-2018,Single Family Residential,331 Paloma Ave,EL GRANADA,CA,94019,899000,2,1.0,EL GRANADA,846,9801,1956,6,1063,,Sold,,,http://www.redfin.com/CA/Half-Moon-Bay/331-Paloma-Ave-94019/home/1941956,MLSListings,ML81686684,N,Y,37.5088592,-122.4770067
PAST SALE,December-5-2017,Single Family Residential,324 Valdez Ave,HALF MOON BAY,CA,94019,1398000,4,2.5,HALF MOON BAY,2826,7500,1989,56,495,,Sold,,,http://www.redfin.com/CA/Half-Moon-Bay/324-Valdez-Ave-94019/home/1523721,MLSListings,ML81678553,N,Y,37.4614135,-122.4396406
PAST SALE,December-4-2017,Single Family Residential,440 Balboa,HALF MOON BAY,CA,94019,815000,1,1.0,HALF MOON BAY,420,13499,1920,57,1940,,Sold,,,http://www.redfin.com/CA/Half-Moon-Bay/440-Balboa-Blvd-94019/home/133611199,MLSListings,ML81667611,N,Y,37.4663718,-122.4440642
PAST SALE,November-13-2017,Single Family Residential,33 Le Havre Pl,HALF MOON BAY,CA,94019,1200000,5,3.0,HALF MOON BAY,2680,6450,1973,78,448,,Sold,,,http://www.redfin.com/CA/Half-Moon-Bay/33-Le-Havre-Pl-94019/home/1801850,MLSListings,ML81670206,N,Y,37.4855974,-122.4444886
PAST SALE,November-9-2017,Single Family Residential,169 Correas St,HALF MOON BAY,CA,94019,2110000,4,3.0,HALF MOON BAY,3238,7500,2003,82,652,,Sold,,,http://www.redfin.com/CA/Half-Moon-Bay/169-Correas-St-94019/home/1967602,MLSListings,ML81677299,N,Y,37.4631522,-122.4424643
PAST SALE,November-28-2017,Single Family Residential,700 Toulouse Ct,HALF MOON BAY,CA,94019,1245000,3,2.0,HALF MOON BAY,1790,5896,1975,63,696,,Sold,,,http://www.redfin.com/CA/Half-Moon-Bay/700-Toulouse-Ct-94019/home/1919797,MLSListings,ML81683624,N,Y,37.4864208,-122.4426709
PAST SALE,December-21-2017,Single Family Residential,345 Belleville Blvd,HALF MOON BAY,CA,94019,1275000,4,2.5,HALF MOON BAY,2150,12498,2017,40,593,,Sold,,,http://www.redfin.com/CA/Half-Moon-Bay/345-Belleville-Blvd-94019/home/143373849,MLSListings,ML81674777,N,Y,37.4695757,-122.4367003
PAST SALE,December-20-2017,Single Family Residential,116 Carnoustie Dr,HALF MOON BAY,CA,94019,1801000,4,3.0,HALF MOON BAY,3157,6462,2016,41,570,106,Sold,,,http://www.redfin.com/CA/Half-Moon-Bay/116-Carnoustie-Dr-94019/home/109580084,MLSListings,ML81628771,N,Y,37.439824,-122.435642
PAST SALE,December-1-2017,Condo/Co-op,470 Laurel Ave,HALF MOON BAY,CA,94019,639000,2,2.0,HALF MOON BAY,1090,27010,1986,60,586,500,Sold,,,http://www.redfin.com/CA/Half-Moon-Bay/470-Laurel-Ave-94019/unit-24/home/995117,MLSListings,ML81681680,N,Y,37.465647,-122.435793
PAST SALE,December-28-2017,Single Family Residential,123 Carnoustie Dr,HALF MOON BAY,CA,94019,2622500,4,3.5,HALF MOON BAY,3755,8411,2017,33,698,106,Sold,,,http://www.redfin.com/CA/Half-Moon-Bay/123-Carnoustie-Dr-94019/home/144580993,MLSListings,ML81687618,N,Y,37.4397156,-122.4352894
PAST SALE,December-6-2017,Single Family Residential,625 Third Ave,HALF MOON BAY,CA,94019,1295000,4,3.0,HALF MOON BAY,2750,5760,1965,55,471,,Sold,,,http://www.redfin.com/CA/Half-Moon-Bay/625-3rd-Ave-94019/home/870130,MLSListings,ML81682518,N,Y,37.4598246,-122.4350677
PAST SALE,December-18-2017,Single Family Residential,52 Fairway Pl,HALF MOON BAY,CA,94019,1710000,4,3.0,HALF MOON BAY,2880,8112,1988,43,594,109,Sold,,,http://www.redfin.com/CA/Half-Moon-Bay/52-Fairway-Pl-94019/home/1964172,MLSListings,ML81677224,N,Y,37.436579,-122.4370227
PAST SALE,January-3-2018,Single Family Residential,303 Miramontes Ave,HALF MOON BAY,CA,94019,1560000,4,2.5,HALF MOON BAY,2790,7500,1989,27,559,,Sold,,,http://www.redfin.com/CA/Half-Moon-Bay/303-Miramontes-Ave-94019/home/1462383,MLSListings,ML81687502,N,Y,37.4639108,-122.4401228
PAST SALE,November-14-2017,Single Family Residential,60 Michaels Way,ATHERTON,CA,94027,10000000,6,4.5,ATHERTON,6295,29328,2009,77,1589,,Sold,,,http://www.redfin.com/CA/Atherton/60-Michaels-Way-94027/home/2049687,MLSListings,ML81677303,N,Y,37.4518195,-122.1921186
PAST SALE,December-14-2017,Multi-Family (5+ Unit),1326 Hoover St,MENLO PARK,CA,94025,10500000,9,,MENLO PARK,13164,18466,1973,47,798,,Sold,,,http://www.redfin.com/CA/Menlo-Park/1326-Hoover-St-94025/unit-1/home/982640,MLSListings,ML81674371,N,Y,37.4546717,-122.1872912
PAST SALE,January-11-2018,Townhouse,1307 Hoover St,MENLO PARK,CA,94025,1635000,3,2.5,MENLO PARK,1559,27007,1973,19,1049,300,Sold,,,http://www.redfin.com/CA/Menlo-Park/1307-Hoover-St-94025/home/1911803,MLSListings,ML81688648,N,Y,37.453924,-122.187599
PAST SALE,November-28-2017,Condo/Co-op,1544 San Antonio Ave #1544,MENLO PARK,CA,94025,1075000,2,2.0,MENLO PARK,1440,,1972,63,747,415,Sold,,,http://www.redfin.com/CA/Menlo-Park/1544-San-Antonio-St-94025/unit-8/home/2045209,MLSListings,ML81673802,N,Y,37.458079,-122.188926
PAST SALE,November-3-2017,Single Family Residential,112 Danbury Ln,REDWOOD CITY,CA,94061,1600000,4,2.5,REDWOOD CITY,2490,4000,1989,88,643,160,Sold,,,http://www.redfin.com/CA/Redwood-City/112-Danbury-Ln-94061/home/844648,MLSListings,ML81678291,N,Y,37.4650191,-122.2235694
PAST SALE,November-17-2017,Single Family Residential,1640 Kentfield Ave,REDWOOD CITY,CA,94061,1608000,3,2.0,REDWOOD CITY,1660,8255,1955,74,969,,Sold,,,http://www.redfin.com/CA/Redwood-City/1640-Kentfield-Ave-94061/home/1027208,MLSListings,ML81680878,N,Y,37.4636889,-122.2269658
PAST SALE,November-30-2017,Single Family Residential,77 Bonita Ave,REDWOOD CITY,CA,94061,1250000,3,2.0,REDWOOD CITY,1600,5500,1947,61,781,,Sold,,,http://www.redfin.com/CA/Redwood-City/77-Bonita-Ave-94061/home/842404,MLSListings,ML81679567,N,Y,37.4678904,-122.2221942
PAST SALE,,Multi-Family (2-4 Unit),246 Encina Ave,Redwood City,CA,94061,1400000,4,2.0,,2729,8250,1957,,513,,,,,http://www.redfin.com/CA/Redwood-City/246-Encina-Ave-94061/home/2043074,,,N,Y,37.465813,-122.2193127
PAST SALE,November-15-2017,Single Family Residential,988 Hillcrest Dr,REDWOOD CITY,CA,94062,2495000,5,3.0,REDWOOD CITY,3417,20485,1979,76,730,,Sold,,,http://www.redfin.com/CA/Redwood-City/988-Hillcrest-Dr-94062/home/1037052,MLSListings,ML81679209,N,Y,37.476547,-122.2568682
PAST SALE,,Single Family Residential,280 Willowbrook Dr,Portola Valley,CA,94028,4025000,3,3.5,,3000,49005,1971,,1342,,,,,http://www.redfin.com/CA/Portola-Valley/280-Willowbrook-Dr-94028/home/2047819,,,N,Y,37.3711027,-122.2178916
PAST SALE,November-13-2017,Single Family Residential,381 Portola Rd,PORTOLA VALLEY,CA,94028,2745000,4,3.5,PORTOLA VALLEY,2890,14700,2007,78,950,,Sold,,,http://www.redfin.com/CA/Portola-Valley/381-Portola-Rd-94028/home/1575811,MLSListings,ML81681427,N,Y,37.3754073,-122.2172032
PAST SALE,November-30-2017,Single Family Residential,22 Grove Dr,PORTOLA VALLEY,CA,94028,4650000,3,3.0,PORTOLA VALLEY,2640,89734,1954,61,1761,,Sold,,,http://www.redfin.com/CA/Portola-Valley/22-Grove-Dr-94028/home/901591,MLSListings,ML81681546,N,Y,37.3765119,-122.218336
PAST SALE,November-13-2017,Single Family Residential,1532 Parkwood,SAN MATEO,CA,94403,1850000,4,2.0,SAN MATEO,1980,7808,1972,78,934,,Sold,,,http://www.redfin.com/CA/San-Mateo/1532-Parkwood-Dr-94403/home/2011297,MLSListings,ML81670505,N,Y,37.525595,-122.3288441
PAST SALE,November-20-2017,Townhouse,34 Tollridge Ct,SAN MATEO,CA,94402,1460000,3,2.5,SAN MATEO,1600,1632,1974,71,913,340,Sold,,,http://www.redfin.com/CA/San-Mateo/34-Tollridge-Ct-94402/home/751153,MLSListings,ML81681305,N,Y,37.529369,-122.333136
PAST SALE,December-8-2017,Townhouse,1116 W Hillsdale Blvd,SAN MATEO,CA,94403,1325000,3,2.5,SAN MATEO,1760,4079,1978,53,753,200,Sold,,,http://www.redfin.com/CA/San-Mateo/1116-W-Hillsdale-Blvd-94403/home/1607704,MLSListings,ML81686530,N,Y,37.5328154,-122.323969
PAST SALE,December-8-2017,Single Family Residential,28 Denali Dr,SAN MATEO,CA,94403,1500000,3,2.5,SAN MATEO,1710,2336,1988,53,877,54,Sold,,,http://www.redfin.com/CA/San-Mateo/28-Denali-Dr-94403/home/2048609,MLSListings,ML81684494,N,Y,37.5220994,-122.330996
PAST SALE,November-3-2017,Single Family Residential,12250 Skyline Blvd,WOODSIDE,CA,94062,1640000,4,3.0,WOODSIDE,2800,70132,1990,88,586,,Sold,,,http://www.redfin.com/CA/Redwood-City/12250-Skyline-Blvd-94062/home/1999722,MLSListings,ML81673473,N,Y,37.446983,-122.3344159
PAST SALE,January-19-2018,Single Family Residential,1811 Mulberry Dr,SAN MATEO,CA,94403,2308000,4,3.0,SAN MATEO,2440,10336,1973,11,946,,Sold,,,http://www.redfin.com/CA/San-Mateo/1811-Mulberry-Dr-94403/home/2026905,MLSListings,ML81686636,N,Y,37.5251229,-122.327221
PAST SALE,December-14-2017,Single Family Residential,112 Comstock Rd,WOODSIDE,CA,94062,815000,3,2.0,WOODSIDE,1450,25600,1930,47,562,,Sold,,,http://www.redfin.com/CA/Redwood-City/112-Comstock-Rd-94062/home/2002450,MLSListings,ML81668610,N,Y,37.445851,-122.332976
PAST SALE,January-25-2018,Single Family Residential,2002 De Anza Blvd,SAN MATEO,CA,94402,1625000,4,3.0,SAN MATEO,2350,8610,1977,5,691,85,Sold,,,http://www.redfin.com/CA/San-Mateo/2002-De-Anza-Blvd-94402/home/1699041,MLSListings,ML81685450,N,Y,37.5214845,-122.3354659
PAST SALE,,Multi-Family (2-4 Unit),2172 Carlmont Dr,Belmont,CA,94002,720000,9,5.5,,5425,6300,1959,,133,,,,,http://www.redfin.com/CA/Belmont/2172-Carlmont-Dr-94002/home/1405755,,,N,Y,37.5103685,-122.2963151
PAST SALE,,Multi-Family (2-4 Unit),18 King Ct,San Mateo,CA,94403,1500000,4,2.0,,2679,5400,1947,,560,,,,,http://www.redfin.com/CA/San-Mateo/18-King-Ct-94403/home/2053291,,,N,Y,37.5336764,-122.2947938
PAST SALE,,Multi-Family (2-4 Unit),3812 King Ln,San Mateo,CA,94403,350000,4,2.0,,2254,5300,1947,,155,,,,,http://www.redfin.com/CA/San-Mateo/3812-King-Ln-94403/home/1684809,,,N,Y,37.5326996,-122.2950406
PAST SALE,November-7-2017,Single Family Residential,1718 NOTRE DAME Ave,BELMONT,CA,94002,1710000,3,3.0,BELMONT,1968,6416,1952,84,869,,Sold,,,http://www.redfin.com/CA/Belmont/1718-Notre-Dame-Ave-94002/home/2042873,MLSListings,ML81680716,N,Y,37.5233088,-122.2924908
PAST SALE,November-17-2017,Single Family Residential,12 Kent Ct,SAN MATEO,CA,94403,1540000,3,2.0,SAN MATEO,1320,5494,1956,74,1167,30,Sold,,,http://www.redfin.com/CA/San-Mateo/12-Kent-Ct-94403/home/1486651,MLSListings,ML81681177,N,Y,37.5479682,-122.2969781
PAST SALE,December-29-2017,Single Family Residential,29 Poinsettia Ave,SAN MATEO,CA,94403,1300000,3,2.0,SAN MATEO,1210,6000,1956,32,1074,,Sold,,,http://www.redfin.com/CA/San-Mateo/29-Poinsettia-Ave-94403/home/742079,MLSListings,ML81686707,N,Y,37.5377259,-122.295284
PAST SALE,December-11-2017,Townhouse,2 Geranium Ln,SAN CARLOS,CA,94070,1540000,2,2.5,SAN CARLOS,2260,1,1986,50,681,575,Sold,,,http://www.redfin.com/CA/San-Carlos/2-Geranium-Ln-94070/home/1922592,MLSListings,ML81683717,N,Y,37.4973909,-122.292834
PAST SALE,January-18-2018,Single Family Residential,23 Poinsettia Ave,SAN MATEO,CA,94403,1600000,6,3.5,SAN MATEO,2270,6000,1953,12,705,,Sold,,,http://www.redfin.com/CA/San-Mateo/23-Poinsettia-Ave-94403/home/1423433,MLSListings,ML81683770,N,Y,37.5376437,-122.2954192
PAST SALE,January-3-2018,Single Family Residential,1915 Lyon Ave,BELMONT,CA,94002,1300000,3,2.0,BELMONT,1130,4300,1951,27,1150,,Sold,,,http://www.redfin.com/CA/Belmont/1915-Lyon-Ave-94002/home/1515204,MLSListings,ML81685134,N,Y,37.5236167,-122.2957192
PAST SALE,November-30-2017,Townhouse,853 Vespucci Ln,FOSTER CITY,CA,94404,1256000,3,1.5,FOSTER CITY,1460,1855,1974,61,860,350,Sold,,,http://www.redfin.com/CA/Foster-City/853-Vespucci-Ln-94404/home/937424,MLSListings,ML81680573,N,Y,37.5471241,-122.268747
PAST SALE,January-19-2018,Condo/Co-op,3041 Los Prados St #205,SAN MATEO,CA,94403,650000,2,2.0,SAN MATEO,956,64155,1963,11,680,385,Sold,,,http://www.redfin.com/CA/San-Mateo/3041-Los-Prados-St-94403/unit-205/home/2050854,MLSListings,ML81687082,N,Y,37.5450553,-122.2819633
PAST SALE,December-18-2017,Townhouse,654 Portofino Ln,FOSTER CITY,CA,94404,1360000,2,2.5,FOSTER CITY,1780,224919,1975,43,764,719,Sold,,,http://www.redfin.com/CA/Foster-City/654-Portofino-Ln-94404/unit-30/home/1438023,MLSListings,ML81684358,N,Y,37.5523337,-122.2725411
PAST SALE,December-26-2017,Condo/Co-op,681 Portofino Ln,FOSTER CITY,CA,94404,1098000,2,2.0,FOSTER CITY,1358,224919,1975,35,809,719,Sold,,,http://www.redfin.com/CA/Foster-City/681-Portofino-Ln-94404/unit-81-A/home/2018093,MLSListings,ML81685470,N,Y,37.5523499,-122.271969
PAST SALE,,Single Family Residential,630 Miramar Dr,Half Moon Bay,CA,94019,1150000,5,4.0,,3440,9920,1995,,334,,,,,http://www.redfin.com/CA/Half-Moon-Bay/630-Miramar-Dr-94019/home/778027,,,N,Y,37.495994,-122.450164
PAST SALE,November-6-2017,Single Family Residential,1401 Young St,SAN MATEO,CA,94401,1280000,3,3.0,SAN MATEO,1580,6100,1950,85,810,,Sold,,,http://www.redfin.com/CA/San-Mateo/1401-Young-St-94401/home/2057136,MLSListings,ML81679168,N,Y,37.566428,-122.306334
PAST SALE,November-30-2017,Single Family Residential,936 S Norfolk St,SAN MATEO,CA,94401,985000,2,1.0,SAN MATEO,820,5250,1950,61,1201,,Sold,,,http://www.redfin.com/CA/San-Mateo/936-S-Norfolk-St-94401/home/2051189,MLSListings,ML81681489,N,Y,37.5673933,-122.3054118
PAST SALE,January-18-2018,Single Family Residential,1311 Carlisle Dr,SAN MATEO,CA,94402,1350000,3,2.0,SAN MATEO,1120,4500,1948,12,1205,,Sold,,,http://www.redfin.com/CA/San-Mateo/1311-Carlisle-Dr-94402/home/1247731,MLSListings,ML81689404,N,Y,37.562319,-122.3058819
PAST SALE,December-12-2017,Single Family Residential,875 W Grant Pl,SAN MATEO,CA,94402,1340000,2,1.5,SAN MATEO,970,4275,1940,49,1381,,Sold,,,http://www.redfin.com/CA/San-Mateo/W-Grant-Pl-94402/home/1829370,MLSListings,ML81683208,N,Y,37.5625636,-122.3112373
PAST SALE,December-12-2017,Single Family Residential,1222 Birch Ave,SAN MATEO,CA,94402,1410000,3,1.0,SAN MATEO,1200,4500,1948,49,1175,,Sold,,,http://www.redfin.com/CA/San-Mateo/1222-Birch-Ave-94402/home/1395955,MLSListings,ML81683933,N,Y,37.5620741,-122.3072667
PAST SALE,November-16-2017,Townhouse,812 Ram Ln,FOSTER CITY,CA,94404,1250000,3,2.5,FOSTER CITY,1546,64801,1978,75,809,456,Sold,,,http://www.redfin.com/CA/Foster-City/812-Ram-Ln-94404/unit-3/home/1147478,MLSListings,ML81682813,N,Y,37.5469254,-122.2723723
PAST SALE,November-8-2017,Single Family Residential,2667 Thornhill Dr,SAN CARLOS,CA,94070,1400000,2,2.0,SAN CARLOS,1790,5650,1930,83,782,,Sold,,,http://www.redfin.com/CA/San-Carlos/2667-Thornhill-Dr-94070/home/2050507,MLSListings,ML81677847,N,Y,37.4873279,-122.2656464
PAST SALE,December-8-2017,Single Family Residential,2604 Graceland Ave,SAN CARLOS,CA,94070,3500001,5,3.5,SAN CARLOS,4131,19160,1939,53,847,,Sold,,,http://www.redfin.com/CA/San-Carlos/2604-Graceland-Ave-94070/home/1001105,MLSListings,ML81677130,N,Y,37.4880901,-122.2680536
PAST SALE,January-17-2018,Single Family Residential,563 Palomar Dr,REDWOOD CITY,CA,94062,2050000,5,3.0,REDWOOD CITY,2410,15500,1965,13,851,,Sold,,,http://www.redfin.com/CA/Redwood-City/563-Palomar-Dr-94062/home/796861,MLSListings,ML81686767,N,Y,37.4808936,-122.2678375
PAST SALE,,Single Family Residential,30 Los Cerros Rd,Redwood City,CA,94062,1100000,1,2.0,,1410,26400,1961,,780,,,,,http://www.redfin.com/CA/Redwood-City/30-Los-Cerros-Rd-94062/home/1952410,,,N,Y,37.482142,-122.270851
PAST SALE,November-6-2017,Single Family Residential,2029 Cordilleras Rd,REDWOOD CITY,CA,94062,2100000,4,3.0,REDWOOD CITY,1933,7520,2017,85,1086,,Sold,,,http://www.redfin.com/CA/Emerald-Hills/2029-Cordilleras-Rd-94062/home/143940439,MLSListings,ML81679816,N,Y,37.4735755,-122.2722451
PAST SALE,December-20-2017,Single Family Residential,83 El Vanada Rd,REDWOOD CITY,CA,94062,965000,3,3.0,REDWOOD CITY,1580,10780,1936,41,611,,Sold,,,http://www.redfin.com/CA/Redwood-City/83-El-Vanada-Rd-94062/home/2058042,MLSListings,ML81680260,N,Y,37.4759463,-122.2762296
PAST SALE,November-29-2017,Single Family Residential,8149 Cabrillo Hwy,MONTARA,CA,94037,1500000,2,2.5,MONTARA,1820,6000,1985,62,824,,Sold,,,http://www.redfin.com/CA/Montara/8149-Cabrillo-Hwy-94037/home/2031663,MLSListings,ML81679159,N,Y,37.5456194,-122.5136693
PAST SALE,November-14-2017,Other,1281 Main St,MONTARA,CA,94037,867500,3,2.0,MONTARA,1350,5000,2000,77,643,,Sold,,,http://www.redfin.com/CA/Montara/1281-Main-St-94037/home/1548577,MLSListings,ML81683022,N,Y,37.5429968,-122.5143348
PAST SALE,November-9-2017,Vacant Land,1241 Birch St,MONTARA,CA,94037,350000,,,MONTARA,,6250,,82,,,Sold,,,http://www.redfin.com/CA/Montara/1241-Birch-St-94037/home/112973690,MLSListings,ML81631366,N,Y,37.5397925,-122.5060938
PAST SALE,November-9-2017,Vacant Land,00 Crest Rd,WOODSIDE,CA,94062,2900000,,,WOODSIDE,,43575,,82,,,Sold,,,http://www.redfin.com/CA/Woodside/Crest-Rd-94062/home/143425525,MLSListings,ML81675490,N,Y,37.4460643,-122.2512079
PAST SALE,,Single Family Residential,322 Pacific Ave,Pacifica,CA,94044,835000,4,1.0,,1450,6345,1953,,576,,,,,http://www.redfin.com/CA/Pacifica/322-Pacific-Ave-94044/home/21968322,,,N,Y,37.6318577,-122.4872013
PAST SALE,January-12-2018,Vacant Land,00 Buckingham,PACIFICA,CA,94044,450000,,,PACIFICA,,3150,,18,,,Sold,,,http://www.redfin.com/CA/Pacifica/Buckingham-Way-94044/home/144448748,MLSListings,ML81686452,N,Y,37.6310032,-122.4907932
PAST SALE,January-12-2018,Townhouse,10 Santa Rosa Ave,PACIFICA,CA,94044,1395000,4,3.0,PACIFICA,2225,954,2015,18,627,310,Sold,,,http://www.redfin.com/CA/Pacifica/10-Santa-Rosa-Ave-94044/unit-2/home/28451416,MLSListings,ML81685079,N,Y,37.633182,-122.493801
PAST SALE,January-30-2018,Condo/Co-op,27 Montecito Ave,PACIFICA,CA,94044,1450000,4,3.5,PACIFICA,2094,,2017,1,692,169,Sold,,,http://www.redfin.com/CA/Pacifica/27-Montecito-Ave-94044/home/144107928,MLSListings,ML81689792,N,Y,37.632933,-122.493587
PAST SALE,December-1-2017,Single Family Residential,1835 Louvaine Dr,DALY CITY,CA,94015,882889,5,2.0,DALY CITY,1650,6400,1946,60,535,,Sold,,,http://www.redfin.com/CA/Daly-City/1835-Louvaine-Dr-94015/home/1705036,MLSListings,ML81681654,N,Y,37.690804,-122.4781084
PAST SALE,November-13-2017,Single Family Residential,419 88th St,DALY CITY,CA,94015,920000,3,2.5,DALY CITY,1250,6236,1947,78,736,8,Sold,,,http://www.redfin.com/CA/Daly-City/419-88th-St-94015/home/1561555,MLSListings,ML81679644,N,Y,37.6923421,-122.4773544
PAST SALE,November-21-2017,Single Family Residential,745 Stewart Ave,DALY CITY,CA,94015,920000,3,1.5,DALY CITY,1700,4992,1948,70,541,,Sold,,,http://www.redfin.com/CA/Daly-City/745-Stewart-Ave-94015/home/558333,MLSListings,ML81682415,N,Y,37.6945477,-122.4837529
PAST SALE,December-8-2017,Single Family Residential,198 Fairlawn Ave,DALY CITY,CA,94015,888000,2,1.0,DALY CITY,1220,4160,1953,53,728,,Sold,,,http://www.redfin.com/CA/Daly-City/198-Fairlawn-Ave-94015/home/1929526,MLSListings,ML81683863,N,Y,37.6967751,-122.4940067
PAST SALE,,Single Family Residential,937 Larkspur Dr,Millbrae,CA,94030,1695000,3,2.0,,1800,7986,1966,,942,,,,,http://www.redfin.com/CA/Millbrae/937-Larkspur-Dr-94030/home/1930358,,,N,Y,37.5992613,-122.4173984
PAST SALE,December-6-2017,Single Family Residential,119 Frankfort St,Daly City,CA,94014,830000,2,1.0,Original Daly City,1010,2750,1952,55,822,,Sold,,,http://www.redfin.com/CA/Daly-City/119-Frankfort-St-94014/home/2041984,San Francisco MLS,463379,N,Y,37.706233,-122.4441533
PAST SALE,December-20-2017,Single Family Residential,384 SE BELLEVUE Ave,DALY CITY,CA,94014,750000,2,2.0,DALY CITY,890,115434000,1955,41,843,,Sold,,,http://www.redfin.com/CA/Daly-City/384-Bellevue-Ave-94014/home/1300149,MLSListings,ML81683973,N,Y,37.706139,-122.4482086
PAST SALE,January-24-2018,Townhouse,1713 Hampton Ln,DALY CITY,CA,94014,735000,2,2.0,DALY CITY,969,1412719,1985,6,759,366,Sold,,,http://www.redfin.com/CA/Daly-City/1713-Hampton-Ln-94014/unit-25/home/1326476,MLSListings,ML81687635,N,Y,37.7029551,-122.444121
PAST SALE,November-17-2017,Single Family Residential,3 Oceanside Dr,DALY CITY,CA,94015,870000,3,2.0,DALY CITY,1120,3300,1958,74,777,,Sold,,,http://www.redfin.com/CA/Daly-City/3-Oceanside-Dr-94015/home/2026007,MLSListings,ML81680269,N,Y,37.6749772,-122.4908131
PAST SALE,November-11-2017,Single Family Residential,751 Skyline Dr,DALY CITY,CA,94015,765000,3,2.0,DALY CITY,1150,3300,1958,80,665,,Sold,,,http://www.redfin.com/CA/Daly-City/Skyline-Dr-94015/home/1512295,MLSListings,ML81679132,N,Y,37.6736261,-122.4892759
PAST SALE,,Single Family Residential,725 Skyline Dr,Daly City,CA,94015,377500,3,2.0,,1280,3300,1958,,295,,,,,http://www.redfin.com/CA/Daly-City/725-Skyline-Dr-94015/home/1439936,,,N,Y,37.6744934,-122.4896383
PAST SALE,November-22-2017,Single Family Residential,793 Skyline Dr,DALY CITY,CA,94015,865000,3,2.0,DALY CITY,1150,3400,1958,69,752,,Sold,,,http://www.redfin.com/CA/Daly-City/793-Skyline-Dr-94015/home/2035925,MLSListings,ML81681255,N,Y,37.6723081,-122.4887149
PAST SALE,,Single Family Residential,854 Skyline Dr,Daly City,CA,94015,980000,3,3.0,,1150,3300,1962,,852,,,,,http://www.redfin.com/CA/Daly-City/854-Skyline-Dr-94015/home/1244331,,,N,Y,37.6702924,-122.4881005
PAST SALE,January-11-2018,Single Family Residential,15 San Juan Ave,DALY CITY,CA,94015,940000,6,3.0,DALY CITY,1900,3400,1960,19,495,,Sold,,,http://www.redfin.com/CA/Daly-City/15-San-Juan-Ave-94015/home/578304,MLSListings,ML81686966,N,Y,37.6731381,-122.481483
PAST SALE,December-15-2017,Single Family Residential,58 Monterey Dr,DALY CITY,CA,94015,903888,3,1.0,DALY CITY,1130,3400,1959,46,800,,Sold,,,http://www.redfin.com/CA/Daly-City/58-Monterey-Dr-94015/home/572244,MLSListings,ML81685063,N,Y,37.6798133,-122.4862504
PAST SALE,January-19-2018,Single Family Residential,228 E Mariposa Ave,DALY CITY,CA,94015,835000,4,2.0,DALY CITY,1270,3400,1959,11,657,,Sold,,,http://www.redfin.com/CA/Daly-City/228-Mariposa-Ave-94015/home/572045,MLSListings,ML81681204,N,Y,37.6783379,-122.4827294
PAST SALE,January-19-2018,Single Family Residential,44 Perita Dr,DALY CITY,CA,94015,1150000,4,3.0,DALY CITY,1950,3300,1959,11,590,,Sold,,,http://www.redfin.com/CA/Daly-City/44-Perita-Dr-94015/home/1990220,MLSListings,ML81682665,N,Y,37.6751564,-122.4827753
PAST SALE,December-8-2017,Single Family Residential,3 Grandview Ave,DALY CITY,CA,94015,938000,3,2.0,DALY CITY,1160,3675,1959,53,809,,Sold,,,http://www.redfin.com/CA/Daly-City/3-Grandview-Ave-94015/home/1337960,MLSListings,ML81683688,N,Y,37.6752047,-122.4855835
PAST SALE,December-28-2017,Single Family Residential,687 Skyline Dr,DALY CITY,CA,94015,822000,3,2.0,DALY CITY,1150,3300,1958,33,715,,Sold,,,http://www.redfin.com/CA/Daly-City/687-Skyline-Dr-94015/home/1747033,MLSListings,ML81685463,N,Y,37.6758711,-122.4902224
PAST SALE,December-18-2017,Single Family Residential,96 Rockridge Ave,DALY CITY,CA,94015,871000,3,2.0,DALY CITY,1160,3300,1959,43,751,,Sold,,,http://www.redfin.com/CA/Daly-City/96-Rockridge-Ave-94015/home/2040073,MLSListings,ML81684960,N,Y,37.6784068,-122.4890368
PAST SALE,December-21-2017,Single Family Residential,42 Southdale Ave,DALY CITY,CA,94015,915000,4,2.0,DALY CITY,1240,3400,1960,40,738,,Sold,,,http://www.redfin.com/CA/Daly-City/42-Southdale-Ave-94015/home/573617,MLSListings,ML81683288,N,Y,37.6749,-122.486439
PAST SALE,November-3-2017,Single Family Residential,291 Hampshire Ct,DALY CITY,CA,94015,1218000,3,2.5,DALY CITY,1985,3135,1973,88,614,,Sold,,,http://www.redfin.com/CA/Daly-City/291-Hampshire-Ct-94015/home/1317195,MLSListings,ML81682226,N,Y,37.6538169,-122.4578871
PAST SALE,November-14-2017,Single Family Residential,2312 Shannon Dr,SOUTH SAN FRANCISCO,CA,94080,1410000,4,2.5,SOUTH SAN FRANCISCO,2140,6000,1968,77,659,,Sold,,,http://www.redfin.com/CA/South-San-Francisco/2312-Shannon-Dr-94080/home/2055458,MLSListings,ML81680364,N,Y,37.6401981,-122.4576819
PAST SALE,November-14-2017,Condo/Co-op,1 Appian Way Unit 704-6,SOUTH SAN FRANCISCO,CA,94080,636000,3,2.0,SOUTH SAN FRANCISCO,1473,287030,1979,77,432,696,Sold,,,http://www.redfin.com/CA/South-San-Francisco/1-Appian-Way-94080/unit-704-6/home/2034961,MLSListings,ML81682109,N,Y,37.6432444,-122.4512117
PAST SALE,November-23-2017,Single Family Residential,54 Plymouth Cir,DALY CITY,CA,94015,1030000,3,3.0,DALY CITY,1740,4620,1973,68,592,,Sold,,,http://www.redfin.com/CA/Daly-City/54-Plymouth-Cir-94015/home/2017777,MLSListings,ML81680735,N,Y,37.6527761,-122.4560884
PAST SALE,November-20-2017,Single Family Residential,3937 Geddes Ct,SOUTH SAN FRANCISCO,CA,94080,935000,3,2.0,SOUTH SAN FRANCISCO,1530,2625,1973,71,611,,Sold,,,http://www.redfin.com/CA/South-San-Francisco/3937-Geddes-Ct-94080/home/1803544,MLSListings,ML81681901,N,Y,37.6491414,-122.4580206
PAST SALE,November-21-2017,Single Family Residential,195 Warwick St,DALY CITY,CA,94015,1270000,4,3.0,DALY CITY,2575,4059,1969,70,493,,Sold,,,http://www.redfin.com/CA/Daly-City/195-Warwick-St-94015/home/1083417,MLSListings,ML81681016,N,Y,37.6523664,-122.4644561
PAST SALE,December-22-2017,Condo/Co-op,2250 Gellert Blvd Apt 2410,SOUTH SAN FRANCISCO,CA,94080,848000,2,2.0,SOUTH SAN FRANCISCO,1082,,2008,39,784,388,Sold,,,http://www.redfin.com/CA/South-San-Francisco/2250-Gellert-Blvd-94080/unit-2410/home/144409915,MLSListings,ML81686080,N,Y,37.6451136,-122.454156
PAST SALE,December-29-2017,Condo/Co-op,1 Appian Way Unit 708-8,SOUTH SAN FRANCISCO,CA,94080,615000,3,2.0,SOUTH SAN FRANCISCO,1273,287030,1979,32,483,696,Sold,,,http://www.redfin.com/CA/South-San-Francisco/1-Appian-Way-94080/unit-708-8/home/949755,MLSListings,ML81674325,N,Y,37.6432444,-122.4512117
PAST SALE,January-4-2018,Single Family Residential,417 Mariposa Dr,SOUTH SAN FRANCISCO,CA,94080,1250000,4,3.5,SOUTH SAN FRANCISCO,1710,6180,1959,26,731,,Sold,,,http://www.redfin.com/CA/South-San-Francisco/417-Mariposa-Dr-94080/home/1198421,MLSListings,ML81686693,N,Y,37.6423393,-122.4397728
PAST SALE,November-3-2017,Townhouse,1 Appian Way Unit 714-6,SOUTH SAN FRANCISCO,CA,94080,636800,3,2.0,SOUTH SAN FRANCISCO,1473,287030,1979,88,432,696,Sold,,,http://www.redfin.com/CA/South-San-Francisco/1-Appian-Way-94080/unit-714-6/home/1352767,MLSListings,ML81679660,N,Y,37.6432444,-122.4512117
PAST SALE,December-15-2017,Single Family Residential,76 Camelot Ct,DALY CITY,CA,94015,1085000,4,2.0,DALY CITY,1650,4554,1973,46,658,,Sold,,,http://www.redfin.com/CA/Daly-City/76-Camelot-Ct-94015/home/1803549,MLSListings,ML81684328,N,Y,37.650962,-122.4598158
PAST SALE,,Single Family Residential,2475 Bantry Ln,South San Francisco,CA,94080,587500,3,3.0,,2350,5000,1962,,250,,,,,http://www.redfin.com/CA/South-San-Francisco/2475-Bantry-Ln-94080/home/1325168,,,N,Y,37.6427683,-122.4594754
PAST SALE,December-22-2017,Condo/Co-op,2220 Gellert Blvd #4203,SOUTH SAN FRANCISCO,CA,94080,772000,2,2.0,SOUTH SAN FRANCISCO,1026,38497,2006,39,752,384,Sold,,,http://www.redfin.com/CA/South-San-Francisco/2220-Gellert-Blvd-94080/unit-4203/home/17307454,MLSListings,ML81684860,N,Y,37.6466885,-122.4537719
PAST SALE,,Single Family Residential,2401 Olympic Dr,South San Francisco,CA,94080,218000,4,2.0,,1500,6000,1963,,145,,,,,http://www.redfin.com/CA/South-San-Francisco/2401-Olympic-Dr-94080/home/2027697,,,N,Y,37.6407654,-122.4539372
PAST SALE,January-18-2018,Single Family Residential,2400 San Carlos Ave,SAN CARLOS,CA,94070,1685000,3,2.0,SAN CARLOS,1390,10208,1941,12,1212,,Sold,,,http://www.redfin.com/CA/San-Carlos/2400-San-Carlos-Ave-94070/home/1433715,MLSListings,ML81686031,N,Y,37.5029074,-122.2789362
PAST SALE,November-14-2017,Condo/Co-op,2140 Santa Cruz Ave Unit A207,MENLO PARK,CA,94025,690000,1,1.0,MENLO PARK,760,84294,1978,77,908,600,Sold,,,http://www.redfin.com/CA/Menlo-Park/2140-Santa-Cruz-Ave-94025/unit-A207/home/1961008,MLSListings,ML81676232,N,Y,37.426409,-122.19473
PAST SALE,December-21-2017,Condo/Co-op,2140 Santa Cruz Ave Unit A103,MENLO PARK,CA,94025,910000,2,2.0,MENLO PARK,1140,,1978,40,798,750,Sold,,,http://www.redfin.com/CA/Menlo-Park/2140-Santa-Cruz-Ave-94025/unit-A103/home/105497047,MLSListings,ML81686910,N,Y,37.426409,-122.19473
PAST SALE,December-11-2017,Single Family Residential,300 Bowfin St,FOSTER CITY,CA,94404,1790000,3,2.0,FOSTER CITY,1700,7605,1968,50,1053,,Sold,,,http://www.redfin.com/CA/Foster-City/300-Bowfin-St-94404/home/934037,MLSListings,ML81683720,N,Y,37.5553954,-122.2554251
PAST SALE,December-8-2017,Townhouse,1020 Helm Ln,FOSTER CITY,CA,94404,1540000,3,2.5,FOSTER CITY,1530,974,1996,53,1007,435,Sold,,,http://www.redfin.com/CA/Foster-City/1020-Helm-Ln-94404/home/2053690,MLSListings,ML81684339,N,Y,37.5468649,-122.2558244
PAST SALE,December-20-2017,Single Family Residential,522 Carlos Ave,REDWOOD CITY,CA,94061,915000,3,2.0,REDWOOD CITY,1290,3978,1907,41,709,,Sold,,,http://www.redfin.com/CA/Redwood-City/522-Carlos-Ave-94061/home/1802465,MLSListings,ML81674365,N,Y,37.4671384,-122.2197498
PAST SALE,November-28-2017,Townhouse,820 Portwalk Pl,Redwood Shores,CA,94065,1305000,3,2.5,Redwood Shores,1494,450612,1987,63,873,579,Sold,,,http://www.redfin.com/CA/Redwood-City/820-Port-Walk-Pl-94065/home/2001057,MLSListings,ML81681679,N,Y,37.537021,-122.252545
PAST SALE,November-15-2017,Single Family Residential,66 Robinson Dr,Daly City,CA,94014,925000,3,1.0,Southern Hills,1270,4200,1953,76,728,,Sold,,,http://www.redfin.com/CA/Daly-City/66-Robinson-Dr-94014/home/1545730,San Francisco MLS,463681,N,Y,37.7078076,-122.4289065
PAST SALE,December-29-2017,Condo/Co-op,1003 San Antonio Cir #201,Daly City,CA,94014,500000,1,1.0,Southern Hills,655,,1986,32,763,355,Sold,,,http://www.redfin.com/CA/Daly-City/1003-San-Antonio-Cir-94014/unit-201/home/2051686,San Francisco MLS,465419,N,Y,37.70614,-122.441186
PAST SALE,December-6-2017,Single Family Residential,61 Alta Vista Way,DALY CITY,CA,94014,1150000,3,2.0,DALY CITY,1710,3774,1964,55,673,,Sold,,,http://www.redfin.com/CA/Daly-City/61-Alta-Vista-Way-94014/home/1112936,MLSListings,ML81684460,N,Y,37.7044039,-122.431781
PAST SALE,January-9-2018,Single Family Residential,292 Alta Vista Way,DALY CITY,CA,94014,1201888,3,3.0,DALY CITY,1640,3300,1964,21,733,,Sold,,,http://www.redfin.com/CA/Daly-City/292-Alta-Vista-Way-94014/home/1695885,MLSListings,ML81686735,N,Y,37.7041909,-122.44151
PAST SALE,January-12-2018,Single Family Residential,254 Alta Vista Way,Daly City,CA,94014,1190000,4,3.0,Southern Hills,1800,5544,1964,18,661,,Sold,,,http://www.redfin.com/CA/Daly-City/254-Alta-Vista-Way-94014/home/2017755,EBRD/CCAR/Bay East,40805305,N,Y,37.7041997,-122.4402454
PAST SALE,November-2-2017,Single Family Residential,340 Northgate Dr,Daly City,CA,94015,1325000,3,2.0,San Mateo County,1890,3537,1954,89,701,,Sold,,,http://www.redfin.com/CA/Daly-City/340-Northgate-Ave-94015/home/1382573,BAREIS,21722319,N,Y,37.7025394,-122.4947373
PAST SALE,November-24-2017,Single Family Residential,59 Fairmont Dr,Daly City,CA,94015,1280000,4,1.5,Westlake #1/Olympic,1770,3400,1952,67,723,,Sold,,,http://www.redfin.com/CA/Daly-City/59-Fairmont-Dr-94015/home/1604024,San Francisco MLS,464155,N,Y,37.7012806,-122.4932942
PAST SALE,December-4-2017,Single Family Residential,249 Glenwood Ave,DALY CITY,CA,94015,865000,2,1.0,DALY CITY,940,3300,1953,57,920,,Sold,,,http://www.redfin.com/CA/Daly-City/249-Glenwood-Ave-94015/home/2052772,MLSListings,ML81682298,N,Y,37.7002856,-122.4912071
PAST SALE,January-4-2018,Single Family Residential,243 Glenwood Ave,DALY CITY,CA,94015,1222000,3,1.5,DALY CITY,1749,3300,1953,26,699,,Sold,,,http://www.redfin.com/CA/Daly-City/243-Glenwood-Ave-94015/home/551960,MLSListings,ML81683238,N,Y,37.7002809,-122.491085
PAST SALE,January-23-2018,Single Family Residential,301 Northgate Ave,DALY CITY,CA,94015,1260000,3,2.0,DALY CITY,1670,4700,1953,7,754,,Sold,,,http://www.redfin.com/CA/Daly-City/301-Northgate-Ave-94015/home/1289946,MLSListings,ML81686373,N,Y,37.7021534,-122.4937263
PAST SALE,January-3-2018,Single Family Residential,160 Wilshire Ave,DALY CITY,CA,94015,1475000,4,3.5,DALY CITY,1780,4797,1950,27,829,,Sold,,,http://www.redfin.com/CA/Daly-City/160-Wilshire-Ave-94015/home/1075673,MLSListings,ML81686026,N,Y,37.707348,-122.478146
PAST SALE,November-2-2017,Condo/Co-op,1396 El Camino Real #210,MILLBRAE,CA,94030,795000,2,2.0,MILLBRAE,926,37089,1980,89,859,417,Sold,,,http://www.redfin.com/CA/Millbrae/1396-El-Camino-Real-94030/unit-210/home/1737926,MLSListings,ML81677689,N,Y,37.6107338,-122.4010926
PAST SALE,December-12-2017,Single Family Residential,939 Palmito Dr,MILLBRAE,CA,94030,1438000,3,2.0,MILLBRAE,1620,5000,1946,49,888,,Sold,,,http://www.redfin.com/CA/Millbrae/939-Palmito-Dr-94030/home/2038717,MLSListings,ML81681238,N,Y,37.6110955,-122.4031364
PAST SALE,January-3-2018,Single Family Residential,305 San Anselmo Ave,SAN BRUNO,CA,94066,1100000,3,1.5,SAN BRUNO,1140,6030,1952,27,965,,Sold,,,http://www.redfin.com/CA/San-Bruno/305-San-Anselmo-Ave-S-94066/home/2010766,MLSListings,ML81684951,N,Y,37.6172242,-122.4051894
PAST SALE,December-27-2017,Condo/Co-op,1396 El Camino Real #108,MILLBRAE,CA,94030,775000,2,2.0,MILLBRAE,1122,37089,1980,34,691,435,Sold,,,http://www.redfin.com/CA/Millbrae/1396-El-Camino-Real-94030/unit-108/home/1102657,MLSListings,ML81683762,N,Y,37.6107338,-122.4010926
PAST SALE,January-29-2018,Condo/Co-op,1396 El Camino Real #110,MILLBRAE,CA,94030,730000,2,2.0,MILLBRAE,926,37089,1980,1,788,418,Sold,,,http://www.redfin.com/CA/Millbrae/1396-El-Camino-Real-94030/unit-110/home/2038140,MLSListings,ML81685899,N,Y,37.6107338,-122.4010926
PAST SALE,December-5-2017,Condo/Co-op,373 Half Moon Ln #101,Daly City,CA,94105,470000,1,1.0,Crown Colony,717,,1974,56,656,356,Sold,,,http://www.redfin.com/CA/Daly-City/373-Half-Moon-Ln-94015/unit-101/home/1602265,San Francisco MLS,464262,N,Y,37.6652559,-122.4645244
PAST SALE,December-28-2017,Condo/Co-op,395 Imperial Way #122,DALY CITY,CA,94015,365000,0,1.0,DALY CITY,483,1057906,1974,33,756,334,Sold,,,http://www.redfin.com/CA/Daly-City/395-Imperial-Way-94015/unit-122/home/1968754,MLSListings,ML81682056,N,Y,37.6640368,-122.4628771
PAST SALE,,Single Family Residential,375 Milagra Dr,Pacifica,CA,94044,570000,3,1.0,,1010,7350,1954,,564,,,,,http://www.redfin.com/CA/Pacifica/375-Milagra-Dr-94044/home/1739520,,,N,Y,37.6450574,-122.4844438
PAST SALE,November-28-2017,Single Family Residential,211 Milagra Dr,PACIFICA,CA,94044,890000,3,1.0,PACIFICA,990,5600,1949,63,899,,Sold,,,http://www.redfin.com/CA/Pacifica/211-Milagra-Dr-94044/home/588371,MLSListings,ML81682322,N,Y,37.6459138,-122.4894987
PAST SALE,December-13-2017,Single Family Residential,416 Fremont Ave,PACIFICA,CA,94044,955000,3,2.0,PACIFICA,980,5525,1948,48,974,,Sold,,,http://www.redfin.com/CA/Pacifica/416-Fremont-Ave-94044/home/1347017,MLSListings,ML81684298,N,Y,37.6500969,-122.4871603
PAST SALE,,Single Family Residential,334 Imperial Dr,Pacifica,CA,94044,800000,3,1.0,,1350,4000,1964,,593,,,,,http://www.redfin.com/CA/Pacifica/334-Imperial-Dr-94044/home/1355477,,,N,Y,37.6568312,-122.478006
PAST SALE,November-30-2017,Single Family Residential,103 Somerset,REDWOOD CITY,CA,94062,3108000,4,3.0,REDWOOD CITY,2850,6782,2017,61,1091,,Sold,,,http://www.redfin.com/CA/Redwood-City/103-Somerset-St-94062/home/1919951,MLSListings,ML81682493,N,Y,37.4869362,-122.2468513
PAST SALE,December-12-2017,Single Family Residential,552 Seastorm Ct,Redwood Shores,CA,94065,1730000,3,2.0,Redwood Shores,1550,4705,1996,49,1116,174,Sold,,,http://www.redfin.com/CA/Redwood-City/552-Seastorm-Dr-94065/home/2027853,MLSListings,ML81684493,N,Y,37.5390526,-122.2356122
PAST SALE,December-20-2017,Single Family Residential,501 Breakwater Dr,Redwood Shores,CA,94065,1899000,4,2.5,Redwood Shores,1860,3298,1995,41,1021,174,Sold,,,http://www.redfin.com/CA/Redwood-City/501-Breakwater-Dr-94065/home/941631,MLSListings,ML81676525,N,Y,37.5400347,-122.2378694
PAST SALE,November-17-2017,Condo/Co-op,200 Baltic Cir #226,REDWOOD CITY,CA,94065,980000,2,2.5,REDWOOD CITY,1049,314412,1996,74,934,416,Sold,,,http://www.redfin.com/CA/Redwood-City/200-Baltic-Cir-94065/unit-226/home/994484,MLSListings,ML81679516,N,Y,37.5390712,-122.2411125
PAST SALE,November-6-2017,Condo/Co-op,74 Cape Hatteras Ct,REDWOOD CITY,CA,94065,1300000,2,2.0,REDWOOD CITY,1359,358836,1979,85,957,342,Sold,,,http://www.redfin.com/CA/Redwood-City/74-Cape-Hatteras-Ct-94065/unit-69/home/1839565,MLSListings,ML81682330,N,Y,37.53537,-122.246078
PAST SALE,November-9-2017,Condo/Co-op,701 Baltic Cir #733,Redwood Shores,CA,94065,858000,2,1.5,Redwood Shores,927,314412,1996,82,926,406,Sold,,,http://www.redfin.com/CA/Redwood-City/701-Baltic-Cir-94065/unit-733/home/1603794,MLSListings,ML81682053,N,Y,37.5388052,-122.2409907
PAST SALE,November-17-2017,Townhouse,105 Mendocino Way,REDWOOD CITY,CA,94065,1360000,3,2.5,REDWOOD CITY,1874,185764,1989,74,726,869,Sold,,,http://www.redfin.com/CA/Redwood-City/105-Mendocino-Way-94065/home/1157864,MLSListings,ML81681728,N,Y,37.5363,-122.240896
PAST SALE,December-18-2017,Condo/Co-op,406 Barnegat Ln,REDWOOD CITY,CA,94065,830000,2,1.0,REDWOOD CITY,987,358836,1979,43,841,325,Sold,,,http://www.redfin.com/CA/Redwood-City/406-Barnegat-Ln-94065/unit-30/home/113806169,MLSListings,ML81684515,N,Y,37.5360053,-122.2465346
PAST SALE,,Condo/Co-op,406 Barnegat Ln #30,Redwood City,CA,94065,830000,1,1.0,,987,,1979,,841,,,,,http://www.redfin.com/CA/Redwood-City/406-Barnegat-Ln-94065/unit-30/home/988436,,,N,Y,37.5360053,-122.2465346
PAST SALE,,Single Family Residential,56 Williams Ln,Foster City,CA,94404,906000,3,2.0,,1670,3551,1986,,543,,,,,http://www.redfin.com/CA/Foster-City/56-Williams-Ln-94404/home/1992564,,,N,Y,37.5355795,-122.2675101
PAST SALE,December-1-2017,Single Family Residential,120 San Felipe Ave,SOUTH SAN FRANCISCO,CA,94080,1070000,3,2.0,SOUTH SAN FRANCISCO,1518,5550,1955,60,705,,Sold,,,http://www.redfin.com/CA/South-San-Francisco/120-San-Felipe-Ave-94080/home/2040137,MLSListings,ML81682877,N,Y,37.6581964,-122.4478467
PAST SALE,November-30-2017,Single Family Residential,205 Alta Loma Dr,SOUTH SAN FRANCISCO,CA,94080,1419000,4,3.5,SOUTH SAN FRANCISCO,2860,4606,1947,61,496,,Sold,,,http://www.redfin.com/CA/South-San-Francisco/205-Alta-Loma-Dr-94080/home/1972124,MLSListings,ML81668049,N,Y,37.6575924,-122.4396568
PAST SALE,,Condo/Co-op,1246 Edmonson Way,South San Francisco,CA,94080,1010000,,,,,,,,,,,,,http://www.redfin.com/CA/South-San-Francisco/1246-Edmonson-Way-94080/home/143267842,,,N,Y,37.6634995,-122.4412344
PAST SALE,,Single Family Residential,210 Camaritas Ave,South San Francisco,CA,94080,910000,2,1.0,,1150,4675,1947,,791,,,,,http://www.redfin.com/CA/South-San-Francisco/210-Camaritas-Ave-94080/home/1622045,,,N,Y,37.6568685,-122.4417002
PAST SALE,December-15-2017,Townhouse,1341 Mission Rd,SOUTH SAN FRANCISCO,CA,94080,825000,2,2.5,SOUTH SAN FRANCISCO,1290,624,2004,46,640,310,Sold,,,http://www.redfin.com/CA/South-San-Francisco/1341-Mission-Rd-94080/home/1008651,MLSListings,ML81684315,N,Y,37.6665337,-122.4463826
PAST SALE,,Condo/Co-op,320 Palo Alto Ave Apt C3,Palo Alto,CA,94301,1590000,2,2.0,,1346,,1974,,1181,,,,,http://www.redfin.com/CA/Palo-Alto/320-Palo-Alto-Ave-94301/unit-C3/home/1094458,,,N,Y,37.4501851,-122.1672037
PAST SALE,November-6-2017,Single Family Residential,1665 Tulane Ave,EAST PALO ALTO,CA,94303,820000,3,1.0,EAST PALO ALTO,1240,6300,1953,85,661,,Sold,,,http://www.redfin.com/CA/East-Palo-Alto/1665-Tulane-Ave-94303/home/2032299,MLSListings,ML81676585,N,Y,37.4814628,-122.1383534
PAST SALE,November-8-2017,Single Family Residential,2410 Illinois St,EAST PALO ALTO,CA,94303,875000,6,3.0,EAST PALO ALTO,3200,6000,1952,83,273,,Sold,,,http://www.redfin.com/CA/East-Palo-Alto/2410-Illinois-St-94303/home/2006103,MLSListings,ML81676344,N,Y,37.4722486,-122.135067
PAST SALE,December-4-2017,Single Family Residential,761 Bain Pl,REDWOOD CITY,CA,94062,3200000,4,4.0,REDWOOD CITY,4000,10000,2017,57,800,,Sold,,,http://www.redfin.com/CA/Redwood-City/761-Bain-Pl-94062/home/109581426,MLSListings,ML81679989,N,Y,37.469687,-122.255979
PAST SALE,December-13-2017,Single Family Residential,985 Cambridge Rd,REDWOOD CITY,CA,94061,1820000,3,2.5,REDWOOD CITY,1840,7980,1958,48,989,,Sold,,,http://www.redfin.com/CA/Redwood-City/985-Cambridge-Rd-94061/home/836506,MLSListings,ML81687014,N,Y,37.4552765,-122.2537311
PAST SALE,November-13-2017,Condo/Co-op,1 Baldwin Ave #801,SAN MATEO,CA,94401,465170,1,1.0,SAN MATEO,1000,,1988,78,465,3682,Sold,,,http://www.redfin.com/CA/San-Mateo/1-Baldwin-Ave-94401/unit-801/home/1934083,MLSListings,ML81642645,N,Y,37.5660832,-122.3279327
PAST SALE,November-15-2017,Condo/Co-op,10 Tidal Way,SAN MATEO,CA,94401,1149645,3,2.5,SAN MATEO,1608,,2017,76,715,326,Sold,,,http://www.redfin.com/CA/SAN-MATEO/10-Tidal-Way-94401/home/143851532,MLSListings,ML81678856,N,Y,37.5793536,-122.3164207
PAST SALE,November-3-2017,Condo/Co-op,324 Catalpa St #120,SAN MATEO,CA,94401,365000,1,1.0,SAN MATEO,640,27645,1983,88,570,296,Sold,,,http://www.redfin.com/CA/San-Mateo/324-Catalpa-St-94401/unit-120/home/1570137,MLSListings,ML81679907,N,Y,37.5698663,-122.3266858
PAST SALE,November-1-2017,Condo/Co-op,50 N San Mateo Dr #103,San Mateo,CA,94401,610000,1,1.0,San Mateo,858,40641,1978,90,711,465,Sold,,,http://www.redfin.com/CA/San-Mateo/50-N-San-Mateo-Dr-94401/unit-103/home/2056719,EBRD/CCAR/Bay East,40797042,N,Y,37.5682093,-122.327105
PAST SALE,November-14-2017,Condo/Co-op,800 N Delaware St #306,SAN MATEO,CA,94401,615000,1,1.0,SAN MATEO,693,,1961,77,887,420,Sold,,,http://www.redfin.com/CA/San-Mateo/800-N-Delaware-St-94401/unit-306/home/17308740,MLSListings,ML81679763,N,Y,37.5788513,-122.3318839
PAST SALE,,Single Family Residential,908 N Humboldt St,San Mateo,CA,94401,400000,2,1.0,,1190,7650,1925,,336,,,,,http://www.redfin.com/CA/San-Mateo/908-N-Humboldt-St-94401/home/1034598,,,N,Y,37.583632,-122.331056
PAST SALE,November-28-2017,Condo/Co-op,1 Baldwin #406,SAN MATEO,CA,94401,395000,1,1.0,SAN MATEO,930,86325,1988,63,425,3682,Sold,,,http://www.redfin.com/CA/San-Mateo/1-Baldwin-Ave-94401/unit-406/home/979896,MLSListings,ML81647699,N,Y,37.5660832,-122.3279327
PAST SALE,December-29-2017,Condo/Co-op,200 Elm St #107,SAN MATEO,CA,94401,641000,1,1.0,SAN MATEO,865,39501,1962,32,741,300,Sold,,,http://www.redfin.com/CA/San-Mateo/200-Elm-St-94401/unit-107/home/17308125,MLSListings,ML81686040,N,Y,37.5692833,-122.3307428
PAST SALE,January-4-2018,Single Family Residential,208 Peninsula Ave,BURLINGAME,CA,94010,1840000,2,1.0,BURLINGAME,840,4876,1910,26,2190,,Sold,,,http://www.redfin.com/CA/Burlingame/208-Peninsula-Ave-94010/home/693342,MLSListings,ML81688010,N,Y,37.5818519,-122.3328954
PAST SALE,January-16-2018,Multi-Family (2-4 Unit),700 N Humboldt St,SAN MATEO,CA,94401,1650000,4,,SAN MATEO,2224,5300,1955,14,742,,Sold,,,http://www.redfin.com/CA/San-Mateo/700-N-Humboldt-St-94401/home/1218905,MLSListings,ML81680418,N,Y,37.580311,-122.327668
PAST SALE,January-18-2018,Single Family Residential,29 N Idaho St,SAN MATEO,CA,94401,1150000,3,1.0,SAN MATEO,1030,7850,1946,12,1117,,Sold,,,http://www.redfin.com/CA/San-Mateo/29-N-Idaho-St-94401/home/1256474,MLSListings,ML81684630,N,Y,37.573577,-122.3191662
PAST SALE,January-19-2018,Condo/Co-op,24 Tidal Way,SAN MATEO,CA,94401,999990,2,2.5,SAN MATEO,1235,,2017,11,810,326,Sold,,,http://www.redfin.com/CA/SAN-MATEO/24-Tidal-Way-94401/home/144397641,MLSListings,ML81685880,N,Y,37.578618,-122.321249
PAST SALE,November-20-2017,Single Family Residential,879 Constitution Dr,FOSTER CITY,CA,94404,1550000,4,2.0,FOSTER CITY,1770,5264,1964,71,876,,Sold,,,http://www.redfin.com/CA/Foster-City/879-Constitution-Dr-94404/home/1297098,MLSListings,ML81678083,N,Y,37.5597475,-122.2584913
PAST SALE,November-30-2017,Single Family Residential,380 Lowell Ave,SAN BRUNO,CA,94066,1375000,3,2.5,SAN BRUNO,1790,6460,1959,61,768,,Sold,,,http://www.redfin.com/CA/San-Bruno/380-Lowell-Ave-94066/home/1189692,MLSListings,ML81679769,N,Y,37.6149697,-122.4310238
PAST SALE,,Single Family Residential,421 Madison Ave,San Bruno,CA,94066,193000,3,2.0,,1560,5618,1958,,124,,,,,http://www.redfin.com/CA/San-Bruno/421-Madison-Ave-94066/home/1998253,,,N,Y,37.6159864,-122.4314189
PAST SALE,November-16-2017,Single Family Residential,2685 Halsey Ave,REDWOOD CITY,CA,94063,865000,3,1.0,REDWOOD CITY,1070,5000,1951,75,808,,Sold,,,http://www.redfin.com/CA/Redwood-City/2685-Halsey-Ave-94063/home/1830473,MLSListings,ML81680335,N,Y,37.4796989,-122.2097654
PAST SALE,November-15-2017,Single Family Residential,98 Cebalo Ln,ATHERTON,CA,94027,2310000,3,2.0,ATHERTON,2010,14810,1958,76,1149,,Sold,,,http://www.redfin.com/CA/Atherton/98-Cebalo-Ln-94027/home/843155,MLSListings,ML81677257,N,Y,37.4690594,-122.212177
PAST SALE,November-21-2017,Single Family Residential,107 Northumberland Ave,REDWOOD CITY,CA,94063,700000,2,1.0,REDWOOD CITY,720,2775,1954,70,972,,Sold,,,http://www.redfin.com/CA/Redwood-City/107-Northumberland-Ave-94063/home/2009265,MLSListings,ML81676278,N,Y,37.4743106,-122.2161562
PAST SALE,November-28-2017,Single Family Residential,57 Oakwood Dr,REDWOOD CITY,CA,94061,1275001,3,2.5,REDWOOD CITY,1640,2829,2007,63,777,,Sold,,,http://www.redfin.com/CA/Redwood-City/57-Oakwood-Dr-94061/home/17307639,MLSListings,ML81680636,N,Y,37.4696174,-122.214178
PAST SALE,November-30-2017,Multi-Family (2-4 Unit),2820-2822 Curtis Ave,REDWOOD CITY,CA,94063,698000,4,,REDWOOD CITY,1140,2500,1958,61,612,,Sold,,,http://www.redfin.com/CA/Redwood-City/2822-Curtis-Ave-94063/home/1202036,MLSListings,ML81612142,N,Y,37.4742274,-122.2108225
PAST SALE,,Single Family Residential,505 Douglas Ave,Redwood City,CA,94063,80000,2,2.0,,1185,5000,1920,,68,,,,,http://www.redfin.com/CA/Redwood-City/505-Douglas-Ave-94063/home/816682,,,N,Y,37.4787831,-122.2122593
PAST SALE,,Single Family Residential,101 Markham Ave,Redwood City,CA,94063,400000,2,1.0,,840,6400,1939,,476,,,,,http://www.redfin.com/CA/Redwood-City/101-Markham-Ave-94063/home/1015614,,,N,Y,37.470471,-122.210136
PAST SALE,December-19-2017,Single Family Residential,604 Charter St,REDWOOD CITY,CA,94063,1160000,3,2.5,REDWOOD CITY,1730,5001,1947,42,671,,Sold,,,http://www.redfin.com/CA/Redwood-City/604-Charter-St-94063/home/1892222,MLSListings,ML81683690,N,Y,37.4803967,-122.2150417
PAST SALE,November-22-2017,Single Family Residential,227 Finger Ave,REDWOOD CITY,CA,94062,1375000,2,1.0,REDWOOD CITY,1050,5000,1923,69,1310,,Sold,,,http://www.redfin.com/CA/Redwood-City/227-Finger-Ave-94062/home/2059101,MLSListings,ML81683517,N,Y,37.4898264,-122.2465551
PAST SALE,January-8-2018,Single Family Residential,43 Stanford Ln,SAN CARLOS,CA,94070,2110000,3,2.0,SAN CARLOS,2070,9240,1953,22,1019,,Sold,,,http://www.redfin.com/CA/San-Carlos/43-Stanford-Ln-94070/home/2014691,MLSListings,ML81686639,N,Y,37.490576,-122.2485922
PAST SALE,November-22-2017,Multi-Family (2-4 Unit),2076 Oakwood Dr,EAST PALO ALTO,CA,94303,1014000,4,,EAST PALO ALTO,2055,5000,1957,69,493,,Sold,,,http://www.redfin.com/CA/East-Palo-Alto/2076-Oakwood-Dr-94303/home/1916242,MLSListings,ML81672686,N,Y,37.463859,-122.147756
PAST SALE,November-30-2017,Single Family Residential,1014 Hobart St,MENLO PARK,CA,94025,3850000,4,2.5,MENLO PARK,2950,10098,1947,61,1305,,Sold,,,http://www.redfin.com/CA/Menlo-Park/1014-Hobart-St-94025/home/889351,MLSListings,ML81683585,N,Y,37.4410637,-122.1923868
PAST SALE,,Single Family Residential,745 Hobart St,Menlo Park,CA,94025,8365000,6,6.0,,5754,11200,2017,,1454,,,,,http://www.redfin.com/CA/Menlo-Park/745-Hobart-St-94025/home/1964287,,,N,Y,37.4393311,-122.1900551
PAST SALE,December-31-2017,Single Family Residential,401 Olive St,MENLO PARK,CA,94025,3500000,3,2.0,MENLO PARK,2130,13520,1950,30,1643,,Sold,,,http://www.redfin.com/CA/Menlo-Park/401-Olive-St-94025/home/888852,MLSListings,ML81687764,N,Y,37.4366175,-122.1871649
PAST SALE,December-31-2017,Single Family Residential,1145 Rosefield Way,MENLO PARK,CA,94025,3350000,3,2.0,MENLO PARK,1660,9975,1946,30,2018,,Sold,,,http://www.redfin.com/CA/Menlo-Park/1145-Rosefield-Way-94025/home/1194700,MLSListings,ML81687765,N,Y,37.4428116,-122.1929678
PAST SALE,December-15-2017,Single Family Residential,1100 Hobart St,MENLO PARK,CA,94025,2700000,2,2.0,MENLO PARK,1550,10486,1951,46,1742,,Sold,,,http://www.redfin.com/CA/Menlo-Park/1100-Hobart-St-94025/home/884415,MLSListings,ML81683589,N,Y,37.4416857,-122.1931435
PAST SALE,December-15-2017,Townhouse,38 Lorton Ave Unit B,BURLINGAME,CA,94010,1625000,3,2.5,BURLINGAME,1789,7500,1999,46,908,400,Sold,,,http://www.redfin.com/CA/Burlingame/38-Lorton-Ave-94010/unit-B/home/1438849,MLSListings,ML81683884,N,Y,37.5764787,-122.3426788
PAST SALE,November-27-2017,Condo/Co-op,30 Lorton Ave #303,BURLINGAME,CA,94010,1170000,2,2.0,BURLINGAME,1219,14900,1986,64,960,600,Sold,,,http://www.redfin.com/CA/Burlingame/30-Lorton-Ave-94010/unit-303/home/1688586,MLSListings,ML81683744,N,Y,37.5763309,-122.3425314
PAST SALE,January-22-2018,Single Family Residential,434 Bloomfield Rd,BURLINGAME,CA,94010,2310000,2,2.0,BURLINGAME,1560,5000,1938,8,1481,,Sold,,,http://www.redfin.com/CA/Burlingame/434-Bloomfield-Rd-94010/home/691463,MLSListings,ML81689733,N,Y,37.5847737,-122.3425341
PAST SALE,December-26-2017,Single Family Residential,620 Trenton Way,BURLINGAME,CA,94010,2125000,3,2.0,BURLINGAME,1500,7750,1949,35,1417,,Sold,,,http://www.redfin.com/CA/Burlingame/620-Trenton-Way-94010/home/688873,MLSListings,ML81687790,N,Y,37.5862089,-122.3431918
PAST SALE,December-6-2017,Multi-Family (2-4 Unit),119 Highland Ave,BURLINGAME,CA,94010,3025000,5,,BURLINGAME,4899,7500,1908,55,617,,Sold,,,http://www.redfin.com/CA/Burlingame/119-Highland-Ave-94010/home/1292836,MLSListings,ML81674255,N,Y,37.5777342,-122.3432615
PAST SALE,November-30-2017,Single Family Residential,919 Johnson St,REDWOOD CITY,CA,94061,1378000,2,2.0,REDWOOD CITY,1300,5750,1946,61,1060,,Sold,,,http://www.redfin.com/CA/Redwood-City/919-Johnson-St-94061/home/1947285,MLSListings,ML81682412,N,Y,37.4741593,-122.2348325
PAST SALE,December-8-2017,Single Family Residential,735 Harrison Ave,REDWOOD CITY,CA,94062,1640000,3,1.5,REDWOOD CITY,1760,6500,1948,53,932,,Sold,,,http://www.redfin.com/CA/Redwood-City/735-Harrison-Ave-94062/home/1496978,MLSListings,ML81684510,N,Y,37.4785983,-122.2372935
PAST SALE,December-29-2017,Single Family Residential,1172 Fay St,REDWOOD CITY,CA,94061,1225000,2,1.0,REDWOOD CITY,970,5700,1937,32,1263,,Sold,,,http://www.redfin.com/CA/Redwood-City/1172-Fay-St-94061/home/1172907,MLSListings,ML81685465,N,Y,37.4751682,-122.2272888
PAST SALE,January-9-2018,Single Family Residential,868 Cleveland St,REDWOOD CITY,CA,94061,1150000,3,2.5,REDWOOD CITY,1600,3570,2003,21,719,,Sold,,,http://www.redfin.com/CA/Redwood-City/868-Cleveland-St-94061/home/1453858,MLSListings,ML81684445,N,Y,37.4779228,-122.2317075
PAST SALE,December-18-2017,Multi-Family (2-4 Unit),1105 Junipero Ave,REDWOOD CITY,CA,94061,1560000,4,,REDWOOD CITY,1980,6405,1955,43,788,,Sold,,,http://www.redfin.com/CA/Redwood-City/1105-Junipero-Ave-94061/home/832458,MLSListings,ML81683942,N,Y,37.4683615,-122.2386554
PAST SALE,January-23-2018,Multi-Family (2-4 Unit),1343 Regent St,REDWOOD CITY,CA,94061,1150000,,,REDWOOD CITY,1564,5000,1924,7,735,,Sold,,,http://www.redfin.com/CA/Redwood-City/1343-Regent-St-94061/home/2009364,MLSListings,ML81689965,N,Y,37.4697047,-122.2296153
PAST SALE,November-16-2017,Single Family Residential,3 Fremontia St,PORTOLA VALLEY,CA,94028,3150000,3,2.5,PORTOLA VALLEY,2570,20159,1981,75,1226,303,Sold,,,http://www.redfin.com/CA/Portola-Valley/3-Fremontia-St-94028/home/906952,MLSListings,ML81683235,N,Y,37.3648942,-122.2113595
PAST SALE,November-20-2017,Single Family Residential,19765 Skyline Blvd,PORTOLA VALLEY,CA,94028,2076000,3,2.0,PORTOLA VALLEY,1610,1193544,1980,71,1289,,Sold,,,http://www.redfin.com/CA/PORTOLA-VALLEY/19765-SKYLINE-BLVD-94028/home/1241104,MLSListings,ML81681148,N,Y,37.340214,-122.216189
PAST SALE,November-22-2017,Vacant Land,0 El Nido,PORTOLA VALLEY,CA,94028,642000,,,PORTOLA VALLEY,,8448,,69,,,Sold,,,http://www.redfin.com/CA/Portola-Valley/El-Nido-Rd-94028/home/143994209,MLSListings,ML81680480,N,Y,37.3482308,-122.2009517
PAST SALE,December-6-2017,Single Family Residential,391 Canyon Dr,PORTOLA VALLEY,CA,94028,2475000,4,2.0,PORTOLA VALLEY,1910,9500,1963,55,1296,,Sold,,,http://www.redfin.com/CA/Portola-Valley/391-Canyon-Dr-94028/home/2027662,MLSListings,ML81684456,N,Y,37.3695943,-122.2132768
PAST SALE,November-13-2017,Single Family Residential,4 Vista Verde Way,PORTOLA VALLEY,CA,94028,3120000,4,3.5,PORTOLA VALLEY,3170,46210,1981,78,984,,Sold,,,http://www.redfin.com/CA/Portola-Valley/4-Vista-Verde-Way-94028/home/2041418,MLSListings,ML81679492,N,Y,37.3348099,-122.1950517
PAST SALE,November-28-2017,Single Family Residential,161 Sausal Dr,PORTOLA VALLEY,CA,94028,6598000,6,5.0,PORTOLA VALLEY,4400,53578,1951,63,1500,,Sold,,,http://www.redfin.com/CA/Portola-Valley/161-Sausal-Dr-94028/home/1932414,MLSListings,ML81682366,N,Y,37.3789578,-122.2098371
PAST SALE,,Single Family Residential,4860 Alpine Rd,Portola Valley,CA,94028,4845000,5,3.0,,3590,51400,2011,,1350,,,,,http://www.redfin.com/CA/Portola-Valley/4860-Alpine-Rd-94028/home/21840574,,,N,Y,37.3644392,-122.2146181
PAST SALE,November-28-2017,Single Family Residential,2747 Goodwin Ave,REDWOOD CITY,CA,94061,1475000,3,2.0,REDWOOD CITY,1460,6660,1952,63,1010,,Sold,,,http://www.redfin.com/CA/Redwood-City/2747-Goodwin-Ave-94061/home/879802,MLSListings,ML81682387,N,Y,37.4579776,-122.2415809
PAST SALE,December-28-2017,Single Family Residential,112 Russell Ave,PORTOLA VALLEY,CA,94028,2450000,3,3.0,PORTOLA VALLEY,2400,22076,1928,33,1021,,Sold,,,http://www.redfin.com/CA/Portola-Valley/112-Russell-Ave-94028/home/2009636,MLSListings,ML81683859,N,Y,37.384403,-122.23991
PAST SALE,,Single Family Residential,465 Wayside Rd,Portola Valley,CA,94028,1600000,2,1.0,,1140,110642,1948,,1404,,,,,http://www.redfin.com/CA/Portola-Valley/465-Wayside-Rd-94028/home/2030070,,,N,Y,37.3804144,-122.2408436
PAST SALE,November-13-2017,Condo/Co-op,1001 Laurel St #206,SAN CARLOS,CA,94070,1015000,2,2.0,SAN CARLOS,1138,51504,2009,78,892,480,Sold,,,http://www.redfin.com/CA/San-Carlos/1001-Laurel-St-94070/unit-206/home/28919204,MLSListings,ML81680502,N,Y,37.5013588,-122.2541747
PAST SALE,,Condo/Co-op,1001 Laurel St Unit 219,San Carlos,CA,94070,1050000,2,2.0,,1318,,2009,,797,,,,,http://www.redfin.com/CA/San-Carlos/1001-Laurel-St-94070/unit-219/home/28638261,,,N,Y,37.5013588,-122.2541747
PAST SALE,January-3-2018,Single Family Residential,345 Oakview Dr,SAN CARLOS,CA,94070,3150000,4,3.0,SAN CARLOS,2675,7150,1950,27,1178,,Sold,,,http://www.redfin.com/CA/San-Carlos/345-Oakview-Dr-94070/home/1741783,MLSListings,ML81687922,N,Y,37.4899938,-122.2582338
PAST SALE,December-29-2017,Single Family Residential,26 Liberty Hall Ln,REDWOOD CITY,CA,94063,3100000,4,4.5,REDWOOD CITY,3794,8992,2017,32,817,171,Sold,,,http://www.redfin.com/CA/REDWOOD-CITY/26-Liberty-Hall-Ln-94063/home/143854475,MLSListings,ML81678982,N,Y,37.4852152,-122.2363548
PAST SALE,January-5-2018,Single Family Residential,12 Liberty Hall Ln,REDWOOD CITY,CA,94062,2700000,4,3.5,REDWOOD CITY,3272,6642,2017,25,825,171,Sold,,,http://www.redfin.com/CA/Redwood-City/12-Liberty-Hall-Ln-94062/home/144635069,MLSListings,ML81678989,N,Y,37.4927875,-122.2447416
PAST SALE,January-8-2018,Single Family Residential,43 Finger Ave,REDWOOD CITY,CA,94062,1802000,3,2.0,REDWOOD CITY,1590,6150,1926,22,1133,,Sold,,,http://www.redfin.com/CA/Redwood-City/43-Finger-Ave-94062/home/1070684,MLSListings,ML81686353,N,Y,37.4922851,-122.2441443
PAST SALE,,Single Family Residential,8 Daffodil Ln,San Carlos,CA,94070,1590000,3,2.0,,2310,1598,1988,,688,,,,,http://www.redfin.com/CA/San-Carlos/8-Daffodil-Ln-94070/home/1505730,,,N,Y,37.493072,-122.292805
PAST SALE,December-1-2017,Single Family Residential,11 Cliffside Ct,BELMONT,CA,94002,1660000,3,2.5,BELMONT,2150,3654,1977,60,772,,Sold,,,http://www.redfin.com/CA/Belmont/11-Cliffside-Ct-94002/home/1941967,MLSListings,ML81682516,N,Y,37.5080027,-122.2984316
PAST SALE,December-8-2017,Single Family Residential,2617 Hallmark Dr,BELMONT,CA,94002,2107950,3,2.0,BELMONT,1930,13825,1972,53,1092,,Sold,,,http://www.redfin.com/CA/Belmont/2617-Hallmark-Dr-94002/home/771583,MLSListings,ML81685058,N,Y,37.5032077,-122.3107764
PAST SALE,December-6-2017,Single Family Residential,2604 Somerset Dr,BELMONT,CA,94002,2420000,5,3.0,BELMONT,3170,7020,1974,55,763,,Sold,,,http://www.redfin.com/CA/Belmont/2604-Somerset-Dr-94002/home/1983627,MLSListings,ML81681466,N,Y,37.5032661,-122.3064388
PAST SALE,November-14-2017,Single Family Residential,234 N Kingston St,SAN MATEO,CA,94401,1173375,3,1.5,SAN MATEO,1800,5300,1947,77,652,,Sold,,,http://www.redfin.com/CA/San-Mateo/234-N-Kingston-St-94401/home/1313639,MLSListings,ML81681590,N,Y,37.5787126,-122.3195437
PAST SALE,November-15-2017,Single Family Residential,1074 Connecticut Dr,REDWOOD CITY,CA,94061,1370000,3,1.5,REDWOOD CITY,1330,5890,1952,76,1030,,Sold,,,http://www.redfin.com/CA/Redwood-City/1074-Connecticut-Dr-94061/home/1963761,MLSListings,ML81681453,N,Y,37.4638581,-122.2435076
PAST SALE,November-14-2017,Single Family Residential,1711 Vera Ave,REDWOOD CITY,CA,94061,1350000,3,1.0,REDWOOD CITY,1140,6215,1951,77,1184,,Sold,,,http://www.redfin.com/CA/Redwood-City/1711-Vera-Ave-94061/home/834742,MLSListings,ML81681515,N,Y,37.4697761,-122.2406326
PAST SALE,November-17-2017,Single Family Residential,737 Ruby St,REDWOOD CITY,CA,94061,1175000,2,1.0,REDWOOD CITY,940,6000,1947,74,1250,,Sold,,,http://www.redfin.com/CA/Redwood-City/737-Ruby-St-94061/home/831849,MLSListings,ML81680802,N,Y,37.470103,-122.2416022
PAST SALE,November-3-2017,Single Family Residential,302 Myrtle St,REDWOOD CITY,CA,94062,1950000,4,2.0,REDWOOD CITY,2130,5170,1936,88,915,,Sold,,,http://www.redfin.com/CA/Redwood-City/302-Myrtle-St-94062/home/830954,MLSListings,ML81679824,N,Y,37.477329,-122.2442625
PAST SALE,December-8-2017,Single Family Residential,707 Sapphire St,REDWOOD CITY,CA,94061,1498888,3,2.0,REDWOOD CITY,1230,5400,1948,53,1219,,Sold,,,http://www.redfin.com/CA/Redwood-City/707-Sapphire-St-94061/home/1850524,MLSListings,ML81683698,N,Y,37.4698712,-122.2427724
PAST SALE,,Single Family Residential,330 Grand St,Redwood City,CA,94062,1285000,3,1.0,,1680,6500,1930,,765,,,,,http://www.redfin.com/CA/Redwood-City/330-Grand-St-94062/home/807433,,,N,Y,37.4806922,-122.2392147
PAST SALE,December-18-2017,Single Family Residential,1603 Madison Ave,REDWOOD CITY,CA,94061,1050000,2,1.5,REDWOOD CITY,950,5400,1946,43,1105,,Sold,,,http://www.redfin.com/CA/Redwood-City/1603-Madison-Ave-94061/home/1767260,MLSListings,ML81683819,N,Y,37.4713962,-122.24094
PAST SALE,December-22-2017,Single Family Residential,1158 Virginia Ave,REDWOOD CITY,CA,94061,1160000,2,1.0,REDWOOD CITY,960,6000,1949,39,1208,,Sold,,,http://www.redfin.com/CA/Redwood-City/1158-Virginia-Ave-94061/home/1154107,MLSListings,ML81686176,N,Y,37.4663276,-122.2396664
PAST SALE,January-12-2018,Single Family Residential,117 Hedge Rd,MENLO PARK,CA,94025,2030000,3,2.0,MENLO PARK,1220,5500,1951,18,1664,,Sold,,,http://www.redfin.com/CA/Menlo-Park/117-Hedge-Rd-94025/home/1830509,MLSListings,ML81686038,N,Y,37.4772164,-122.1777795
PAST SALE,January-19-2018,Single Family Residential,89 Larch Dr,Atherton,CA,94027,5800000,3,2.0,San Mateo,1790,40836,1954,11,3240,,Sold,,,http://www.redfin.com/CA/Atherton/89-Larch-Dr-94027/home/851082,San Francisco MLS,465584,N,Y,37.4732924,-122.178894
PAST SALE,November-15-2017,Single Family Residential,261 Hillview Ave,REDWOOD CITY,CA,94062,1300000,2,1.0,REDWOOD CITY,850,5740,1936,76,1529,,Sold,,,http://www.redfin.com/CA/Redwood-City/261-Hillview-Ave-94062/home/1193402,MLSListings,ML81685146,N,Y,37.4757138,-122.2482348
PAST SALE,,Single Family Residential,356 Topaz St,Redwood City,CA,94062,2410000,4,3.5,,2024,7875,1951,,1191,,,,,http://www.redfin.com/CA/Redwood-City/356-Topaz-St-94062/home/830027,,,N,Y,37.4728953,-122.2486581
PAST SALE,,Single Family Residential,245 Topaz St,Redwood City,CA,94062,745000,3,2.0,,2340,6364,1925,,318,,,,,http://www.redfin.com/CA/Redwood-City/245-Topaz-St-94062/home/2057393,,,N,Y,37.4746197,-122.2495027
PAST SALE,January-17-2018,Single Family Residential,823 Alameda De Las Pulgas,REDWOOD CITY,CA,94061,1450000,4,2.0,REDWOOD CITY,1120,5700,1953,13,1295,,Sold,,,http://www.redfin.com/CA/Redwood-City/823-Alameda-de-las-Pulgas-94061/home/837850,MLSListings,ML81679698,N,Y,37.4658784,-122.2452572
PAST SALE,December-15-2017,Single Family Residential,546 Sapphire St,REDWOOD CITY,CA,94062,2000000,3,2.5,REDWOOD CITY,2660,6120,1989,46,752,,Sold,,,http://www.redfin.com/CA/Redwood-City/546-Sapphire-St-94062/home/1154031,MLSListings,ML81684284,N,Y,37.4712261,-122.245212
PAST SALE,January-12-2018,Single Family Residential,155 Bardet Rd,WOODSIDE,CA,94062,3400000,3,3.0,WOODSIDE,2260,68825,1948,18,1504,,Sold,,,http://www.redfin.com/CA/Woodside/155-Bardet-Rd-94062/home/1953307,MLSListings,ML81674758,N,Y,37.4354661,-122.2562805
PAST SALE,December-21-2017,Single Family Residential,279 Albion Ave,WOODSIDE,CA,94062,9000000,3,3.0,WOODSIDE,3620,130680,1955,40,2486,,Sold,,,http://www.redfin.com/CA/Woodside/279-Albion-Ave-94062/home/1417763,MLSListings,ML81676451,N,Y,37.4311588,-122.2632528
PAST SALE,December-20-2017,Single Family Residential,127 Otis Ave,WOODSIDE,CA,94062,2850000,3,2.0,WOODSIDE,2047,9750,1976,41,1392,,Sold,,,http://www.redfin.com/CA/Woodside/127-Otis-Ave-94062/home/1592836,MLSListings,ML81678302,N,Y,37.436903,-122.256193
PAST SALE,December-6-2017,Single Family Residential,733 Howe St,SAN MATEO,CA,94401,1205000,3,1.0,SAN MATEO,1000,5000,1949,55,1205,,Sold,,,http://www.redfin.com/CA/San-Mateo/733-Howe-St-94401/home/1987505,MLSListings,ML81683743,N,Y,37.5695928,-122.308429
