SALE TYPE,SOLD DATE,PROPERTY TYPE,ADDRESS,CITY,STATE,ZIP,PRICE,BEDS,BATHS,LOCATION,SQUARE FEET,LOT SIZE,YEAR BUILT,DAYS ON MARKET,$/SQUARE FEET,HOA/MONTH,STATUS,NEXT OPEN HOUSE START TIME,NEXT OPEN HOUSE END TIME,URL (SEE http://www.redfin.com/buy-a-home/comparative-market-analysis FOR INFO ON PRICING),SOURCE,MLS#,FAVORITE,INTERESTED,LATITUDE,LONGITUDE
PAST SALE,August-14-2017,Single Family Residential,1182 Columbus St,EL GRANADA,CA,94018,1287000,5,2.5,EL GRANADA,2760,6050,1996,169,466,,Sold,,,http://www.redfin.com/CA/El-Granada/1182-Columbus-St-94018/home/140320778,MLSListings,ML81668922,N,Y,37.503708373,-122.4639197
PAST SALE,November-20-2017,Single Family Residential,447 Montecito Ave,EL GRANADA,CA,94019,995000,3,2.0,EL GRANADA,1290,5000,1971,71,771,,Sold,,,http://www.redfin.com/CA/Half-Moon-Bay/447-Montecito-Ave-94019/home/1931427,MLSListings,ML81681366,N,Y,37.5093226,-122.4778658
PAST SALE,February-7-2017,Single Family Residential,130 El Granada Blvd,EL GRANADA,CA,94019,950000,3,2.5,EL GRANADA,2160,6000,1966,357,440,,Sold,,,http://www.redfin.com/CA/Half-Moon-Bay/130-El-Granada-Blvd-94019/home/2053331,MLSListings,ML81632693,N,Y,37.5054953,-122.4648376
PAST SALE,February-13-2017,Mobile/Manufactured Home,10 Sea Gull Way,HALF MOON BAY,CA,94019,306000,2,2.0,HALF MOON BAY,1536,,1977,351,199,,Sold,,,http://www.redfin.com/CA/Half-Moon-Bay/10-Sea-Gull-Way-94019/home/999305,MLSListings,ML81633993,N,Y,37.4284066,-122.4297884
PAST SALE,March-13-2017,Townhouse,967 S Colonel Way,HALF MOON BAY,CA,94019,490000,2,1.0,HALF MOON BAY,730,1836,1970,323,671,275,Sold,,,http://www.redfin.com/CA/Half-Moon-Bay/967-Colonel-Way-94019/home/826910,MLSListings,ML81637655,N,Y,37.456016,-122.428124
PAST SALE,February-21-2017,Single Family Residential,311 Bayhill Rd,HALF MOON BAY,CA,94019,1640000,4,3.0,HALF MOON BAY,3110,7232,2012,343,527,113,Sold,,,http://www.redfin.com/CA/Half-Moon-Bay/311-Bayhill-Rd-94019/home/40604872,MLSListings,ML81633721,N,Y,37.4402762,-122.4341444
PAST SALE,February-8-2017,Single Family Residential,120 Carnoustie Dr,HALF MOON BAY,CA,94019,1916000,4,3.5,HALF MOON BAY,3548,8461,2016,356,540,106,Sold,,,http://www.redfin.com/CA/Half-Moon-Bay/120-Carnoustie-Dr-94019/home/110163110,MLSListings,ML81632478,N,Y,37.439731,-122.436211
PAST SALE,April-14-2017,Mobile/Manufactured Home,50 Seascape Dr,HALF MOON BAY,CA,94019,200000,2,1.0,HALF MOON BAY,840,,1985,291,238,,Sold,,,http://www.redfin.com/CA/Half-Moon-Bay/50-Seascape-Dr-94019/home/1853429,MLSListings,ML81631806,N,Y,37.4283996,-122.4272196
PAST SALE,May-19-2017,Mobile/Manufactured Home,50 Ocean Vw,HALF MOON BAY,CA,94019,225000,2,2.0,HALF MOON BAY,1296,,1972,256,174,,Sold,,,http://www.redfin.com/CA/Half-Moon-Bay/50-Oceanview-Ave-94019/home/2050924,MLSListings,ML81634148,N,Y,37.4303549,-122.4320601
PAST SALE,May-24-2017,Vacant Land,0 Ocean Ave,HALF MOON BAY,CA,94019,10000,,,HALF MOON BAY,,6600,,251,,,Sold,,,http://www.redfin.com/CA/Half-Moon-Bay/0-Oceanview-Ave-94019/home/17495103,MLSListings,ML81651079,N,Y,37.4307342,-122.4284813
PAST SALE,June-19-2017,Mobile/Manufactured Home,19 Ocean View Ave,HALF MOON BAY,CA,94019,230000,2,2.0,HALF MOON BAY,960,,1973,225,240,,Sold,,,http://www.redfin.com/CA/Half-Moon-Bay/19-Oceanview-Ave-94019/home/1555911,MLSListings,ML81636972,N,Y,37.4303833,-122.4301614
PAST SALE,May-16-2017,Single Family Residential,241 Bayhill Rd,HALF MOON BAY,CA,94019,1709000,4,3.0,HALF MOON BAY,3316,6599,2016,259,515,106,Sold,,,http://www.redfin.com/CA/Half-Moon-Bay/241-Bayhill-Rd-94019/home/108358800,MLSListings,ML81595420,N,Y,37.439805,-122.4338683
PAST SALE,July-25-2017,Mobile/Manufactured Home,127 Creekside Dr,HALF MOON BAY,CA,94019,353800,2,2.0,HALF MOON BAY,1440,,1977,189,246,,Sold,,,http://www.redfin.com/CA/Half-Moon-Bay/127-Creekside-Dr-94019/home/127392378,MLSListings,ML81656606,N,Y,37.428009,-122.4311314
PAST SALE,June-29-2017,Single Family Residential,2180 Bayhill Ct,HALF MOON BAY,CA,94019,1950000,5,3.5,HALF MOON BAY,3740,13860,1979,215,521,109,Sold,,,http://www.redfin.com/CA/Half-Moon-Bay/2180-Bayhill-Ct-94019/home/877727,MLSListings,ML81648196,N,Y,37.438477,-122.429926
PAST SALE,June-20-2017,Single Family Residential,170 Turnberry Rd,HALF MOON BAY,CA,94019,1380000,5,3.0,HALF MOON BAY,3266,7020,2000,224,423,109,Sold,,,http://www.redfin.com/CA/Half-Moon-Bay/170-Turnberry-Rd-94019/home/1904644,MLSListings,ML81644895,N,Y,37.4373853,-122.4332333
PAST SALE,August-11-2017,Mobile/Manufactured Home,108 Creekside Dr,HALF MOON BAY,CA,94019,379000,3,2.0,HALF MOON BAY,1152,,2001,172,329,,Sold,,,http://www.redfin.com/CA/Half-Moon-Bay/108-Creekside-Dr-94019/home/1096792,MLSListings,ML81655381,N,Y,37.4282195,-122.4311806
PAST SALE,August-23-2017,Mobile/Manufactured Home,7 Sand Dunes Ct,HALF MOON BAY,CA,94019,200000,2,1.0,HALF MOON BAY,800,,1973,160,250,,Sold,,,http://www.redfin.com/CA/Half-Moon-Bay/7-Sand-Dunes-Ct-94019/home/2038434,MLSListings,ML81614100,N,Y,37.4297665,-122.4318372
PAST SALE,August-24-2017,Mobile/Manufactured Home,142 Canada Cove Ave,HALF MOON BAY,CA,94019,405000,2,2.0,HALF MOON BAY,1440,,1983,159,281,,Sold,,,http://www.redfin.com/CA/Half-Moon-Bay/142-Canada-Cove-Ave-94019/home/1939224,MLSListings,ML81656345,N,Y,37.4287626,-122.4283496
PAST SALE,August-21-2017,Single Family Residential,2291 Winged Foot Rd,HALF MOON BAY,CA,94019,1650000,4,3.0,HALF MOON BAY,3300,6324,1980,162,500,109,Sold,,,http://www.redfin.com/CA/Half-Moon-Bay/2291-Winged-Foot-Rd-94019/home/1932137,MLSListings,ML81650159,N,Y,37.4330745,-122.4335403
PAST SALE,September-21-2017,Single Family Residential,121 Carnoustie Dr,HALF MOON BAY,CA,94019,2350000,4,3.0,HALF MOON BAY,3577,7973,2017,131,657,108,Sold,,,http://www.redfin.com/CA/Half-Moon-Bay/121-Carnoustie-Dr-94019/home/143852299,MLSListings,ML81678938,N,Y,37.4397156,-122.4352894
PAST SALE,September-28-2017,Mobile/Manufactured Home,18 Seascape Dr,HALF MOON BAY,CA,94019,350000,2,2.0,HALF MOON BAY,1344,,1984,124,260,,Sold,,,http://www.redfin.com/CA/Half-Moon-Bay/18-Seascape-Dr-94019/home/2039863,MLSListings,ML81651587,N,Y,37.4293491,-122.4270947
PAST SALE,October-11-2017,Mobile/Manufactured Home,1 Coral Way #1,HALF MOON BAY,CA,94019,449000,3,2.0,HALF MOON BAY,1344,,2012,111,334,,Sold,,,http://www.redfin.com/CA/Half-Moon-Bay/1-Coral-Way-94019/unit-1/home/28642607,MLSListings,ML81678274,N,Y,37.4281192,-122.4303009
PAST SALE,September-8-2017,Single Family Residential,150 Cypress Point Rd,HALF MOON BAY,CA,94019,1670000,3,2.5,HALF MOON BAY,3235,6500,1988,144,516,113,Sold,,,http://www.redfin.com/CA/Half-Moon-Bay/150-Cypress-Point-Rd-94019/home/879414,MLSListings,ML81655159,N,Y,37.4315909,-122.4356224
PAST SALE,March-27-2017,Mobile/Manufactured Home,23 Pelican Cir,HALF MOON BAY,CA,94019,255000,2,1.0,HALF MOON BAY,728,,2013,309,350,,Sold,,,http://www.redfin.com/CA/Half-Moon-Bay/23-Pelican-Cir-94019/home/101952368,MLSListings,ML81588992,N,Y,37.429892,-122.429899
PAST SALE,April-7-2017,Single Family Residential,81 Turnberry Rd,HALF MOON BAY,CA,94019,1669000,4,3.0,HALF MOON BAY,3660,7200,2001,298,456,108,Sold,,,http://www.redfin.com/CA/Half-Moon-Bay/81-Turnberry-Rd-94019/home/877108,MLSListings,ML81629512,N,Y,37.4379137,-122.4344867
PAST SALE,July-5-2017,Single Family Residential,116 Spyglass Ln,HALF MOON BAY,CA,94019,2000000,5,3.0,HALF MOON BAY,4052,12000,2001,209,494,113,Sold,,,http://www.redfin.com/CA/Half-Moon-Bay/116-Spyglass-Ln-94019/home/1940515,MLSListings,ML81646995,N,Y,37.4318035,-122.4367618
PAST SALE,September-18-2017,Single Family Residential,320 Saint Andrews Ln,HALF MOON BAY,CA,94019,1470000,3,3.0,HALF MOON BAY,2650,9525,1978,134,555,19,Sold,,,http://www.redfin.com/CA/Half-Moon-Bay/320-Saint-Andrews-Ln-94019/home/1389565,MLSListings,ML81669165,N,Y,37.4392129,-122.4322804
PAST SALE,October-3-2017,Single Family Residential,376 Greenbrier Rd,HALF MOON BAY,CA,94019,1275000,2,2.0,HALF MOON BAY,1750,6993,1987,119,729,113,Sold,,,http://www.redfin.com/CA/Half-Moon-Bay/376-Greenbrier-Rd-94019/home/1061137,MLSListings,ML81675694,N,Y,37.4353575,-122.4344034
PAST SALE,October-13-2017,Single Family Residential,500 Bayhill Rd,HALF MOON BAY,CA,94019,1950000,4,3.0,HALF MOON BAY,4580,8903,1990,109,426,109,Sold,,,http://www.redfin.com/CA/Half-Moon-Bay/500-Bayhill-Rd-94019/home/2048883,MLSListings,ML81675714,N,Y,37.437725,-122.431074
PAST SALE,December-8-2017,Mobile/Manufactured Home,77 Creekside Dr #77,HALF MOON BAY,CA,94019,409000,2,2.0,HALF MOON BAY,1344,,1976,53,304,,Sold,,,http://www.redfin.com/CA/Half-Moon-Bay/77-Creekside-Dr-94019/unit-77/home/144453787,MLSListings,ML81686706,N,Y,37.4278384,-122.4308397
PAST SALE,August-2-2017,Single Family Residential,236 Eagle Trace Dr,HALF MOON BAY,CA,94019,1500000,5,3.0,HALF MOON BAY,3270,7150,1990,181,459,113,Sold,,,http://www.redfin.com/CA/Half-Moon-Bay/236-Eagle-Trace-Dr-94019/home/1351520,MLSListings,ML81656518,N,Y,37.4356214,-122.4280673
PAST SALE,January-8-2018,Single Family Residential,459 Winged Foot Rd,HALF MOON BAY,CA,94019,1260000,3,2.0,HALF MOON BAY,2150,6250,1977,22,586,116,Sold,,,http://www.redfin.com/CA/Half-Moon-Bay/459-Winged-Foot-Rd-94019/home/1831164,MLSListings,ML81686059,N,Y,37.4312653,-122.4298436
PAST SALE,December-19-2017,Single Family Residential,34 Merion Rd,HALF MOON BAY,CA,94019,1500000,5,3.0,HALF MOON BAY,3266,7140,2000,42,459,109,Sold,,,http://www.redfin.com/CA/Half-Moon-Bay/34-Merion-Rd-94019/home/1916471,MLSListings,ML81680697,N,Y,37.4371028,-122.4338734
PAST SALE,March-2-2017,Single Family Residential,362 Avenue Del Oro,EL GRANADA,CA,94018,950000,3,2.0,EL GRANADA,1420,9000,1976,334,669,,Sold,,,http://www.redfin.com/CA/EL-GRANADA/362-Avenue-Del-Oro-94018/home/112862303,MLSListings,ML81634935,N,Y,37.507083,-122.470367
PAST SALE,March-8-2017,Single Family Residential,951 Columbus St,EL GRANADA,CA,94019,1050000,3,2.5,EL GRANADA,2330,6300,1997,328,451,,Sold,,,http://www.redfin.com/CA/Half-Moon-Bay/951-Columbus-St-94019/home/1616188,MLSListings,ML81640370,N,Y,37.507364,-122.46772
PAST SALE,,Single Family Residential,546 Avenue Cabrillo,Half Moon Bay,CA,94019,1800000,5,4.0,,3220,7600,2013,,559,,,,,http://www.redfin.com/CA/Half-Moon-Bay/546-Avenue-Cabrillo-94019/home/1212227,,,N,Y,37.501253,-122.46306
PAST SALE,,Single Family Residential,362 Avenue Del Oro,Half Moon Bay,CA,94019,950000,3,2.0,,1420,9000,1976,,669,,,,,http://www.redfin.com/CA/Half-Moon-Bay/362-Avenue-Del-Oro-94019/home/1952224,,,N,Y,37.5070744,-122.4704212
PAST SALE,February-16-2017,Condo/Co-op,42 Amesport Lndg,HALF MOON BAY,CA,94019,649000,2,2.0,HALF MOON BAY,950,5483,1989,348,683,416,Sold,,,http://www.redfin.com/CA/Half-Moon-Bay/42-Amesport-Lndg-94019/unit-130/home/1595742,MLSListings,ML81636455,N,Y,37.460787,-122.431496
PAST SALE,April-27-2017,Single Family Residential,652 Filbert St,HALF MOON BAY,CA,94019,860000,3,1.0,HALF MOON BAY,860,3741,1951,278,1000,,Sold,,,http://www.redfin.com/CA/Half-Moon-Bay/652-Filbert-St-94019/home/1916374,MLSListings,ML81641148,N,Y,37.458517,-122.4314204
PAST SALE,April-12-2017,Single Family Residential,417 Church St,HALF MOON BAY,CA,94019,800000,3,2.0,HALF MOON BAY,1350,5250,1923,293,593,,Sold,,,http://www.redfin.com/CA/Half-Moon-Bay/417-Church-St-94019/home/1942427,MLSListings,ML81635025,N,Y,37.4642399,-122.430751
PAST SALE,July-7-2017,Single Family Residential,513 San Benito St,HALF MOON BAY,CA,94019,920000,3,1.0,HALF MOON BAY,1220,7500,1921,207,754,,Sold,,,http://www.redfin.com/CA/Half-Moon-Bay/513-San-Benito-St-94019/home/1574822,MLSListings,ML81651482,N,Y,37.4629992,-122.4271958
PAST SALE,,Multi-Family (2-4 Unit),310 San Mateo Rd,Half Moon Bay,CA,94019,3000000,,,,,261360,,,,,,,,http://www.redfin.com/CA/Half-Moon-Bay/310-San-Mateo-Rd-94019/home/17309219,,,N,Y,37.475453,-122.424869
PAST SALE,July-31-2017,Single Family Residential,618 Highland Ave,HALF MOON BAY,CA,94019,1305000,3,2.5,HALF MOON BAY,2430,8250,1990,183,537,,Sold,,,http://www.redfin.com/CA/Half-Moon-Bay/618-Highland-Ave-94019/home/1931783,MLSListings,ML81654456,N,Y,37.4745459,-122.4318174
PAST SALE,August-18-2017,Townhouse,6 Patrick Way,HALF MOON BAY,CA,94019,870000,2,2.5,HALF MOON BAY,1400,984,1992,165,621,390,Sold,,,http://www.redfin.com/CA/Half-Moon-Bay/6-Patrick-Way-94019/home/1406873,MLSListings,ML81674613,N,Y,37.4672569,-122.428057
PAST SALE,May-5-2017,Townhouse,1044 Suzanne Ct,HALF MOON BAY,CA,94019,620000,3,1.5,HALF MOON BAY,1190,1428,1970,270,521,275,Sold,,,http://www.redfin.com/CA/Half-Moon-Bay/1044-Suzanne-Ct-94019/home/826889,MLSListings,ML81644924,N,Y,37.455361,-122.427721
PAST SALE,September-14-2017,Vacant Land,000 Pilarcitos,HALF MOON BAY,CA,94019,370000,,,HALF MOON BAY,,7763,,138,,,Sold,,,http://www.redfin.com/CA/Half-Moon-Bay/0-Pilarcitos-Creek-Rd-94019/home/17494552,MLSListings,ML81675410,N,Y,37.4992103,-122.3836836
PAST SALE,October-9-2017,Single Family Residential,615 Poplar St,HALF MOON BAY,CA,94019,828000,3,2.0,HALF MOON BAY,1140,3704,2010,113,726,,Sold,,,http://www.redfin.com/CA/Half-Moon-Bay/615-Poplar-St-94019/home/40100249,MLSListings,ML81677370,N,Y,37.4570633,-122.4318696
PAST SALE,September-12-2017,Condo/Co-op,140 Amesport Lndg,HALF MOON BAY,CA,94019,675000,2,2.0,HALF MOON BAY,950,5732,1990,140,711,406,Sold,,,http://www.redfin.com/CA/Half-Moon-Bay/140-Amesport-Lndg-94019/unit-209/home/1756894,MLSListings,ML81671202,N,Y,37.460597,-122.433835
PAST SALE,July-14-2017,Condo/Co-op,162 Amesport Lndg,HALF MOON BAY,CA,94019,635000,2,2.0,HALF MOON BAY,950,5774,1990,200,668,406,Sold,,,http://www.redfin.com/CA/Half-Moon-Bay/162-Amesport-Lndg-94019/unit-218/home/2050914,MLSListings,ML81655761,N,Y,37.46026,-122.434058
PAST SALE,,Single Family Residential,600 Purissima St,Half Moon Bay,CA,94019,912500,3,2.0,,1450,5000,1903,,629,,,,,http://www.redfin.com/CA/Half-Moon-Bay/600-Purissima-St-94019/home/827195,,,N,Y,37.4625809,-122.430542
PAST SALE,,Single Family Residential,617 Poplar St,Half Moon Bay,CA,94019,828000,3,2.0,,1140,3704,2010,,726,,,,,http://www.redfin.com/CA/Half-Moon-Bay/617-Poplar-St-94019/home/44613463,,,N,Y,37.4572191,-122.43189
PAST SALE,,Single Family Residential,737 Mill St,Half Moon Bay,CA,94019,1200000,3,1.0,,830,19000,1955,,1446,,,,,http://www.redfin.com/CA/Half-Moon-Bay/737-Mill-St-94019/home/1947414,,,N,Y,37.4647301,-122.4279411
PAST SALE,October-27-2017,Townhouse,100 Patrick Way,HALF MOON BAY,CA,94019,942000,3,3.0,HALF MOON BAY,1700,1242,1995,95,554,395,Sold,,,http://www.redfin.com/CA/Half-Moon-Bay/100-Patrick-Way-94019/home/1371022,MLSListings,ML81674582,N,Y,37.4680589,-122.42574
PAST SALE,December-22-2017,Single Family Residential,11880 San Mateo Rd,HALF MOON BAY,CA,94019,682500,1,1.0,HALF MOON BAY,600,57934,1930,39,1138,,Sold,,,http://www.redfin.com/CA/Half-Moon-Bay/11880-San-Mateo-Rd-94019/home/1258430,MLSListings,ML81684227,N,Y,37.4879491,-122.3949772
PAST SALE,January-26-2018,Single Family Residential,530 Main St,HALF MOON BAY,CA,94019,1600000,3,2.0,HALF MOON BAY,2900,5367,1946,4,552,,Sold,,,http://www.redfin.com/CA/Half-Moon-Bay/530-Main-St-94019/home/40151270,MLSListings,ML81673801,N,Y,37.463087,-122.4295667
PAST SALE,,Single Family Residential,212 Spruce St,Half Moon Bay,CA,94019,1520000,4,2.0,,2198,9030,2000,,692,,,,,http://www.redfin.com/CA/Half-Moon-Bay/212-Spruce-St-94019/home/2050653,,,N,Y,37.4565102,-122.4401296
PAST SALE,April-28-2017,Single Family Residential,422 Kehoe Ave,HALF MOON BAY,CA,94019,915000,4,2.0,HALF MOON BAY,1460,6000,1968,277,627,,Sold,,,http://www.redfin.com/CA/Half-Moon-Bay/422-Kehoe-Ave-94019/home/1876002,MLSListings,ML81641849,N,Y,37.4755182,-122.4418353
PAST SALE,April-11-2017,Vacant Land,0 Kelly Ave,HALF MOON BAY,CA,94019,310000,,,HALF MOON BAY,,6000,,294,,,Sold,,,http://www.redfin.com/CA/Half-Moon-Bay/0-Kelly-Ave-94019/home/21838696,MLSListings,ML81595728,N,Y,37.4651295,-122.4446439
PAST SALE,April-12-2017,Single Family Residential,604 Ruisseau Francais Ave,HALF MOON BAY,CA,94019,1150000,3,2.0,HALF MOON BAY,1790,7007,1975,293,642,,Sold,,,http://www.redfin.com/CA/Half-Moon-Bay/604-Ruisseau-Francais-Ave-94019/home/1931547,MLSListings,ML81641614,N,Y,37.4842488,-122.4435296
PAST SALE,March-17-2017,Single Family Residential,522 Spindrift Way,HALF MOON BAY,CA,94019,845000,3,1.0,HALF MOON BAY,960,6000,1971,319,880,,Sold,,,http://www.redfin.com/CA/Half-Moon-Bay/522-Spindrift-Way-94019/home/1080555,MLSListings,ML81637345,N,Y,37.4798828,-122.4412619
PAST SALE,,Single Family Residential,216 Correas St,Half Moon Bay,CA,94019,1595000,4,3.0,,3234,7500,2001,,493,,,,,http://www.redfin.com/CA/Half-Moon-Bay/216-Correas-St-94019/home/1258345,,,N,Y,37.4625507,-122.441357
PAST SALE,July-19-2017,Single Family Residential,424 Filbert St,HALF MOON BAY,CA,94019,1155000,4,2.0,HALF MOON BAY,1950,7353,1959,195,592,,Sold,,,http://www.redfin.com/CA/Half-Moon-Bay/424-Filbert-St-94019/home/871672,MLSListings,ML81655222,N,Y,37.4578445,-122.4366562
PAST SALE,July-26-2017,Single Family Residential,440 Correas St,HALF MOON BAY,CA,94019,1122500,3,2.0,HALF MOON BAY,1900,6600,1988,188,591,,Sold,,,http://www.redfin.com/CA/Half-Moon-Bay/440-Correas-St-94019/home/824297,MLSListings,ML81671585,N,Y,37.4621823,-122.4368722
PAST SALE,June-2-2017,Single Family Residential,369 Spruce St,Half Moon Bay,CA,94019,907000,3,2.0,Half Moon Bay,1640,7353,1962,242,553,,Sold,,,http://www.redfin.com/CA/Half-Moon-Bay/369-Spruce-St-94019/home/871574,San Francisco MLS,456967,N,Y,37.4572483,-122.4375058
PAST SALE,June-21-2017,Single Family Residential,450 Metzgar St,HALF MOON BAY,CA,94019,860000,3,2.0,HALF MOON BAY,1290,5250,1965,223,667,,Sold,,,http://www.redfin.com/CA/Half-Moon-Bay/450-Metzgar-St-94019/home/1162803,MLSListings,ML81652521,N,Y,37.4553625,-122.43552
PAST SALE,,Single Family Residential,363 Poplar St,Half Moon Bay,CA,94019,210000,3,2.0,,1080,7353,1951,,194,,,,,http://www.redfin.com/CA/Half-Moon-Bay/363-Poplar-St-94019/home/2006133,,,N,Y,37.4563466,-122.437536
PAST SALE,August-1-2017,Single Family Residential,405 Wave Ave,HALF MOON BAY,CA,94019,1475000,4,3.5,HALF MOON BAY,2540,7620,1988,182,581,,Sold,,,http://www.redfin.com/CA/Half-Moon-Bay/405-Wave-Ave-94019/home/1172391,MLSListings,ML81655276,N,Y,37.4778326,-122.4460342
PAST SALE,August-1-2017,Single Family Residential,436 Central Ave,HALF MOON BAY,CA,94019,835000,3,2.0,HALF MOON BAY,1200,5500,1964,182,696,,Sold,,,http://www.redfin.com/CA/Half-Moon-Bay/436-Central-Ave-94019/home/1802834,MLSListings,ML81655573,N,Y,37.4603932,-122.435978
PAST SALE,May-18-2017,Single Family Residential,508 Myrtle St,Half Moon Bay,CA,94019,932000,2,1.0,Half Moon Bay,970,12900,1920,257,961,,Sold,,,http://www.redfin.com/CA/Half-Moon-Bay/508-Myrtle-St-94019/home/1371720,San Francisco MLS,456534,N,Y,37.4589749,-122.4349635
PAST SALE,August-21-2017,Condo/Co-op,400 Laurel Ave,HALF MOON BAY,CA,94019,630000,2,2.0,HALF MOON BAY,1090,14994,1986,162,578,500,Sold,,,http://www.redfin.com/CA/Half-Moon-Bay/400-Laurel-Ave-94019/unit-1/home/995044,MLSListings,ML81671168,N,Y,37.465735,-122.436734
PAST SALE,September-21-2017,Single Family Residential,119 Carnoustie Dr,HALF MOON BAY,CA,94019,2495000,4,3.0,HALF MOON BAY,3807,8731,2017,131,655,18,Sold,,,http://www.redfin.com/CA/Half-Moon-Bay/119-Carnoustie-Dr-94019/home/143851455,MLSListings,ML81678840,N,Y,37.439393,-122.435863
PAST SALE,October-2-2017,Single Family Residential,349 Seymour St,HALF MOON BAY,CA,94019,1725000,4,3.5,HALF MOON BAY,3692,9448,2004,120,467,,Sold,,,http://www.redfin.com/CA/Half-Moon-Bay/349-Seymour-St-94019/home/1118306,MLSListings,ML81674564,N,Y,37.4532654,-122.4365661
PAST SALE,September-8-2017,Single Family Residential,415 Antoinette Ln,HALF MOON BAY,CA,94019,1285000,5,2.0,HALF MOON BAY,2410,15670,1970,144,533,,Sold,,,http://www.redfin.com/CA/Half-Moon-Bay/415-Antoinette-Ln-94019/home/2056313,MLSListings,ML81668794,N,Y,37.4765876,-122.4436965
PAST SALE,,Single Family Residential,118 Carnoustie Dr,Half Moon Bay,CA,94019,1835000,4,3.0,,3388,7350,2016,,542,,,,,http://www.redfin.com/CA/Half-Moon-Bay/118-Carnoustie-Dr-94019/home/109580076,,,N,Y,37.439789,-122.435879
PAST SALE,October-26-2017,Condo/Co-op,448 Cypress Ave,HALF MOON BAY,CA,94019,607500,2,2.0,HALF MOON BAY,1028,15000,1984,96,591,385,Sold,,,http://www.redfin.com/CA/Half-Moon-Bay/448-Cypress-Ave-94019/unit-8/home/113814379,MLSListings,ML81674368,N,Y,37.4671392,-122.4364807
PAST SALE,October-2-2017,Single Family Residential,203 Granelli Ave,HALF MOON BAY,CA,94019,2150000,4,3.5,HALF MOON BAY,3440,5850,1989,120,625,,Sold,,,http://www.redfin.com/CA/Half-Moon-Bay/203-Granelli-Ave-94019/home/1341624,MLSListings,ML81649270,N,Y,37.4593133,-122.441376
PAST SALE,September-28-2017,Condo/Co-op,475 Pine Ave,HALF MOON BAY,CA,94019,630000,2,2.0,HALF MOON BAY,1090,24004,1986,124,578,495,Sold,,,http://www.redfin.com/CA/Half-Moon-Bay/475-Pine-Ave-94019/unit-42/home/1311444,MLSListings,ML81668879,N,Y,37.465379,-122.436481
PAST SALE,August-3-2017,Single Family Residential,331 Kelly Ave,HALF MOON BAY,CA,94019,5310000,3,2.0,HALF MOON BAY,1800,1003186,1950,180,2950,,Sold,,,http://www.redfin.com/CA/Half-Moon-Bay/331-Kelly-Ave-94019/home/17309228,MLSListings,ML81631629,N,Y,37.4648343,-122.4389843
PAST SALE,October-13-2017,Single Family Residential,440 Central Ave,HALF MOON BAY,CA,94019,910000,3,2.0,HALF MOON BAY,1100,5500,1964,109,827,,Sold,,,http://www.redfin.com/CA/Half-Moon-Bay/440-Central-Ave-94019/home/1250226,MLSListings,ML81674584,N,Y,37.4604259,-122.4358115
PAST SALE,October-13-2017,Single Family Residential,908 Pacific Ave,HALF MOON BAY,CA,94019,800000,3,2.0,HALF MOON BAY,1440,5000,1977,109,556,,Sold,,,http://www.redfin.com/CA/Half-Moon-Bay/908-Pacific-Ave-94019/home/1616230,MLSListings,ML81674669,N,Y,37.4753669,-122.4379993
PAST SALE,October-19-2017,Single Family Residential,341 Grove St,HALF MOON BAY,CA,94019,979000,4,2.0,HALF MOON BAY,1700,5250,1962,103,576,,Sold,,,http://www.redfin.com/CA/Half-Moon-Bay/341-Grove-St-94019/home/1203123,MLSListings,ML81676213,N,Y,37.4548149,-122.4375335
PAST SALE,December-5-2017,Single Family Residential,324 Valdez Ave,HALF MOON BAY,CA,94019,1398000,4,2.5,HALF MOON BAY,2826,7500,1989,56,495,,Sold,,,http://www.redfin.com/CA/Half-Moon-Bay/324-Valdez-Ave-94019/home/1523721,MLSListings,ML81678553,N,Y,37.4614135,-122.4396406
PAST SALE,October-11-2017,Single Family Residential,271 Bayhill Rd,HALF MOON BAY,CA,94019,1708450,4,3.0,HALF MOON BAY,3317,6435,2014,111,515,113,Sold,,,http://www.redfin.com/CA/Half-Moon-Bay/271-Bayhill-Rd-94019/home/56982606,MLSListings,ML81674722,N,Y,37.4401703,-122.4350314
PAST SALE,December-4-2017,Single Family Residential,440 Balboa,HALF MOON BAY,CA,94019,815000,1,1.0,HALF MOON BAY,420,13499,1920,57,1940,,Sold,,,http://www.redfin.com/CA/Half-Moon-Bay/440-Balboa-Blvd-94019/home/133611199,MLSListings,ML81667611,N,Y,37.4663718,-122.4440642
PAST SALE,November-13-2017,Single Family Residential,33 Le Havre Pl,HALF MOON BAY,CA,94019,1200000,5,3.0,HALF MOON BAY,2680,6450,1973,78,448,,Sold,,,http://www.redfin.com/CA/Half-Moon-Bay/33-Le-Havre-Pl-94019/home/1801850,MLSListings,ML81670206,N,Y,37.4855974,-122.4444886
PAST SALE,November-9-2017,Single Family Residential,169 Correas St,HALF MOON BAY,CA,94019,2110000,4,3.0,HALF MOON BAY,3238,7500,2003,82,652,,Sold,,,http://www.redfin.com/CA/Half-Moon-Bay/169-Correas-St-94019/home/1967602,MLSListings,ML81677299,N,Y,37.4631522,-122.4424643
PAST SALE,October-27-2017,Condo/Co-op,402 Laurel Ave,HALF MOON BAY,CA,94019,645000,2,2.0,HALF MOON BAY,1090,14994,1986,95,592,500,Sold,,,http://www.redfin.com/CA/Half-Moon-Bay/402-Laurel-Ave-94019/unit-2/home/995050,MLSListings,ML81679197,N,Y,37.465735,-122.436734
PAST SALE,November-28-2017,Single Family Residential,700 Toulouse Ct,HALF MOON BAY,CA,94019,1245000,3,2.0,HALF MOON BAY,1790,5896,1975,63,696,,Sold,,,http://www.redfin.com/CA/Half-Moon-Bay/700-Toulouse-Ct-94019/home/1919797,MLSListings,ML81683624,N,Y,37.4864208,-122.4426709
PAST SALE,April-11-2017,Single Family Residential,1508 Spinnaker Ln,HALF MOON BAY,CA,94019,1094000,4,2.0,HALF MOON BAY,1860,9120,1975,294,588,,Sold,,,http://www.redfin.com/CA/Half-Moon-Bay/1508-Spinnaker-Ln-94019/home/1284823,MLSListings,ML81643542,N,Y,37.4800966,-122.4416644
PAST SALE,December-21-2017,Single Family Residential,345 Belleville Blvd,HALF MOON BAY,CA,94019,1275000,4,2.5,HALF MOON BAY,2150,12498,2017,40,593,,Sold,,,http://www.redfin.com/CA/Half-Moon-Bay/345-Belleville-Blvd-94019/home/143373849,MLSListings,ML81674777,N,Y,37.4695757,-122.4367003
PAST SALE,December-20-2017,Single Family Residential,116 Carnoustie Dr,HALF MOON BAY,CA,94019,1801000,4,3.0,HALF MOON BAY,3157,6462,2016,41,570,106,Sold,,,http://www.redfin.com/CA/Half-Moon-Bay/116-Carnoustie-Dr-94019/home/109580084,MLSListings,ML81628771,N,Y,37.439824,-122.435642
PAST SALE,December-1-2017,Condo/Co-op,470 Laurel Ave,HALF MOON BAY,CA,94019,639000,2,2.0,HALF MOON BAY,1090,27010,1986,60,586,500,Sold,,,http://www.redfin.com/CA/Half-Moon-Bay/470-Laurel-Ave-94019/unit-24/home/995117,MLSListings,ML81681680,N,Y,37.465647,-122.435793
PAST SALE,August-10-2017,Single Family Residential,261 Bayhill Rd,HALF MOON BAY,CA,94019,1670000,4,3.0,HALF MOON BAY,3157,6435,2014,173,529,113,Sold,,,http://www.redfin.com/CA/Half-Moon-Bay/261-Bayhill-Rd-94019/home/58480776,MLSListings,ML81652476,N,Y,37.4401419,-122.4352501
PAST SALE,,Single Family Residential,439 Valdez Ave,Half Moon Bay,CA,94019,1320000,4,2.0,,2244,6724,2015,,588,,,,,http://www.redfin.com/CA/Half-Moon-Bay/439-Valdez-Ave-94019/home/62348099,,,N,Y,37.4616595,-122.4369678
PAST SALE,December-28-2017,Single Family Residential,123 Carnoustie Dr,HALF MOON BAY,CA,94019,2622500,4,3.5,HALF MOON BAY,3755,8411,2017,33,698,106,Sold,,,http://www.redfin.com/CA/Half-Moon-Bay/123-Carnoustie-Dr-94019/home/144580993,MLSListings,ML81687618,N,Y,37.4397156,-122.4352894
PAST SALE,December-6-2017,Single Family Residential,625 Third Ave,HALF MOON BAY,CA,94019,1295000,4,3.0,HALF MOON BAY,2750,5760,1965,55,471,,Sold,,,http://www.redfin.com/CA/Half-Moon-Bay/625-3rd-Ave-94019/home/870130,MLSListings,ML81682518,N,Y,37.4598246,-122.4350677
PAST SALE,December-18-2017,Single Family Residential,52 Fairway Pl,HALF MOON BAY,CA,94019,1710000,4,3.0,HALF MOON BAY,2880,8112,1988,43,594,109,Sold,,,http://www.redfin.com/CA/Half-Moon-Bay/52-Fairway-Pl-94019/home/1964172,MLSListings,ML81677224,N,Y,37.436579,-122.4370227
PAST SALE,January-3-2018,Single Family Residential,303 Miramontes Ave,HALF MOON BAY,CA,94019,1560000,4,2.5,HALF MOON BAY,2790,7500,1989,27,559,,Sold,,,http://www.redfin.com/CA/Half-Moon-Bay/303-Miramontes-Ave-94019/home/1462383,MLSListings,ML81687502,N,Y,37.4639108,-122.4401228
PAST SALE,March-22-2017,Single Family Residential,420 1st Ave,HALF MOON BAY,CA,94019,1600000,4,3.0,HALF MOON BAY,3860,5601,1973,314,415,,Sold,,,http://www.redfin.com/CA/Half-Moon-Bay/420-1st-Ave-94019/home/1515435,MLSListings,ML81626856,N,Y,37.4939582,-122.459582
PAST SALE,May-5-2017,Single Family Residential,239 Medio Ave,HALF MOON BAY,CA,94019,1400000,4,2.5,HALF MOON BAY,2600,5000,1998,270,538,,Sold,,,http://www.redfin.com/CA/Half-Moon-Bay/239-Medio-Ave-94019/home/2039107,MLSListings,ML81644727,N,Y,37.4952705,-122.4590041
PAST SALE,May-19-2017,Single Family Residential,2805 Champs Elysee Blvd,HALF MOON BAY,CA,94019,1329000,3,2.0,HALF MOON BAY,1703,5000,2017,256,780,,Sold,,,http://www.redfin.com/CA/Half-Moon-Bay/2805-Champs-Elysee-Blvd-94019/home/106603689,MLSListings,ML81636920,N,Y,37.4894838,-122.4524169
PAST SALE,August-15-2017,Vacant Land,2782 Pullman Ave,HALF MOON BAY,CA,94019,349000,,,HALF MOON BAY,,5000,,168,,,Sold,,,http://www.redfin.com/CA/Half-Moon-Bay/2782-Pullman-Ave-94019/home/114063531,MLSListings,ML81653718,N,Y,37.4900011,-122.4520645
PAST SALE,August-15-2017,Single Family Residential,576 Alto Ave,HALF MOON BAY,CA,94019,1140000,4,2.0,HALF MOON BAY,1850,42000,1946,168,616,,Sold,,,http://www.redfin.com/CA/Half-Moon-Bay/576-Alto-Ave-94019/home/1931468,MLSListings,ML81586469,N,Y,37.495515,-122.451531
PAST SALE,September-8-2017,Single Family Residential,481-485 Miramar Dr,Half Moon Bay,CA,94019,1850000,4,5.0,Half Moon Bay,3510,16460,1990,144,527,,Sold,,,http://www.redfin.com/CA/Half-Moon-Bay/485-Miramar-Dr-94019/unit-485/home/778004,San Francisco MLS,460290,N,Y,37.4957962,-122.4543967
PAST SALE,,Single Family Residential,630 Miramar Dr,Half Moon Bay,CA,94019,1150000,5,4.0,,3440,9920,1995,,334,,,,,http://www.redfin.com/CA/Half-Moon-Bay/630-Miramar-Dr-94019/home/778027,,,N,Y,37.495994,-122.450164
PAST SALE,May-23-2017,Single Family Residential,444 2nd Ave,EL GRANADA,CA,94019,1028000,3,2.0,EL GRANADA,1290,5000,1962,252,797,,Sold,,,http://www.redfin.com/CA/Half-Moon-Bay/444-2nd-Ave-94019/home/112998743,MLSListings,ML81646836,N,Y,37.4945766,-122.4580951
PAST SALE,June-30-2017,Single Family Residential,349 1st Ave,HALF MOON BAY,CA,94019,1595000,3,3.0,HALF MOON BAY,2290,5750,2011,214,697,,Sold,,,http://www.redfin.com/CA/Half-Moon-Bay/349-1st-Ave-94019/home/40100482,MLSListings,ML81646966,N,Y,37.4949705,-122.4600166
PAST SALE,November-9-2017,Single Family Residential,301 Alameda Ave,HALF MOON BAY,CA,94019,1775000,4,2.5,HALF MOON BAY,3330,11860,1997,82,533,,Sold,,,http://www.redfin.com/CA/Half-Moon-Bay/301-Alameda-Ave-94019/home/2033322,MLSListings,ML81674814,N,Y,37.495678,-122.4600195
PAST SALE,January-24-2018,Other,00 5th Ave,HALF MOON BAY,CA,94019,11000,,,HALF MOON BAY,,7500,,6,,,Sold,,,http://www.redfin.com/CA/Half-Moon-Bay/5th-Ave-94019/home/23471445,MLSListings,ML81686453,N,Y,37.496771,-122.456735
PAST SALE,February-22-2017,Vacant Land,0 Valencia Ave,EL GRANADA,CA,94018,310000,,,EL GRANADA,,5500,,342,,,Sold,,,http://www.redfin.com/CA/El-Granada/Valencia-Ave-94018/home/23471346,MLSListings,ML81633885,N,Y,37.5070394,-122.4769792
PAST SALE,March-30-2017,Single Family Residential,300 El Granada Blvd,HALF MOON BAY,CA,94019,775000,1,1.0,HALF MOON BAY,760,5978,1963,306,1020,,Sold,,,http://www.redfin.com/CA/Half-Moon-Bay/300-El-Granada-Blvd-94019/home/1257651,MLSListings,ML81642687,N,Y,37.5069779,-122.463366
PAST SALE,April-29-2017,Single Family Residential,211 Bridgeport Dr,EL GRANADA,CA,94019,840000,3,2.0,EL GRANADA,1040,5100,1972,276,808,122,Sold,,,http://www.redfin.com/CA/Half-Moon-Bay/211-Bridgeport-Dr-94019/home/2044215,MLSListings,ML81643994,N,Y,37.511601,-122.486564
PAST SALE,May-26-2017,Single Family Residential,380 San Pedro Rd,EL GRANADA,CA,94018,1350000,4,2.5,EL GRANADA,2590,5500,2005,249,521,,Sold,,,http://www.redfin.com/CA/EL-GRANADA/380-San-Pedro-Rd-94018/home/113719473,MLSListings,ML81646702,N,Y,37.506596,-122.464287
PAST SALE,July-3-2017,Single Family Residential,406 Sevilla Ave,EL GRANADA,CA,94018,1232000,4,3.0,EL GRANADA,2450,5500,1989,211,503,,Sold,,,http://www.redfin.com/CA/EL-GRANADA/406-Sevilla-94018/home/113893002,MLSListings,ML81650754,N,Y,37.510161,-122.480759
PAST SALE,July-6-2017,Vacant Land,0 El Granada Blvd,EL GRANADA,CA,94018,375000,,,EL GRANADA,,4792,,208,,,Sold,,,http://www.redfin.com/CA/EL-GRANADA/0-El-Granada-Blvd-94018/home/112745621,MLSListings,ML81466194,N,Y,37.5017068,-122.4688381
PAST SALE,July-18-2017,Single Family Residential,431 Valencia Ave,EL GRANADA,CA,94018,1240000,3,2.5,EL GRANADA,1920,5500,1995,196,646,,Sold,,,http://www.redfin.com/CA/El-Granada/431-VALENCIA-94018/home/113836472,MLSListings,ML81653702,N,Y,37.5017068,-122.4688381
PAST SALE,August-2-2017,Single Family Residential,231 Dolores St,EL GRANADA,CA,94018,1355000,3,2.5,EL GRANADA,2285,6979,1985,181,593,,Sold,,,http://www.redfin.com/CA/EL-GRANADA/231-Dolores-94018/home/113820191,MLSListings,ML81670440,N,Y,37.5017068,-122.4688381
PAST SALE,June-28-2017,Single Family Residential,662 San Carlos Ave,EL GRANADA,CA,94019,745000,2,1.0,EL GRANADA,770,4450,1936,216,968,,Sold,,,http://www.redfin.com/CA/Half-Moon-Bay/662-San-Carlos-Ave-94019/home/2046355,MLSListings,ML81650848,N,Y,37.5094399,-122.4750544
PAST SALE,July-7-2017,Single Family Residential,606 Sonora Ave,EL GRANADA,CA,94019,899000,3,2.5,EL GRANADA,2010,5500,1990,207,447,,Sold,,,http://www.redfin.com/CA/Half-Moon-Bay/606-Sonora-Ave-94019/home/1881404,MLSListings,ML81640987,N,Y,37.5079459,-122.4811909
PAST SALE,June-21-2017,Single Family Residential,439 Sonora,EL GRANADA,CA,94019,795000,3,2.0,EL GRANADA,1050,4606,1955,223,757,,Sold,,,http://www.redfin.com/CA/Half-Moon-Bay/439-Sonora-Ave-94019/home/1808120,MLSListings,ML81647141,N,Y,37.5072381,-122.4794962
PAST SALE,,Single Family Residential,708 The Alameda,Half Moon Bay,CA,94019,292000,3,1.0,,1270,7227,1957,,230,,,,,http://www.redfin.com/CA/Half-Moon-Bay/708-The-Alameda-94019/home/780296,,,N,Y,37.5027787,-122.4674045
PAST SALE,,Single Family Residential,924 Sonora Ave,Half Moon Bay,CA,94019,924000,4,2.0,,1750,5500,1972,,528,,,,,http://www.redfin.com/CA/Half-Moon-Bay/924-Sonora-Ave-94019/home/1598739,,,N,Y,37.5091989,-122.4858229
PAST SALE,,Single Family Residential,123 Escalona Ave,Half Moon Bay,CA,94019,210000,3,2.0,,1580,5040,1969,,133,,,,,http://www.redfin.com/CA/Half-Moon-Bay/123-Escalona-Ave-94019/home/1122944,,,N,Y,37.5103835,-122.4760537
PAST SALE,,Single Family Residential,555 Avenue Portola,Half Moon Bay,CA,94019,1350000,4,3.0,,2890,6500,1999,,467,,,,,http://www.redfin.com/CA/Half-Moon-Bay/555-Avenue-Portola-94019/home/1952198,,,N,Y,37.5087038,-122.468358
PAST SALE,August-2-2017,Single Family Residential,355 San Pedro Rd,EL GRANADA,CA,94019,1175000,3,3.0,EL GRANADA,2140,12600,1975,181,549,,Sold,,,http://www.redfin.com/CA/Half-Moon-Bay/355-San-Pedro-Rd-94019/home/1239301,MLSListings,ML81672498,N,Y,37.5070652,-122.4644009
PAST SALE,,Single Family Residential,431 Valencia Ave,Half Moon Bay,CA,94019,1240000,3,2.0,,1530,5500,1995,,810,,,,,http://www.redfin.com/CA/Half-Moon-Bay/431-Valencia-Ave-94019/home/1122935,,,N,Y,37.5063624,-122.4768282
PAST SALE,September-1-2017,Vacant Land,0 Lewis,EL GRANADA,CA,94018,97000,,,EL GRANADA,,11543,,151,,,Sold,,,http://www.redfin.com/CA/El-Granada/0-lewis-94018/home/113792733,MLSListings,ML81649041,N,Y,37.5017068,-122.4688381
PAST SALE,,Single Family Residential,380 San Pedro Rd,Half Moon Bay,CA,94019,1350000,4,2.0,,2590,5500,2005,,521,,,,,http://www.redfin.com/CA/Half-Moon-Bay/380-San-Pedro-Rd-94019/home/1080462,,,N,Y,37.5065971,-122.4642859
PAST SALE,,Single Family Residential,450 El Granada Blvd,Half Moon Bay,CA,94019,1300000,4,2.0,,2760,5088,1996,,471,,,,,http://www.redfin.com/CA/Half-Moon-Bay/450-El-Granada-Blvd-94019/home/1080468,,,N,Y,37.5094713,-122.4650993
PAST SALE,September-25-2017,Vacant Land,0 Sonora Ave,EL GRANADA,CA,94018,375000,,,EL GRANADA,,5500,,127,,,Sold,,,http://www.redfin.com/CA/EL-GRANADA/0-Sonora-Ave-94018/home/112974828,MLSListings,ML81635323,N,Y,37.5017068,-122.4688381
PAST SALE,September-27-2017,Single Family Residential,738 El Granada Blvd,EL GRANADA,CA,94018,1350000,3,2.5,EL GRANADA,2620,5643,2007,125,515,,Sold,,,http://www.redfin.com/CA/El-Granada/738-EL-GRANADA-Blvd-94018/home/113807150,MLSListings,ML81675528,N,Y,37.5017068,-122.4688381
PAST SALE,September-29-2017,Single Family Residential,1022 Columbus St,EL GRANADA,CA,94018,1315000,3,2.5,EL GRANADA,1970,8232,1978,123,668,,Sold,,,http://www.redfin.com/CA/EL-GRANADA/1022-Columbus-St-94018/home/143392274,MLSListings,ML81674854,N,Y,37.5017068,-122.4688381
PAST SALE,October-16-2017,Condo/Co-op,4100 N Cabrillo Hwy #308,HALF MOON BAY,CA,94019,635000,0,1.0,HALF MOON BAY,515,68642,1997,106,1233,828,Sold,,,http://www.redfin.com/CA/Half-Moon-Bay/4100-Cabrillo-Hwy-N-94019/unit-308/home/141578391,MLSListings,ML81669316,N,Y,37.501984,-122.4743184
PAST SALE,October-5-2017,Vacant Land,247 San Juan,EL GRANADA,CA,94018,345000,,,EL GRANADA,,5201,,117,,,Sold,,,http://www.redfin.com/CA/EL-GRANADA/247-San-Juan-94018/home/112940559,MLSListings,ML81636229,N,Y,37.5017068,-122.4688381
PAST SALE,March-22-2017,Single Family Residential,431 Sonora Ave,EL GRANADA,CA,94018,820000,1,1.5,EL GRANADA,1073,3692,2017,314,764,,Sold,,,http://www.redfin.com/CA/EL-GRANADA/431-SONORA-AVE-94018/home/113048200,MLSListings,ML81637808,N,Y,37.507108,-122.479374
PAST SALE,,Single Family Residential,101 DEL MONTE RD,EL GRANADA,CA,94018,825000,4,2.0,,2260,5680,1975,,365,,,,,http://www.redfin.com/CA/EL-GRANADA/101-DEL-MONTE-RD-94018/home/1792474,,,N,Y,37.507768,-122.466259
PAST SALE,April-28-2017,Single Family Residential,386 El Granada Blvd,EL GRANADA,CA,94018,999000,3,2.5,EL GRANADA,2440,8700,1978,277,409,,Sold,,,http://www.redfin.com/CA/EL-GRANADA/386-EL-GRANADA-BLVD-94018/home/775637,MLSListings,ML81593194,N,Y,37.50928,-122.464844
PAST SALE,September-18-2017,Single Family Residential,120 Shelter Cove Dr,EL GRANADA,CA,94019,990000,3,2.0,EL GRANADA,1800,5300,1970,134,550,8,Sold,,,http://www.redfin.com/CA/Half-Moon-Bay/120-Shelter-Cove-Dr-94019/home/730079,MLSListings,ML81675439,N,Y,37.5099419,-122.4856003
PAST SALE,,Single Family Residential,1022 Columbus St,Half Moon Bay,CA,94019,1315000,3,2.0,,1970,8232,1978,,668,,,,,http://www.redfin.com/CA/Half-Moon-Bay/1022-Columbus-St-94019/home/1275618,,,N,Y,37.5055609,-122.4668809
PAST SALE,September-29-2017,Single Family Residential,194 Del Monte Rd,EL GRANADA,CA,94019,1125000,3,2.0,EL GRANADA,1570,5250,1982,123,717,,Sold,,,http://www.redfin.com/CA/Half-Moon-Bay/194-Del-Monte-Rd-94019/home/1995421,MLSListings,ML81675427,N,Y,37.5098857,-122.4670132
PAST SALE,,Single Family Residential,231 Dolores St,Half Moon Bay,CA,94019,1355000,3,2.0,,2120,6979,1985,,639,,,,,http://www.redfin.com/CA/Half-Moon-Bay/231-Dolores-St-94019/home/1396763,,,N,Y,37.5086609,-122.4690488
PAST SALE,November-2-2017,Vacant Land,0 Presidio,EL GRANADA,CA,94018,355000,,,EL GRANADA,,6250,,89,,,Sold,,,http://www.redfin.com/CA/EL-GRANADA/0-Presidio-94018/home/143939460,MLSListings,ML81679787,N,Y,37.5017068,-122.4688381
PAST SALE,October-6-2017,Single Family Residential,270 Coronado St,EL GRANADA,CA,94019,750000,2,1.0,EL GRANADA,780,2500,1959,116,962,,Sold,,,http://www.redfin.com/CA/Half-Moon-Bay/270-Coronado-St-94019/home/778826,MLSListings,ML81674426,N,Y,37.5035172,-122.4710466
PAST SALE,November-15-2017,Single Family Residential,830 Avenue Balboa,EL GRANADA,CA,94018,1645000,4,3.0,EL GRANADA,2850,6250,2008,76,577,,Sold,,,http://www.redfin.com/CA/El-Granada/830-Avenue-Balboa-94018/home/113828672,MLSListings,ML81677770,N,Y,37.509528,-122.476557
PAST SALE,November-17-2017,Vacant Land,00 Columbus,EL GRANADA,CA,94018,210000,,,EL GRANADA,,7500,,74,,,Sold,,,http://www.redfin.com/CA/EL-GRANADA/00-Columbus-94018/home/144235301,MLSListings,ML81683686,N,Y,37.5017068,-122.4688381
PAST SALE,October-26-2017,Single Family Residential,550 El Granada,EL GRANADA,CA,94019,900000,3,3.0,EL GRANADA,1830,4750,2011,96,492,,Sold,,,http://www.redfin.com/CA/Half-Moon-Bay/550-El-Granada-Blvd-94019/home/39905717,MLSListings,ML81647792,N,Y,37.511941,-122.4641245
PAST SALE,November-17-2017,Other,O FERDINAND Ave,EL GRANADA,CA,94018,365000,,,EL GRANADA,,6000,,74,,,Sold,,,http://www.redfin.com/CA/El-Granada/O-Ferdinand-Ave-94018/home/113665201,MLSListings,ML81645435,N,Y,37.5075574,-122.4725789
PAST SALE,November-3-2017,Single Family Residential,530 Valencia Ave,EL GRANADA,CA,94019,975000,3,2.0,EL GRANADA,1650,6250,1965,88,591,,Sold,,,http://www.redfin.com/CA/Half-Moon-Bay/530-Valencia-Ave-94019/home/1963422,MLSListings,ML81679861,N,Y,37.5072894,-122.4767802
PAST SALE,November-9-2017,Single Family Residential,771 Palma St,EL GRANADA,CA,94018,1246320,3,3.0,EL GRANADA,1818,6302,1947,82,686,,Sold,,,http://www.redfin.com/CA/EL-GRANADA/771-PALMA-ST-94018/home/1632705,MLSListings,ML81672451,N,Y,37.503169,-122.465377
PAST SALE,,Single Family Residential,830 Avenue Balboa,Half Moon Bay,CA,94019,1645000,4,3.0,,2850,6250,2008,,577,,,,,http://www.redfin.com/CA/Half-Moon-Bay/830-Avenue-Balboa-94019/home/17309288,,,N,Y,37.509528,-122.476557
PAST SALE,November-21-2017,Condo/Co-op,4100 N Cabrillo Hwy #101,HALF MOON BAY,CA,94019,362500,0,1.0,HALF MOON BAY,480,68642,1997,70,755,828,Sold,,,http://www.redfin.com/CA/Half-Moon-Bay/4100-Cabrillo-Hwy-N-94019/unit-101/home/17308011,MLSListings,ML81681810,N,Y,37.501984,-122.4743184
PAST SALE,December-29-2017,Single Family Residential,654 Isabella,EL GRANADA,CA,94018,1350000,4,2.5,EL GRANADA,3140,7930,1999,32,430,,Sold,,,http://www.redfin.com/CA/El-Granada/654-Isabella-Rd-94018/home/2042907,MLSListings,ML81687428,N,Y,37.5087745,-122.4673701
PAST SALE,June-6-2017,Single Family Residential,393 Avenue Granada,EL GRANADA,CA,94019,1350000,3,3.0,EL GRANADA,2099,6830,2015,238,643,,Sold,,,http://www.redfin.com/CA/El-Granada/393-Avenue-Granada-94018/home/113739423,MLSListings,ML81641589,N,Y,37.5109794,-122.4803172
PAST SALE,December-6-2017,Single Family Residential,270 Francisco St,EL GRANADA,CA,94019,1075000,4,2.0,EL GRANADA,2110,6000,1966,55,509,,Sold,,,http://www.redfin.com/CA/Half-Moon-Bay/270-Francisco-St-94019/home/1306113,MLSListings,ML81683917,N,Y,37.5056716,-122.4743706
PAST SALE,December-13-2017,Single Family Residential,131 Escalona Ave,EL GRANADA,CA,94019,1888888,4,3.5,EL GRANADA,3000,10780,1989,48,630,,Sold,,,http://www.redfin.com/CA/Half-Moon-Bay/131-Escalona-Ave-94019/home/1925998,MLSListings,ML81684612,N,Y,37.5105634,-122.4762836
PAST SALE,December-15-2017,Single Family Residential,415 The Alameda,EL GRANADA,CA,94019,1047000,3,2.0,EL GRANADA,2050,5700,1996,46,511,,Sold,,,http://www.redfin.com/CA/Half-Moon-Bay/415-The-Alameda-94019/home/778503,MLSListings,ML81669103,N,Y,37.5049624,-122.4714482
PAST SALE,,Single Family Residential,947 Francisco St,Half Moon Bay,CA,94019,920000,2,1.0,,740,9000,1920,,1243,,,,,http://www.redfin.com/CA/Half-Moon-Bay/947-Francisco-St-94019/home/1541014,,,N,Y,37.500938,-122.463357
PAST SALE,January-24-2018,Single Family Residential,331 Paloma Ave,EL GRANADA,CA,94019,899000,2,1.0,EL GRANADA,846,9801,1956,6,1063,,Sold,,,http://www.redfin.com/CA/Half-Moon-Bay/331-Paloma-Ave-94019/home/1941956,MLSListings,ML81686684,N,Y,37.5088592,-122.4770067
PAST SALE,February-15-2017,Single Family Residential,1559 Mizzen Ln,HALF MOON BAY,CA,94019,892000,4,2.0,HALF MOON BAY,1580,6000,1975,349,565,,Sold,,,http://www.redfin.com/CA/Half-Moon-Bay/1559-Mizzen-Ln-94019/home/1443771,MLSListings,ML81635515,N,Y,37.482665,-122.4384343
PAST SALE,September-25-2017,Mobile/Manufactured Home,123 Barranca Ln #123,MOSS BEACH,CA,94038,165000,3,2.0,MOSS BEACH,1240,,1999,127,133,,Sold,,,http://www.redfin.com/CA/Moss-Beach/123-Barranca-Ln-94038/unit-123/home/143734163,MLSListings,ML81676179,N,Y,37.508026,-122.4981724
PAST SALE,September-8-2017,Vacant Land,000 West Point Ave,EL GRANADA,CA,94019,660000,,,EL GRANADA,,3314,,144,,,Sold,,,http://www.redfin.com/CA/Half-Moon-Bay/0-W-Point-Ave-94019/home/113650532,MLSListings,ML81645019,N,Y,37.5031548,-122.49415
PAST SALE,February-17-2017,Single Family Residential,712 Arroyo Leon Dr,HALF MOON BAY,CA,94019,900000,3,2.0,HALF MOON BAY,1760,5500,1964,347,511,,Sold,,,http://www.redfin.com/CA/Half-Moon-Bay/Arroyo-Leon-Dr-94019/home/1378952,MLSListings,ML81635441,N,Y,37.4601057,-122.4279173
PAST SALE,February-2-2017,Vacant Land,538 Valencia,EL GRANADA,CA,94018,320000,,,EL GRANADA,,6250,,362,,,Sold,,,http://www.redfin.com/CA/EL-GRANADA/538-Valencia-94018/home/112471086,MLSListings,ML81633961,N,Y,37.5017068,-122.4688381
PAST SALE,,Single Family Residential,638 San Carlos Ave,Half Moon Bay,CA,94019,790000,2,1.0,,998,5050,1940,,792,,,,,http://www.redfin.com/CA/Half-Moon-Bay/638-San-Carlos-Ave-94019/home/1815599,,,N,Y,37.5091669,-122.4750101
PAST SALE,March-10-2017,Single Family Residential,2351 Winged Foot Rd,HALF MOON BAY,CA,94019,1515000,5,4.0,HALF MOON BAY,3450,6850,1980,326,439,110,Sold,,,http://www.redfin.com/CA/Half-Moon-Bay/2351-Winged-Foot-Rd-94019/home/877021,MLSListings,ML81638355,N,Y,37.4319436,-122.4319158
PAST SALE,March-9-2017,Single Family Residential,424 Grand Blvd,HALF MOON BAY,CA,94019,885000,3,2.0,HALF MOON BAY,1390,5000,1965,327,637,,Sold,,,http://www.redfin.com/CA/Half-Moon-Bay/424-Grand-Blvd-94019/home/2029776,MLSListings,ML81635418,N,Y,37.4713556,-122.4367697
PAST SALE,May-3-2017,Mobile/Manufactured Home,31 Seascape Dr,HALF MOON BAY,CA,94019,315000,2,2.0,HALF MOON BAY,1040,,1984,272,303,,Sold,,,http://www.redfin.com/CA/Half-Moon-Bay/31-Seascape-Dr-94019/home/1392676,MLSListings,ML81634354,N,Y,37.4286275,-122.4275213
PAST SALE,June-19-2017,Mobile/Manufactured Home,4 Sand Dunes Ct,HALF MOON BAY,CA,94019,389500,2,2.0,HALF MOON BAY,1440,1744080,1972,225,270,,Sold,,,http://www.redfin.com/CA/Half-Moon-Bay/4-Sand-Dunes-Ct-94019/home/1993410,MLSListings,ML81652861,N,Y,37.4296718,-122.4315018
PAST SALE,July-20-2017,Mobile/Manufactured Home,14 Canada Cove Ave,HALF MOON BAY,CA,94019,400000,2,2.0,HALF MOON BAY,1248,,1983,194,321,,Sold,,,http://www.redfin.com/CA/Half-Moon-Bay/14-Canada-Cove-Ave-94019/home/1812186,MLSListings,ML81667487,N,Y,37.430488,-122.4283437
PAST SALE,June-30-2017,Single Family Residential,376 Eagle Trace Dr,HALF MOON BAY,CA,94019,1570000,5,2.5,HALF MOON BAY,3180,7150,1990,214,494,109,Sold,,,http://www.redfin.com/CA/Half-Moon-Bay/376-Eagle-Trace-Dr-94019/home/2043175,MLSListings,ML81646024,N,Y,37.4362941,-122.4287129
PAST SALE,June-15-2017,Single Family Residential,125 Spyglass Ln,HALF MOON BAY,CA,94019,3090000,5,4.5,HALF MOON BAY,4762,11108,2004,229,649,108,Sold,,,http://www.redfin.com/CA/Half-Moon-Bay/125-Spyglass-Ln-94019/home/1961320,MLSListings,ML81648247,N,Y,37.4316034,-122.4372978
PAST SALE,June-23-2017,Single Family Residential,109 Carnoustie Dr,HALF MOON BAY,CA,94019,2155000,4,3.0,HALF MOON BAY,3196,7028,2013,221,674,106,Sold,,,http://www.redfin.com/CA/Half-Moon-Bay/109-Carnoustie-Dr-94019/home/49781015,MLSListings,ML81652256,N,Y,37.4395659,-122.4349659
PAST SALE,,Single Family Residential,121 Spyglass Ln,Half Moon Bay,CA,94019,3400000,5,4.0,,4596,11722,2005,,740,,,,,http://www.redfin.com/CA/Half-Moon-Bay/121-Spyglass-Ln-94019/home/1000381,,,N,Y,37.4313737,-122.4372213
PAST SALE,September-19-2017,Single Family Residential,2191 Bayhill Ct,HALF MOON BAY,CA,94019,1950000,4,3.5,HALF MOON BAY,3460,14300,1979,133,564,113,Sold,,,http://www.redfin.com/CA/Half-Moon-Bay/2191-Bayhill-Ct-94019/home/1942976,MLSListings,ML81652141,N,Y,37.4380706,-122.429489
PAST SALE,September-12-2017,Single Family Residential,118 Carnoustie Dr,HALF MOON BAY,CA,94019,1835000,4,3.0,HALF MOON BAY,3388,7531,2016,140,542,106,Sold,,,http://www.redfin.com/CA/Half-Moon-Bay/118-Carnoustie-Dr-94019/home/109304079,MLSListings,ML81628749,N,Y,37.439937,-122.435651
PAST SALE,May-16-2017,Mobile/Manufactured Home,3 Coral Way,HALF MOON BAY,CA,94019,395000,3,2.0,HALF MOON BAY,1344,,2007,259,294,,Sold,,,http://www.redfin.com/CA/Half-Moon-Bay/3-Coral-Way-94019/home/17307254,MLSListings,ML81629045,N,Y,37.4283699,-122.4303226
PAST SALE,May-12-2017,Mobile/Manufactured Home,102 Ocean View Ave,HALF MOON BAY,CA,94019,407000,3,2.0,HALF MOON BAY,1511,,2006,263,269,,Sold,,,http://www.redfin.com/CA/Half-Moon-Bay/102-Oceanview-Ave-94019/home/17307072,MLSListings,ML81648091,N,Y,37.4300703,-122.4343027
PAST SALE,July-6-2017,Single Family Residential,101 Carnoustie Dr,HALF MOON BAY,CA,94019,2112500,4,3.0,HALF MOON BAY,3112,7887,2017,208,679,106,Sold,,,http://www.redfin.com/CA/Half-Moon-Bay/101-Carnoustie-Dr-94019/home/140101736,MLSListings,ML81668779,N,Y,37.439617,-122.434
PAST SALE,April-10-2017,Single Family Residential,10 Pembroke Ct,HALF MOON BAY,CA,94019,1100000,2,2.0,HALF MOON BAY,1750,7623,1987,295,629,113,Sold,,,http://www.redfin.com/CA/Half-Moon-Bay/10-Pembroke-Ct-94019/home/1625632,MLSListings,ML81643564,N,Y,37.4351931,-122.4350158
PAST SALE,September-15-2017,Single Family Residential,18 Merion Rd,HALF MOON BAY,CA,94019,1070000,3,2.5,HALF MOON BAY,2050,1848,1987,137,522,218,Sold,,,http://www.redfin.com/CA/Half-Moon-Bay/18-Merion-Rd-94019/home/880211,MLSListings,ML81671818,N,Y,37.4370905,-122.4345711
PAST SALE,October-11-2017,Single Family Residential,80 River Oaks Rd,HALF MOON BAY,CA,94019,1310000,3,2.5,HALF MOON BAY,2410,6018,1987,111,544,18,Sold,,,http://www.redfin.com/CA/Half-Moon-Bay/80-River-Oaks-Rd-94019/home/2020320,MLSListings,ML81676094,N,Y,37.4344792,-122.4347811
PAST SALE,November-17-2017,Single Family Residential,2171 Saint Andrews Rd,HALF MOON BAY,CA,94019,2000000,4,3.5,HALF MOON BAY,3532,13700,1977,74,566,109,Sold,,,http://www.redfin.com/CA/Half-Moon-Bay/2171-Saint-Andrews-Rd-94019/home/875718,MLSListings,ML81668164,N,Y,37.4390069,-122.430968
PAST SALE,October-31-2017,Single Family Residential,316 Eagle Trace Dr,HALF MOON BAY,CA,94019,1495000,4,3.0,HALF MOON BAY,2820,7940,1990,91,530,109,Sold,,,http://www.redfin.com/CA/Half-Moon-Bay/316-Eagle-Trace-Dr-94019/home/2058179,MLSListings,ML81682638,N,Y,37.436445,-122.4281532
PAST SALE,December-14-2017,Mobile/Manufactured Home,7 Oceanview #7,HALF MOON BAY,CA,94019,199000,2,2.0,HALF MOON BAY,1150,,1973,47,173,,Sold,,,http://www.redfin.com/CA/Half-Moon-Bay/7-Oceanview-Ave-94019/unit-7/home/40030530,MLSListings,ML81680742,N,Y,37.4305221,-122.4291081
PAST SALE,December-15-2017,Mobile/Manufactured Home,35 Oceanview Ave #35,HALF MOON BAY,CA,94019,429000,3,2.0,HALF MOON BAY,1352,,2012,46,317,,Sold,,,http://www.redfin.com/CA/Half-Moon-Bay/35-Oceanview-Ave-94019/unit-35/home/144092082,MLSListings,ML81681800,N,Y,37.4301215,-122.4321336
PAST SALE,December-15-2017,Mobile/Manufactured Home,21 Sea Breeze Dr #21,HALF MOON BAY,CA,94019,400000,3,2.0,HALF MOON BAY,1106,,2006,46,362,,Sold,,,http://www.redfin.com/CA/Half-Moon-Bay/21-Sea-Breeze-Dr-94019/unit-21/home/26764097,MLSListings,ML81684374,N,Y,37.4293028,-122.43045
PAST SALE,May-12-2017,Single Family Residential,19 Turnberry Ct,Half Moon Bay,CA,94019,1725000,4,3.0,Half Moon Bay,3550,7183,1996,263,486,,Sold,,,http://www.redfin.com/CA/Half-Moon-Bay/19-Turnberry-Ct-94019/home/879196,San Francisco MLS,455434,N,Y,37.437449,-122.4315979
PAST SALE,December-5-2017,Single Family Residential,431 Burning Tree Ct,HALF MOON BAY,CA,94019,1375000,3,3.0,HALF MOON BAY,2640,6664,1979,56,521,109,Sold,,,http://www.redfin.com/CA/Half-Moon-Bay/431-Burning-Tree-Ct-94019/home/1609572,MLSListings,ML81683164,N,Y,37.4323098,-122.4295123
PAST SALE,November-30-2017,Single Family Residential,131 Cypress Point Rd,HALF MOON BAY,CA,94019,2600000,5,3.0,HALF MOON BAY,4510,15971,2003,61,576,113,Sold,,,http://www.redfin.com/CA/Half-Moon-Bay/131-Cypress-Point-Rd-94019/home/1001497,MLSListings,ML81642918,N,Y,37.4309207,-122.4361193
PAST SALE,April-25-2017,Mobile/Manufactured Home,18 Starfish Ct,HALF MOON BAY,CA,94019,199000,2,2.0,HALF MOON BAY,1440,,1974,280,138,,Sold,,,http://www.redfin.com/CA/Half-Moon-Bay/18-Starfish-Ct-94019/home/113625803,MLSListings,ML81644957,N,Y,37.4289983,-122.4321009
PAST SALE,,Single Family Residential,217 Eagle Trace Dr,Half Moon Bay,CA,94019,1152000,3,2.0,,3180,7287,1990,,362,,,,,http://www.redfin.com/CA/Half-Moon-Bay/217-Eagle-Trace-Dr-94019/home/875853,,,N,Y,37.4351748,-122.4286933
PAST SALE,December-26-2017,Single Family Residential,25 Spyglass Ct,HALF MOON BAY,CA,94019,2700000,5,3.0,HALF MOON BAY,4176,14335,2002,35,647,113,Sold,,,http://www.redfin.com/CA/Half-Moon-Bay/25-Spyglass-Ct-94019/home/2048177,MLSListings,ML81679622,N,Y,37.433473,-122.4383137
PAST SALE,February-24-2017,Single Family Residential,551 Terrace Ave,HALF MOON BAY,CA,94019,941050,3,2.0,HALF MOON BAY,1790,5300,1975,340,526,,Sold,,,http://www.redfin.com/CA/Half-Moon-Bay/551-Terrace-Ave-94019/home/1506166,MLSListings,ML81634855,N,Y,37.4741603,-122.4340715
PAST SALE,March-22-2017,Single Family Residential,315 Valencia Ave,EL GRANADA,CA,94019,894000,3,1.0,EL GRANADA,980,4850,1963,314,912,,Sold,,,http://www.redfin.com/CA/Half-Moon-Bay/315-Valencia-Ave-94019/home/1599440,MLSListings,ML81642329,N,Y,37.5053657,-122.4761309
PAST SALE,March-28-2017,Condo/Co-op,845 Colonel Way,HALF MOON BAY,CA,94019,561000,2,1.0,HALF MOON BAY,730,1998,1970,308,768,275,Sold,,,http://www.redfin.com/CA/Half-Moon-Bay/845-Colonel-Way-94019/home/825164,MLSListings,ML81639278,N,Y,37.455435,-122.42697
PAST SALE,April-11-2017,Vacant Land,0 Sevilla Ave,EL GRANADA,CA,94018,322000,,,EL GRANADA,,5000,,294,,,Sold,,,http://www.redfin.com/CA/EL-GRANADA/0-Sevilla-Ave-94018/home/113112303,MLSListings,ML81639197,N,Y,37.5017068,-122.4688381
PAST SALE,April-19-2017,Vacant Land,0 Beach Ave,HALF MOON BAY,CA,94019,5500,,,HALF MOON BAY,,11300,,286,,,Sold,,,http://www.redfin.com/CA/Half-Moon-Bay/0-Beach-Ave-94019/home/21840067,MLSListings,ML81645574,N,Y,37.4763725,-122.4473467
PAST SALE,April-13-2017,Single Family Residential,319 Grove St,HALF MOON BAY,CA,94019,903950,3,2.0,HALF MOON BAY,1140,5145,1965,292,793,,Sold,,,http://www.redfin.com/CA/Half-Moon-Bay/319-Grove-St-94019/home/871851,MLSListings,ML81642057,N,Y,37.4547347,-122.4381999
PAST SALE,May-5-2017,Single Family Residential,954 Ventura St,EL GRANADA,CA,94018,1100000,3,2.5,EL GRANADA,1870,9000,1986,270,588,,Sold,,,http://www.redfin.com/CA/EL-GRANADA/954-Ventura-St-94018/home/113114813,MLSListings,ML81639294,N,Y,37.500751,-122.460922
PAST SALE,,Single Family Residential,240 Palm Beach Ave,Half Moon Bay,CA,94019,749500,4,2.0,,1750,5500,1973,,428,,,,,http://www.redfin.com/CA/Half-Moon-Bay/240-Palm-Beach-Ave-94019/home/2052205,,,N,Y,37.5108669,-122.4843037
PAST SALE,May-11-2017,Single Family Residential,315 San Juan Ave,El Granada,CA,94018,1399000,3,2.5,San Mateo,1610,24133,1975,264,869,,Sold,,,http://www.redfin.com/CA/El-Granada/315-San-Juan-Ave-94018/home/113427497,San Francisco MLS,455357,N,Y,37.509449,-122.471481
PAST SALE,May-12-2017,Single Family Residential,421 San Carlos Ave,EL GRANADA,CA,94018,1335000,5,3.5,EL GRANADA,2776,6850,2003,263,481,,Sold,,,http://www.redfin.com/CA/EL-GRANADA/421-San-Carlos-Ave-94018/home/113438529,MLSListings,ML81642845,N,Y,37.5017068,-122.4688381
PAST SALE,May-19-2017,Single Family Residential,924 Sonora Ave,EL GRANADA,CA,94018,924000,4,2.0,EL GRANADA,1750,5500,1972,256,528,8,Sold,,,http://www.redfin.com/CA/EL-GRANADA/924-Sonora-Ave-94018/home/113700611,MLSListings,ML81646071,N,Y,37.5017068,-122.4688381
PAST SALE,May-5-2017,Vacant Land,655 Potter Ave,HALF MOON BAY,CA,94019,611000,,,HALF MOON BAY,,7739,,270,,,Sold,,,http://www.redfin.com/CA/Half-Moon-Bay/655-Potter-Ave-94019/home/40099351,MLSListings,ML81647923,N,Y,37.4615525,-122.4405715
PAST SALE,,Single Family Residential,954 Ventura St,Half Moon Bay,CA,94019,1100000,3,2.0,,1870,9000,1986,,588,,,,,http://www.redfin.com/CA/Half-Moon-Bay/954-Ventura-St-94019/home/1433653,,,N,Y,37.5007777,-122.4608227
PAST SALE,June-1-2017,Single Family Residential,139 Santa Ana St,EL GRANADA,CA,94019,1350000,3,2.5,EL GRANADA,2270,5000,1989,243,595,,Sold,,,http://www.redfin.com/CA/Half-Moon-Bay/139-Santa-Ana-St-94019/home/2014592,MLSListings,ML81645939,N,Y,37.5008037,-122.4662868
PAST SALE,June-6-2017,Single Family Residential,555 Avenue Portola,EL GRANADA,CA,94018,1350000,4,3.0,EL GRANADA,2890,6500,1999,238,467,,Sold,,,http://www.redfin.com/CA/El-Granada/555-AVE-PORTOLA-94018/home/113801187,MLSListings,ML81642798,N,Y,37.50872,-122.468346
PAST SALE,April-27-2017,Single Family Residential,626 Palma Ave,EL GRANADA,CA,94019,1380000,4,2.5,EL GRANADA,2530,5850,2006,278,545,,Sold,,,http://www.redfin.com/CA/Half-Moon-Bay/626-Palma-St-94019/home/2100005,MLSListings,ML81644531,N,Y,37.504443,-122.468054
PAST SALE,June-21-2017,Single Family Residential,363 San Juan Ave,EL GRANADA,CA,94018,1270000,4,3.0,EL GRANADA,2150,4950,2007,223,591,,Sold,,,http://www.redfin.com/CA/EL-GRANADA/363-San-Juan-Ave-94018/home/113782330,MLSListings,ML81648205,N,Y,37.5017068,-122.4688381
PAST SALE,June-28-2017,Single Family Residential,415 Sonora Ave,EL GRANADA,CA,94018,900000,3,2.0,EL GRANADA,1050,5500,1955,216,857,,Sold,,,http://www.redfin.com/CA/El-Granada/415-SONORA-Ave-94018/home/113798367,MLSListings,ML81652566,N,Y,37.506961,-122.479006
PAST SALE,July-5-2017,Vacant Land,000 The Alameda,EL GRANADA,CA,94018,375000,,,EL GRANADA,,3000,,209,,,Sold,,,http://www.redfin.com/CA/El-Granada/000-The-Alameda-94018/home/113726144,MLSListings,ML81646946,N,Y,37.5017068,-122.4688381
PAST SALE,July-13-2017,Vacant Land,000 Johnston St,HALF MOON BAY,CA,94019,415000,,,HALF MOON BAY,,8100,,201,,,Sold,,,http://www.redfin.com/CA/Half-Moon-Bay/Johnston-St-94019/home/121481126,MLSListings,ML81655712,N,Y,37.4615219,-122.4286233
PAST SALE,June-30-2017,Vacant Land,0 Chesterfield Ave,HALF MOON BAY,CA,94019,195000,,,HALF MOON BAY,,5000,,214,,,Sold,,,http://www.redfin.com/CA/Half-Moon-Bay/Chesterfield-Ave-94019/home/21839114,MLSListings,ML81597230,N,Y,37.4705438,-122.4383183
PAST SALE,March-29-2017,Single Family Residential,687 Spindrift Way,HALF MOON BAY,CA,94019,810000,4,2.0,HALF MOON BAY,1100,6000,1971,307,736,,Sold,,,http://www.redfin.com/CA/Half-Moon-Bay/687-Spindrift-Way-94019/home/1919782,MLSListings,ML81640720,N,Y,37.4826193,-122.4362973
PAST SALE,May-5-2017,Single Family Residential,315 San Juan Ave,EL GRANADA,CA,94019,1399000,3,2.0,EL GRANADA,1610,24133,1975,270,869,,Sold,,,http://www.redfin.com/CA/Half-Moon-Bay/315-San-Juan-Ave-94019/home/1433608,MLSListings,ML81637676,N,Y,37.509569,-122.471562
PAST SALE,July-31-2017,Vacant Land,0 Dolphine Ave,EL GRANADA,CA,94018,95000,,,EL GRANADA,,18000,,183,,,Sold,,,http://www.redfin.com/CA/El-Granada/0-DOLPHINE-Ave-94018/home/113792093,MLSListings,ML81652652,N,Y,37.5017068,-122.4688381
PAST SALE,August-3-2017,Vacant Land,Parcel 1 Kelly Ave,HALF MOON BAY,CA,94019,5310000,,,HALF MOON BAY,,200376,,180,,,Sold,,,http://www.redfin.com/CA/HALF-MOON-BAY/Parcel-1-Kelly-Ave-94019/home/133673479,MLSListings,ML81667626,N,Y,37.4635519,-122.4285862
PAST SALE,August-3-2017,Vacant Land,Parcel-3 Kelly Ave,HALF MOON BAY,CA,94019,5310000,,,HALF MOON BAY,,200376,,180,,,Sold,,,http://www.redfin.com/CA/HALF-MOON-BAY/Parcel-3-Kelly-Ave-94019/home/133682537,MLSListings,ML81667633,N,Y,37.4635519,-122.4285862
PAST SALE,August-3-2017,Single Family Residential,329B Kelly Ave,HALF MOON BAY,CA,94019,5310000,2,1.0,HALF MOON BAY,838,200376,1930,180,6337,,Sold,,,http://www.redfin.com/CA/Half-Moon-Bay/329-Kelly-Ave-94019/unit-B/home/17309220,MLSListings,ML81667639,N,Y,37.4648295,-122.4394876
PAST SALE,August-3-2017,Vacant Land,Parcel 2 Kelly,HALF MOON BAY,CA,94019,5310000,,,HALF MOON BAY,,200376,,180,,,Sold,,,http://www.redfin.com/CA/HALF-MOON-BAY/Parcel-2-Kelly-94019/home/133673502,MLSListings,ML81667630,N,Y,37.4635519,-122.4285862
PAST SALE,,Single Family Residential,415 Sonora Ave,Half Moon Bay,CA,94019,900000,3,2.0,,1050,5500,1955,,857,,,,,http://www.redfin.com/CA/Half-Moon-Bay/415-Sonora-Ave-94019/home/1760563,,,N,Y,37.5068548,-122.4792404
PAST SALE,,Single Family Residential,435 Beach Ave,Half Moon Bay,CA,94019,1000000,6,3.0,,2470,7620,1972,,405,,,,,http://www.redfin.com/CA/Half-Moon-Bay/435-Beach-Ave-94019/home/1533918,,,N,Y,37.4785096,-122.4428489
PAST SALE,,Single Family Residential,440 2nd Ave,Half Moon Bay,CA,94019,1028000,3,2.0,,1290,5000,1962,,797,,,,,http://www.redfin.com/CA/Half-Moon-Bay/440-2nd-Ave-94019/home/777849,,,N,Y,37.4944342,-122.4578272
PAST SALE,May-24-2017,Townhouse,45 Patrick Way,HALF MOON BAY,CA,94019,860000,2,2.5,HALF MOON BAY,1400,984,1994,251,614,395,Sold,,,http://www.redfin.com/CA/Half-Moon-Bay/45-Patrick-Way-94019/home/1341642,MLSListings,ML81649201,N,Y,37.467478,-122.426226
PAST SALE,May-11-2017,Single Family Residential,331 Miramontes Ave,HALF MOON BAY,CA,94019,1270000,4,3.0,HALF MOON BAY,2720,7500,1986,264,467,,Sold,,,http://www.redfin.com/CA/Half-Moon-Bay/331-Miramontes-Ave-94019/home/1886634,MLSListings,ML81636364,N,Y,37.4637967,-122.4389311
PAST SALE,June-23-2017,Single Family Residential,705 Alsace Lorraine Ave,HALF MOON BAY,CA,94019,1625000,4,3.0,HALF MOON BAY,3960,12000,1963,221,410,,Sold,,,http://www.redfin.com/CA/Half-Moon-Bay/705-Alsace-Lorraine-Ave-94019/home/2058072,MLSListings,ML81645930,N,Y,37.4605011,-122.4383938
PAST SALE,,Single Family Residential,421 San Carlos Ave,Half Moon Bay,CA,94019,1335000,4,3.0,,2776,6850,2003,,481,,,,,http://www.redfin.com/CA/Half-Moon-Bay/421-San-Carlos-Ave-94019/home/1676920,,,N,Y,37.5074517,-122.4739158
PAST SALE,May-11-2017,Single Family Residential,351 El Granada Blvd,EL GRANADA,CA,94019,1200000,4,3.0,EL GRANADA,2066,4608,1972,264,581,,Sold,,,http://www.redfin.com/CA/EL-GRANADA/351-EL-GRANADA-BLVD-94018/home/775540,MLSListings,ML81642730,N,Y,37.508479,-122.464623
PAST SALE,May-31-2017,Condo/Co-op,174 Amesport Lndg,HALF MOON BAY,CA,94019,640000,2,2.0,HALF MOON BAY,950,5799,1990,244,674,406,Sold,,,http://www.redfin.com/CA/Half-Moon-Bay/174-Amesport-Lndg-94019/unit-198/home/1738992,MLSListings,ML81643028,N,Y,37.460036,-122.433681
PAST SALE,,Single Family Residential,406 Sevilla Ave,Half Moon Bay,CA,94019,1232000,4,3.0,,2450,5500,1989,,503,,,,,http://www.redfin.com/CA/Half-Moon-Bay/406-Sevilla-Ave-94019/home/1599424,,,N,Y,37.5101513,-122.4807514
PAST SALE,June-15-2017,Single Family Residential,319 Correas St,HALF MOON BAY,CA,94019,1355000,4,3.0,HALF MOON BAY,2690,7500,1989,229,504,,Sold,,,http://www.redfin.com/CA/Half-Moon-Bay/319-Correas-St-94019/home/1709580,MLSListings,ML81647964,N,Y,37.4628478,-122.4394183
PAST SALE,June-7-2017,Townhouse,997 S Colonel Way,HALF MOON BAY,CA,94019,525000,2,1.0,HALF MOON BAY,730,2079,1970,237,719,275,Sold,,,http://www.redfin.com/CA/Half-Moon-Bay/997-Colonel-Way-94019/home/2039276,MLSListings,ML81648879,N,Y,37.455713,-122.428082
PAST SALE,July-24-2017,Single Family Residential,706 Grandview Blvd,HALF MOON BAY,CA,94019,813000,3,1.5,HALF MOON BAY,1020,5000,1964,190,797,,Sold,,,http://www.redfin.com/CA/Half-Moon-Bay/706-Grandview-Blvd-94019/home/783123,MLSListings,ML81653277,N,Y,37.476904,-122.4377319
PAST SALE,July-18-2017,Single Family Residential,2005 Bordeaux Ln,HALF MOON BAY,CA,94019,1047000,3,2.0,HALF MOON BAY,1790,6930,1975,196,585,,Sold,,,http://www.redfin.com/CA/Half-Moon-Bay/2005-Bordeaux-Ln-94019/home/1332381,MLSListings,ML81655574,N,Y,37.4844223,-122.4438926
PAST SALE,June-16-2017,Single Family Residential,2790 Pullman Ave,HALF MOON BAY,CA,94019,1285000,4,2.5,HALF MOON BAY,2374,5000,1993,228,541,,Sold,,,http://www.redfin.com/CA/Half-Moon-Bay/2790-Pullman-Ave-94019/home/1741513,MLSListings,ML81651472,N,Y,37.489547,-122.451934
PAST SALE,,Single Family Residential,251 Granelli Ave,Half Moon Bay,CA,94019,1310000,3,2.0,,2940,5500,1989,,446,,,,,http://www.redfin.com/CA/Half-Moon-Bay/251-Granelli-Ave-94019/home/1699975,,,N,Y,37.459537,-122.4399133
PAST SALE,,Single Family Residential,412 Kelly Ave,Half Moon Bay,CA,94019,550000,3,2.0,,2050,12600,1989,,268,,,,,http://www.redfin.com/CA/Half-Moon-Bay/412-Kelly-Ave-94019/home/1823507,,,N,Y,37.4642183,-122.437574
PAST SALE,May-15-2017,Single Family Residential,456 Grand Blvd,HALF MOON BAY,CA,94019,985000,3,2.0,HALF MOON BAY,1323,5650,2017,260,745,,Sold,,,http://www.redfin.com/CA/Half-Moon-Bay/456-Grand-Blvd-94019/home/113516316,MLSListings,ML81643598,N,Y,37.472131,-122.43584
PAST SALE,June-8-2017,Single Family Residential,522 Ferdinand Ave,EL GRANADA,CA,94019,1248000,3,2.5,EL GRANADA,2280,6200,1994,236,547,,Sold,,,http://www.redfin.com/CA/Half-Moon-Bay/522-Ferdinand-Ave-94019/home/1909014,MLSListings,ML81642069,N,Y,37.5075933,-122.4710242
PAST SALE,June-19-2017,Single Family Residential,260 Poplar St,HALF MOON BAY,CA,94019,830000,4,1.0,HALF MOON BAY,1220,3612,1959,225,680,,Sold,,,http://www.redfin.com/CA/Half-Moon-Bay/260-Poplar-St-94019/home/1726889,MLSListings,ML81649413,N,Y,37.4557036,-122.4395167
PAST SALE,May-18-2017,Single Family Residential,335 Grove St,HALF MOON BAY,CA,94019,880000,3,2.0,HALF MOON BAY,1200,5250,1962,257,733,,Sold,,,http://www.redfin.com/CA/Half-Moon-Bay/335-Grove-St-94019/home/2046718,MLSListings,ML81643927,N,Y,37.4547935,-122.437714
PAST SALE,May-24-2017,Condo/Co-op,4100 N Cabrillo Hwy #116,HALF MOON BAY,CA,94019,590000,0,1.0,HALF MOON BAY,450,,1997,251,1311,828,Sold,,,http://www.redfin.com/CA/Half-Moon-Bay/4100-Cabrillo-Hwy-N-94019/unit-116/home/17308953,MLSListings,ML81644425,N,Y,37.501984,-122.4743184
PAST SALE,April-28-2017,Single Family Residential,939 Ferdinand Ave,EL GRANADA,CA,94019,1175000,3,2.5,EL GRANADA,2490,5250,1990,277,472,,Sold,,,http://www.redfin.com/CA/Half-Moon-Bay/939-Ferdinand-Ave-94019/home/1709071,MLSListings,ML81636990,N,Y,37.5093824,-122.4746578
PAST SALE,,Single Family Residential,408 Kelly Ave,Half Moon Bay,CA,94019,480000,3,1.0,,1080,7500,1915,,444,,,,,http://www.redfin.com/CA/Half-Moon-Bay/408-Kelly-Ave-94019/home/2057379,,,N,Y,37.464232,-122.4378145
PAST SALE,,Single Family Residential,393 Avenue Granada,Half Moon Bay,CA,94019,1350000,3,3.0,,2099,6830,2015,,643,,,,,http://www.redfin.com/CA/Half-Moon-Bay/393-Avenue-Granada-94019/home/76612395,,,N,Y,37.510979,-122.480317
PAST SALE,August-21-2017,Single Family Residential,613 Grandview Blvd,HALF MOON BAY,CA,94019,605000,0,1.0,HALF MOON BAY,1368,7501,1965,162,442,,Sold,,,http://www.redfin.com/CA/Half-Moon-Bay/613-Grandview-Blvd-94019/home/143094810,MLSListings,ML81672716,N,Y,37.4762014,-122.4377887
PAST SALE,May-19-2017,Single Family Residential,429 Wave Ave,HALF MOON BAY,CA,94019,1475000,5,3.0,HALF MOON BAY,2970,7620,1972,256,497,,Sold,,,http://www.redfin.com/CA/Half-Moon-Bay/429-Wave-Ave-94019/home/1423871,MLSListings,ML81648551,N,Y,37.4789583,-122.4439732
PAST SALE,April-7-2017,Condo/Co-op,469 Pine Ave,HALF MOON BAY,CA,94019,575000,2,2.0,HALF MOON BAY,1090,24004,1986,298,528,500,Sold,,,http://www.redfin.com/CA/Half-Moon-Bay/469-Pine-Ave-94019/unit-39/home/996791,MLSListings,ML81634949,N,Y,37.465379,-122.436481
PAST SALE,March-24-2017,Single Family Residential,722 Valencia Ave,EL GRANADA,CA,94019,810000,3,1.0,EL GRANADA,1120,5000,1956,312,723,,Sold,,,http://www.redfin.com/CA/Half-Moon-Bay/722-Valencia-Ave-94019/home/776314,MLSListings,ML81639346,N,Y,37.5088658,-122.4780382
PAST SALE,,Single Family Residential,363 San Juan Ave,Half Moon Bay,CA,94019,1270000,4,3.0,,2150,4950,2007,,591,,,,,http://www.redfin.com/CA/Half-Moon-Bay/363-San-Juan-Ave-94019/home/12226720,,,N,Y,37.5094034,-122.4727304
PAST SALE,August-8-2017,Single Family Residential,311 Correas St,HALF MOON BAY,CA,94019,1575000,4,3.0,HALF MOON BAY,3070,7500,1989,175,513,,Sold,,,http://www.redfin.com/CA/Half-Moon-Bay/311-Correas-St-94019/home/2034301,MLSListings,ML81656218,N,Y,37.4629031,-122.4399443
PAST SALE,,Single Family Residential,453 Magnolia St,Half Moon Bay,CA,94019,550000,4,2.0,,1460,5600,1963,,377,,,,,http://www.redfin.com/CA/Half-Moon-Bay/453-Magnolia-St-94019/home/2049652,,,N,Y,37.4543513,-122.4349758
PAST SALE,,Single Family Residential,1182 Columbus St,Half Moon Bay,CA,94019,1287000,5,2.5,,2760,6050,1996,,466,,,,,http://www.redfin.com/CA/Half-Moon-Bay/1182-Columbus-St-94019/home/1533933,,,N,Y,37.5036779,-122.4639642
PAST SALE,August-10-2017,Single Family Residential,2910 Court Of San Marco,HALF MOON BAY,CA,94019,1405629,5,5.0,HALF MOON BAY,3960,7500,1994,173,355,,Sold,,,http://www.redfin.com/CA/Half-Moon-Bay/2910-Ct-San-Marco-94019/home/1088984,MLSListings,ML81652983,N,Y,37.4912106,-122.4525591
PAST SALE,August-17-2017,Single Family Residential,220 Myrtle St,HALF MOON BAY,CA,94019,1200000,3,2.0,HALF MOON BAY,1258,3612,2017,166,954,,Sold,,,http://www.redfin.com/CA/Half-Moon-Bay/220-Myrtle-St-94019/home/140501861,MLSListings,ML81668919,N,Y,37.458169,-122.440584
PAST SALE,August-23-2017,Townhouse,43 Erin Ln,HALF MOON BAY,CA,94019,873000,2,2.5,HALF MOON BAY,1400,984,1996,160,624,395,Sold,,,http://www.redfin.com/CA/Half-Moon-Bay/43-Erin-Ln-94019/home/1144424,MLSListings,ML81667227,N,Y,37.466712,-122.424783
PAST SALE,September-8-2017,Single Family Residential,481 Miramar Dr,HALF MOON BAY,CA,94019,1850000,4,4.5,HALF MOON BAY,3510,16460,1990,144,527,,Sold,,,http://www.redfin.com/CA/Half-Moon-Bay/481-Miramar-Dr-94019/home/113809134,MLSListings,ML81669740,N,Y,37.496028,-122.454451
PAST SALE,August-28-2017,Single Family Residential,265 Metzgar St,HALF MOON BAY,CA,94019,1150000,3,2.0,HALF MOON BAY,1680,6968,1980,155,685,,Sold,,,http://www.redfin.com/CA/Half-Moon-Bay/265-Metzgar-St-94019/home/2006132,MLSListings,ML81670133,N,Y,37.4552985,-122.4397056
PAST SALE,August-28-2017,Townhouse,178 Amesport Lndg,HALF MOON BAY,CA,94019,715000,2,2.5,HALF MOON BAY,1215,5799,1990,155,588,433,Sold,,,http://www.redfin.com/CA/Half-Moon-Bay/178-Amesport-Lndg-94019/home/995478,MLSListings,ML81671857,N,Y,37.460036,-122.433681
PAST SALE,,Townhouse,1037 Colonel Way,Half Moon Bay,CA,94019,610000,3,1.0,,1190,1701,1970,,513,,,,,http://www.redfin.com/CA/Half-Moon-Bay/1037-Colonel-Way-94019/home/2011710,,,N,Y,37.45539,-122.428034
PAST SALE,April-4-2017,Single Family Residential,435 Avenue Del Oro,EL GRANADA,CA,94018,1400000,4,3.0,EL GRANADA,2145,5749,2017,301,653,,Sold,,,http://www.redfin.com/CA/EL-GRANADA/435-AVENUE-DEL-ORO-94018/home/113165815,MLSListings,ML81639949,N,Y,37.508025,-122.470414
PAST SALE,April-28-2017,Single Family Residential,546 Alsace Lorraine Ave,HALF MOON BAY,CA,94019,1270000,3,2.5,HALF MOON BAY,2860,7000,1976,277,444,,Sold,,,http://www.redfin.com/CA/Half-Moon-Bay/546-Alsace-Lorraine-Ave-94019/home/824130,MLSListings,ML81640979,N,Y,37.4629434,-122.4386299
PAST SALE,October-12-2017,Single Family Residential,640 Ferdinand Ave,El Granada,CA,94018,1650000,4,3.0,San Mateo,2701,,,110,611,,Sold,,,http://www.redfin.com/CA/EL-GRANADA/640-Ferdinand-Ave-94018/home/143528893,San Francisco MLS,462089,N,Y,37.507477,-122.472221
PAST SALE,September-8-2017,Single Family Residential,2096 Touraine Ln,HALF MOON BAY,CA,94019,1235000,4,2.0,HALF MOON BAY,2060,7650,1973,144,600,3,Sold,,,http://www.redfin.com/CA/Half-Moon-Bay/2096-Touraine-Ln-94019/home/1870569,MLSListings,ML81673166,N,Y,37.485161,-122.4415018
PAST SALE,September-6-2017,Single Family Residential,440 Cabrillo Hwy,HALF MOON BAY,CA,94019,721000,2,1.0,HALF MOON BAY,880,8901,1915,146,819,,Sold,,,http://www.redfin.com/CA/Half-Moon-Bay/440-Cabrillo-Hwy-N-94019/home/1775309,MLSListings,ML81672841,N,Y,37.471715,-122.435389
PAST SALE,May-25-2017,Single Family Residential,311 Magellan Ave,HALF MOON BAY,CA,94019,1900000,4,3.0,HALF MOON BAY,3011,8000,2016,250,631,,Sold,,,http://www.redfin.com/CA/Half-Moon-Bay/311-Magellan-Ave-94019/home/84258772,MLSListings,ML81653213,N,Y,37.497939,-122.460416
PAST SALE,May-18-2017,Single Family Residential,779 Palma St,EL GRANADA,CA,94019,870000,3,1.0,EL GRANADA,1030,7701,1956,257,845,,Sold,,,http://www.redfin.com/CA/Half-Moon-Bay/779-Palma-St-94019/home/1919715,MLSListings,ML81644850,N,Y,37.5030298,-122.4653238
PAST SALE,April-27-2017,Single Family Residential,402 Coronado Ave,HALF MOON BAY,CA,94019,1800000,5,4.0,HALF MOON BAY,3330,8800,1997,278,541,,Sold,,,http://www.redfin.com/CA/Half-Moon-Bay/402-Coronado-Ave-94019/home/1967307,MLSListings,ML81644818,N,Y,37.4981569,-122.4581147
PAST SALE,June-29-2017,Single Family Residential,241 Cortez Ave,HALF MOON BAY,CA,94019,1650000,5,3.0,HALF MOON BAY,3400,8800,1999,215,485,,Sold,,,http://www.redfin.com/CA/Half-Moon-Bay/241-Cortez-Ave-94019/home/1582965,MLSListings,ML81645734,N,Y,37.496195,-122.4600155
PAST SALE,March-23-2017,Single Family Residential,344 Metzgar St,HALF MOON BAY,CA,94019,850000,3,2.0,HALF MOON BAY,1140,5460,1965,313,746,,Sold,,,http://www.redfin.com/CA/Half-Moon-Bay/344-Metzgar-St-94019/home/1660782,MLSListings,ML81637852,N,Y,37.4551075,-122.4376808
PAST SALE,March-31-2017,Condo/Co-op,406 Laurel Ave,HALF MOON BAY,CA,94019,579000,2,2.0,HALF MOON BAY,1090,14993,1986,305,531,480,Sold,,,http://www.redfin.com/CA/Half-Moon-Bay/406-Laurel-Ave-94019/unit-4/home/2055611,MLSListings,ML81625601,N,Y,37.465735,-122.436734
PAST SALE,September-20-2017,Condo/Co-op,462 Laurel Ave,HALF MOON BAY,CA,94019,575000,2,2.0,HALF MOON BAY,1090,27010,1986,132,528,500,Sold,,,http://www.redfin.com/CA/Half-Moon-Bay/462-Laurel-Ave-94019/unit-20/home/1138644,MLSListings,ML81673674,N,Y,37.465647,-122.435793
PAST SALE,,Single Family Residential,738 El Granada Blvd,Half Moon Bay,CA,94019,1350000,3,2.0,,2620,5643,2007,,515,,,,,http://www.redfin.com/CA/Half-Moon-Bay/738-El-Granada-Blvd-94019/home/17307968,,,N,Y,37.5143699,-122.4625982
PAST SALE,September-18-2017,Single Family Residential,1504 Hawser Ln,HALF MOON BAY,CA,94019,1085000,4,3.0,HALF MOON BAY,2160,6500,1971,134,502,,Sold,,,http://www.redfin.com/CA/Half-Moon-Bay/1504-Hawser-Ln-94019/home/1080564,MLSListings,ML81673926,N,Y,37.4809982,-122.4394823
PAST SALE,September-27-2017,Townhouse,4 Patrick Way,HALF MOON BAY,CA,94019,870000,3,2.5,HALF MOON BAY,1580,1187,1992,125,551,395,Sold,,,http://www.redfin.com/CA/Half-Moon-Bay/4-Patrick-Way-94019/home/1660051,MLSListings,ML81673014,N,Y,37.4672569,-122.427747
PAST SALE,,Single Family Residential,607 Church St,Half Moon Bay,CA,94019,247500,2,1.0,,810,5000,1930,,306,,,,,http://www.redfin.com/CA/Half-Moon-Bay/607-Church-St-94019/home/827204,,,N,Y,37.462488,-122.4310746
PAST SALE,October-3-2017,Single Family Residential,423 Ferdinand Ave,EL GRANADA,CA,94019,1260000,3,2.5,EL GRANADA,2440,6500,1996,119,516,,Sold,,,http://www.redfin.com/CA/Half-Moon-Bay/423-Ferdinand-Ave-94019/home/1370179,MLSListings,ML81674646,N,Y,37.506508,-122.4701732
PAST SALE,September-28-2017,Single Family Residential,406 Grand Blvd,HALF MOON BAY,CA,94019,945250,4,2.0,HALF MOON BAY,1370,5000,1965,124,690,,Sold,,,http://www.redfin.com/CA/Half-Moon-Bay/406-Grand-Blvd-94019/home/823652,MLSListings,ML81678132,N,Y,37.4708706,-122.4372486
PAST SALE,,Single Family Residential,555 Kelly St,Half Moon Bay,CA,94019,943000,,,,,6098,,,,,,,,http://www.redfin.com/CA/Half-Moon-Bay/555-Kelly-St-94019/home/1506186,,,N,Y,37.4641781,-122.4321402
PAST SALE,November-10-2017,Mobile/Manufactured Home,173 Culebra Ln #173,MOSS BEACH,CA,94038,145000,2,1.0,MOSS BEACH,900,,1982,81,161,,Sold,,,http://www.redfin.com/CA/Moss-Beach/173-Culebra-St-94038/unit-173/home/143941347,MLSListings,ML81679841,N,Y,37.5075043,-122.4995382
PAST SALE,,Condo/Co-op,10 Amesport Lndg #115,Half Moon Bay,CA,94019,197000,1,1.0,,706,,1990,,279,,,,,http://www.redfin.com/CA/Half-Moon-Bay/10-Amesport-Lndg-94019/unit-115/home/997005,,,N,Y,37.460699,-122.431005
PAST SALE,October-13-2017,Single Family Residential,1017 E Dwight Ave,HALF MOON BAY,CA,94019,800000,4,2.5,HALF MOON BAY,2450,7500,1963,109,327,,Sold,,,http://www.redfin.com/CA/Half-Moon-Bay/1017-Dwight-Ave-94019/home/2049494,MLSListings,ML81674770,N,Y,37.477064,-122.4384152
PAST SALE,,Condo/Co-op,448 Cypress Ave #8,Half Moon Bay,CA,94019,607500,2,2.0,,1028,,1984,,591,,,,,http://www.redfin.com/CA/Half-Moon-Bay/448-Cypress-Ave-94019/unit-8/home/1491716,,,N,Y,37.4671392,-122.4364807
PAST SALE,September-13-2017,Single Family Residential,652 Poplar St,HALF MOON BAY,CA,94019,875000,2,1.0,HALF MOON BAY,1040,5330,1929,139,841,,Sold,,,http://www.redfin.com/CA/Half-Moon-Bay/652-Poplar-St-94019/home/1600878,MLSListings,ML81670589,N,Y,37.4567957,-122.4310421
PAST SALE,October-17-2017,Single Family Residential,131 California Ave,EL GRANADA,CA,94019,920000,1,3.0,EL GRANADA,1020,7115,1900,105,902,,Sold,,,http://www.redfin.com/CA/Half-Moon-Bay/131-California-Ave-94019/home/773942,MLSListings,ML81678232,N,Y,37.505127,-122.488541
PAST SALE,October-19-2017,Single Family Residential,427 Beach Ave,HALF MOON BAY,CA,94019,1316000,4,2.0,HALF MOON BAY,1970,7620,1972,103,668,,Sold,,,http://www.redfin.com/CA/Half-Moon-Bay/427-Beach-Ave-94019/home/1487397,MLSListings,ML81677943,N,Y,37.4781732,-122.4435519
PAST SALE,October-17-2017,Condo/Co-op,244 Amesport Lndg,HALF MOON BAY,CA,94019,550000,1,1.0,HALF MOON BAY,706,5491,1989,105,779,385,Sold,,,http://www.redfin.com/CA/Half-Moon-Bay/244-Amesport-Lndg-94019/unit-156/home/995320,MLSListings,ML81681877,N,Y,37.4603589,-122.432337
PAST SALE,October-23-2017,Single Family Residential,461 5th Ave,HALF MOON BAY,CA,94019,1451000,3,2.0,HALF MOON BAY,1660,17300,1958,99,874,,Sold,,,http://www.redfin.com/CA/Half-Moon-Bay/461-5th-Ave-94019/home/1008089,MLSListings,ML81676243,N,Y,37.49619,-122.455263
PAST SALE,October-31-2017,Single Family Residential,655 Spindrift Way,HALF MOON BAY,CA,94019,933000,4,2.0,HALF MOON BAY,1100,6000,1971,91,848,,Sold,,,http://www.redfin.com/CA/Half-Moon-Bay/655-Spindrift-Way-94019/home/787259,MLSListings,ML81678311,N,Y,37.481772,-122.4375609
PAST SALE,October-27-2017,Townhouse,36 Erin Ln,HALF MOON BAY,CA,94019,865000,2,2.5,HALF MOON BAY,1400,984,1997,95,618,395,Sold,,,http://www.redfin.com/CA/Half-Moon-Bay/36-Erin-Ln-94019/home/1735440,MLSListings,ML81679818,N,Y,37.467045,-122.424423
PAST SALE,November-22-2017,Single Family Residential,451 Bridgeport Dr,HALF MOON BAY,CA,94019,978000,4,2.0,HALF MOON BAY,1750,5985,1972,69,559,8,Sold,,,http://www.redfin.com/CA/Half-Moon-Bay/451-Bridgeport-Dr-94019/home/1274814,MLSListings,ML81682753,N,Y,37.515168,-122.488805
PAST SALE,November-17-2017,Single Family Residential,355 Avenue Portola,EL GRANADA,CA,94019,1295000,4,3.0,EL GRANADA,2480,6000,1988,74,522,,Sold,,,http://www.redfin.com/CA/Half-Moon-Bay/355-Avenue-Portola-94019/home/1931471,MLSListings,ML81673888,N,Y,37.5057304,-122.4687573
PAST SALE,December-20-2017,Single Family Residential,723 Sonora Ave,EL GRANADA,CA,94018,905000,3,2.0,EL GRANADA,1530,5500,1998,41,592,,Sold,,,http://www.redfin.com/CA/El-Granada/723-SONORA-94018/home/113830464,MLSListings,ML81678037,N,Y,37.5017068,-122.4688381
PAST SALE,December-15-2017,Single Family Residential,947 Francisco St,EL GRANADA,CA,94018,920000,3,1.0,EL GRANADA,1290,9000,1920,46,713,,Sold,,,http://www.redfin.com/CA/El-Granada/947-FRANCISCO-St-94018/home/113817466,MLSListings,ML81684616,N,Y,37.5017068,-122.4688381
PAST SALE,December-21-2017,Single Family Residential,960 Sonora,EL GRANADA,CA,94018,860000,3,2.0,EL GRANADA,1380,5500,1969,40,623,8,Sold,,,http://www.redfin.com/CA/EL-GRANADA/960-Sonora-94018/home/144150475,MLSListings,ML81682512,N,Y,37.5017068,-122.4688381
PAST SALE,,Single Family Residential,207 Washington Blvd,Half Moon Bay,CA,94019,1199000,5,3.0,,2200,5000,1973,,545,,,,,http://www.redfin.com/CA/Half-Moon-Bay/207-Washington-Blvd-94019/home/1875991,,,N,Y,37.489075,-122.453931
PAST SALE,December-1-2017,Single Family Residential,172 Kelly Ave,HALF MOON BAY,CA,94019,1265000,3,2.0,HALF MOON BAY,1880,7500,1976,60,673,,Sold,,,http://www.redfin.com/CA/Half-Moon-Bay/172-Kelly-Ave-94019/home/822285,MLSListings,ML81682301,N,Y,37.464694,-122.4420933
PAST SALE,,Single Family Residential,212 Garcia Ave,Half Moon Bay,CA,94019,1275000,3,2.0,,1530,6000,1987,,833,,,,,http://www.redfin.com/CA/Half-Moon-Bay/212-Garcia-Ave-94019/home/825294,,,N,Y,37.4606234,-122.4418174
PAST SALE,November-10-2017,Vacant Land,000 Ave Alhambra,EL GRANADA,CA,94018,325000,,,EL GRANADA,,7700,,81,,,Sold,,,http://www.redfin.com/CA/El-Granada/Avenue-Alhambra-94019/home/113678026,MLSListings,ML81645866,N,Y,37.502543,-122.4695566
PAST SALE,,Townhouse,988 S Arnold Way,Half Moon Bay,CA,94019,635000,3,1.0,,1190,1533,1970,,534,,,,,http://www.redfin.com/CA/Half-Moon-Bay/988-S-Arnold-Way-94019/home/2053426,,,N,Y,37.455939,-122.426802
PAST SALE,,Single Family Residential,412 Kehoe Ave,Half Moon Bay,CA,94019,323500,4,2.0,,1460,6000,1968,,222,,,,,http://www.redfin.com/CA/Half-Moon-Bay/412-Kehoe-Ave-94019/home/2050475,,,N,Y,37.4750813,-122.4426729
PAST SALE,December-29-2017,Vacant Land,0 Avenue del Oro,EL GRANADA,CA,94018,290000,,,EL GRANADA,,5000,,32,,,Sold,,,http://www.redfin.com/CA/EL-GRANADA/0-Avenue-del-Oro-94018/home/144316921,MLSListings,ML81684757,N,Y,37.5017068,-122.4688381
PAST SALE,December-27-2017,Single Family Residential,119 El Granada Blvd,EL GRANADA,CA,94019,1280500,4,3.5,EL GRANADA,2830,12048,1995,34,452,,Sold,,,http://www.redfin.com/CA/Half-Moon-Bay/119-El-Granada-Blvd-94019/home/1699373,MLSListings,ML81680810,N,Y,37.5061709,-122.4650904
PAST SALE,January-4-2018,Single Family Residential,447 Avenue Cabrillo,EL GRANADA,CA,94018,1145000,4,2.0,EL GRANADA,1780,8100,1985,26,643,,Sold,,,http://www.redfin.com/CA/El-Granada/447-AVENUE-CABRILLO-94018/home/113815028,MLSListings,ML81686065,N,Y,37.5017068,-122.4688381
PAST SALE,November-17-2017,Single Family Residential,455 Miramar Dr,HALF MOON BAY,CA,94019,1750000,5,3.5,HALF MOON BAY,3050,20440,1990,74,574,,Sold,,,http://www.redfin.com/CA/Half-Moon-Bay/455-Miramar-Dr-94019/home/1070202,MLSListings,ML81678264,N,Y,37.4958689,-122.4546877
PAST SALE,January-18-2018,Single Family Residential,404 Roosevelt Blvd,HALF MOON BAY,CA,94019,1300000,5,3.0,HALF MOON BAY,2480,5000,1973,12,524,,Sold,,,http://www.redfin.com/CA/Half-Moon-Bay/404-Roosevelt-Blvd-94019/home/778237,MLSListings,ML81686692,N,Y,37.4901343,-122.4528327
PAST SALE,December-13-2017,Single Family Residential,614 Sonora Ave,EL GRANADA,CA,94019,1000000,3,2.0,EL GRANADA,1110,5500,1965,48,901,,Sold,,,http://www.redfin.com/CA/Half-Moon-Bay/614-Sonora-Ave-94019/home/1987871,MLSListings,ML81684562,N,Y,37.5079183,-122.481351
PAST SALE,December-29-2017,Single Family Residential,347 Poplar St,HALF MOON BAY,CA,94019,2020000,5,4.0,HALF MOON BAY,3644,7353,2010,32,554,,Sold,,,http://www.redfin.com/CA/Half-Moon-Bay/347-Poplar-St-94019/home/2053524,MLSListings,ML81680025,N,Y,37.456362,-122.4379228
PAST SALE,January-22-2018,Single Family Residential,428 Poplar St,HALF MOON BAY,CA,94019,1450000,4,3.5,HALF MOON BAY,3060,7296,2002,8,474,,Sold,,,http://www.redfin.com/CA/Half-Moon-Bay/428-Poplar-St-94019/home/1435309,MLSListings,ML81676155,N,Y,37.456078,-122.436115
PAST SALE,December-22-2017,Single Family Residential,400 Saint John Ave,HALF MOON BAY,CA,94019,1100000,4,2.0,HALF MOON BAY,1440,6500,1970,39,764,,Sold,,,http://www.redfin.com/CA/Half-Moon-Bay/400-Saint-John-Ave-94019/home/783345,MLSListings,ML81673340,N,Y,37.4750946,-122.4441881
PAST SALE,December-20-2017,Single Family Residential,519 Alto Ave,HALF MOON BAY,CA,94019,1251000,3,2.5,HALF MOON BAY,1703,4800,2009,41,735,,Sold,,,http://www.redfin.com/CA/Half-Moon-Bay/519-Alto-Ave-94019/home/21968250,MLSListings,ML81685046,N,Y,37.4947365,-122.4529395
PAST SALE,,Single Family Residential,960 Sonora Ave,Half Moon Bay,CA,94019,838500,3,2.0,,1380,5500,1969,,608,,,,,http://www.redfin.com/CA/Half-Moon-Bay/960-Sonora-Ave-94019/home/1648172,,,N,Y,37.5098193,-122.4867067
PAST SALE,December-28-2017,Single Family Residential,424 Beach Ave,HALF MOON BAY,CA,94019,1370000,4,2.5,HALF MOON BAY,2320,7620,1972,33,591,,Sold,,,http://www.redfin.com/CA/Half-Moon-Bay/424-Beach-Ave-94019/home/1766485,MLSListings,ML81684556,N,Y,37.4784223,-122.4440199
PAST SALE,December-7-2017,Single Family Residential,336 Valdez Ave,HALF MOON BAY,CA,94019,1345000,3,2.5,HALF MOON BAY,1920,7500,1985,54,701,,Sold,,,http://www.redfin.com/CA/Half-Moon-Bay/336-Valdez-Ave-94019/home/2055274,MLSListings,ML81683053,N,Y,37.4613553,-122.439132
PAST SALE,,Multi-Family (2-4 Unit),101 Meyn Rd,Half Moon Bay,CA,94019,1800000,,,,,171626,,,,,,,,http://www.redfin.com/CA/Half-Moon-Bay/101-Meyn-Rd-94019/home/17309174,,,N,Y,37.383446,-122.405507
PAST SALE,November-30-2017,Vacant Land,12599 San Mateo Ave,Half Moon Bay,CA,94019,2000000,,,Half Moon Bay,,553212,,61,,,Sold,,,http://www.redfin.com/CA/Half-Moon-Bay/12599-San-Mateo-Rd-94019/home/17309239,San Francisco MLS,460857,N,Y,37.4768169,-122.414267
PAST SALE,February-16-2017,Single Family Residential,638 San Carlos Ave,EL GRANADA,CA,94018,790000,1,1.0,EL GRANADA,670,5050,1940,348,1179,,Sold,,,http://www.redfin.com/CA/EL-GRANADA/638-San-Carlos-Ave-94018/home/112381031,MLSListings,ML81633716,N,Y,37.5017068,-122.4688381
PAST SALE,February-24-2017,Single Family Residential,435 Valdez Ave,HALF MOON BAY,CA,94019,1405000,4,3.0,HALF MOON BAY,2425,6724,2007,340,579,,Sold,,,http://www.redfin.com/CA/Half-Moon-Bay/435-Valdez-Ave-94019/home/12243324,MLSListings,ML81635232,N,Y,37.4616364,-122.437123
PAST SALE,January-31-2017,Single Family Residential,182 Cypress Point Rd,HALF MOON BAY,CA,94019,1299000,3,3.0,HALF MOON BAY,2360,6500,1986,364,550,100,Sold,,,http://www.redfin.com/CA/Half-Moon-Bay/182-Cypress-Point-Rd-94019/home/1417543,MLSListings,ML81631769,N,Y,37.432683,-122.4357699
PAST SALE,September-22-2017,Other,14444 Skyline Blvd,WOODSIDE,CA,94062,825000,2,1.0,WOODSIDE,800,92565,1940,130,1031,,Sold,,,http://www.redfin.com/CA/Woodside/14444-Skyline-Blvd-94062/home/17309167,MLSListings,ML81652597,N,Y,37.425535,-122.313684
PAST SALE,February-17-2017,Mobile/Manufactured Home,44 Sea Breeze Dr,HALF MOON BAY,CA,94019,230000,2,2.0,HALF MOON BAY,1344,,1973,347,171,,Sold,,,http://www.redfin.com/CA/Half-Moon-Bay/44-Sea-Breeze-Dr-94019/home/1986561,MLSListings,ML81629541,N,Y,37.4295174,-122.4321023
PAST SALE,,Single Family Residential,448 Correas St,Half Moon Bay,CA,94019,1245000,3,2.0,,2510,6600,1989,,496,,,,,http://www.redfin.com/CA/Half-Moon-Bay/448-Correas-St-94019/home/824304,,,N,Y,37.4621359,-122.4365754
PAST SALE,February-24-2017,Single Family Residential,247 Vallejo St,EL GRANADA,CA,94019,875000,4,2.0,EL GRANADA,1460,6250,1962,340,599,,Sold,,,http://www.redfin.com/CA/Half-Moon-Bay/247-Vallejo-St-94019/home/2011437,MLSListings,ML81639870,N,Y,37.5066072,-122.4775343
PAST SALE,January-30-2017,Single Family Residential,499 Avenue Alhambra,EL GRANADA,CA,94019,849500,3,2.0,EL GRANADA,1570,3223,1996,365,541,,Sold,,,http://www.redfin.com/CA/Half-Moon-Bay/499-Avenue-Alhambra-94019/home/1881420,MLSListings,ML81633129,N,Y,37.5038906,-122.4752196
PAST SALE,February-10-2017,Single Family Residential,526 Terrace Ave,HALF MOON BAY,CA,94019,809000,3,1.5,HALF MOON BAY,1410,5350,1961,354,574,,Sold,,,http://www.redfin.com/CA/Half-Moon-Bay/526-Terrace-Ave-94019/home/1735382,MLSListings,ML81634412,N,Y,37.4737972,-122.4351414
PAST SALE,,Single Family Residential,1250 Miramontes St,Half Moon Bay,CA,94019,2225000,2,2.0,,1870,1460567,1991,,1190,,,,,http://www.redfin.com/CA/Half-Moon-Bay/1250-Miramontes-St-94019/home/1942893,,,N,Y,37.460596,-122.406068
PAST SALE,March-3-2017,Single Family Residential,644 Poplar St,HALF MOON BAY,CA,94019,810000,4,2.0,HALF MOON BAY,1500,5793,1946,333,540,,Sold,,,http://www.redfin.com/CA/Half-Moon-Bay/644-Poplar-St-94019/home/868038,MLSListings,ML81614461,N,Y,37.456719,-122.431192
