SALE TYPE,SOLD DATE,PROPERTY TYPE,ADDRESS,CITY,STATE,ZIP,PRICE,BEDS,BATHS,LOCATION,SQUARE FEET,LOT SIZE,YEAR BUILT,DAYS ON MARKET,$/SQUARE FEET,HOA/MONTH,STATUS,NEXT OPEN HOUSE START TIME,NEXT OPEN HOUSE END TIME,URL (SEE http://www.redfin.com/buy-a-home/comparative-market-analysis FOR INFO ON PRICING),SOURCE,MLS#,FAVORITE,INTERESTED,LATITUDE,LONGITUDE
PAST SALE,June-9-2017,Townhouse,855 Columbia Cir,REDWOOD CITY,CA,94065,1500000,3,3.0,REDWOOD CITY,1939,514279,1989,235,774,455,Sold,,,http://www.redfin.com/CA/Redwood-City/855-Columbia-Cir-94065/home/1280370,MLSListings,ML81653755,N,Y,37.5363812,-122.2376306
PAST SALE,December-29-2017,Condo/Co-op,464 Clinton St #311,REDWOOD CITY,CA,94062,526000,1,1.0,REDWOOD CITY,761,19408,1961,32,691,281,Sold,,,http://www.redfin.com/CA/Redwood-City/464-Clinton-St-94062/unit-311/home/1299729,MLSListings,ML81685953,N,Y,37.481607,-122.2342099
PAST SALE,September-29-2017,Single Family Residential,2466 Park Rd,REDWOOD CITY,CA,94062,2372000,4,3.5,REDWOOD CITY,3880,10000,1992,123,611,,Sold,,,http://www.redfin.com/CA/Emerald-Hills/2466-Park-Rd-94062/home/1979740,MLSListings,ML81676929,N,Y,37.4675837,-122.2662143
PAST SALE,March-28-2017,Single Family Residential,512 Stanford Ave,REDWOOD CITY,CA,94063,750000,3,1.0,REDWOOD CITY,820,2500,1962,308,915,,Sold,,,http://www.redfin.com/CA/Redwood-City/512-Stanford-Ave-94063/home/1958873,MLSListings,ML81639343,N,Y,37.4777496,-122.2095358
PAST SALE,October-6-2016,Single Family Residential,203 Rutherford Ave,REDWOOD CITY,CA,94061,1100000,3,2.0,REDWOOD CITY,1100,5100,1950,481,1000,,Sold,,,http://www.redfin.com/CA/Redwood-City/203-Rutherford-Ave-94061/home/848854,MLSListings,ML81611747,N,Y,37.4570302,-122.2248906
PAST SALE,August-17-2016,Single Family Residential,2430 Eaton Ave,San Carlos,CA,94070,1600000,3,2.0,San Carlos,1736,7154,1949,531,922,,Sold,,,http://www.redfin.com/CA/San-Carlos/2430-Eaton-Ave-94070/home/1725850,San Francisco MLS,447800,N,Y,37.4844004,-122.2571532
PAST SALE,September-1-2017,Single Family Residential,1204 Sierra St,REDWOOD CITY,CA,94061,1060000,2,1.0,REDWOOD CITY,750,3000,1960,151,1413,,Sold,,,http://www.redfin.com/CA/Redwood-City/1204-Sierra-St-94061/home/1882124,MLSListings,ML81674398,N,Y,37.468287,-122.2348742
PAST SALE,March-9-2017,Single Family Residential,943 Stony Hill Rd,REDWOOD CITY,CA,94061,1850000,4,2.0,REDWOOD CITY,1840,7700,1957,327,1005,,Sold,,,http://www.redfin.com/CA/Redwood-City/943-Stony-Hill-Rd-94061/home/834225,MLSListings,ML81637564,N,Y,37.4579767,-122.2529045
PAST SALE,November-30-2016,Single Family Residential,1618 Lenolt St,REDWOOD CITY,CA,94063,1270000,2,2.0,REDWOOD CITY,1330,5000,1942,426,955,,Sold,,,http://www.redfin.com/CA/Redwood-City/1618-Lenolt-St-94063/home/804827,MLSListings,ML81629168,N,Y,37.494662,-122.2390902
PAST SALE,January-18-2018,Single Family Residential,146 Springdale Way,REDWOOD CITY,CA,94062,2078000,5,4.0,REDWOOD CITY,3340,16500,1957,12,622,,Sold,,,http://www.redfin.com/CA/Emerald-Hills/146-Springdale-Way-94062/home/2052401,MLSListings,ML81686717,N,Y,37.4730482,-122.2731733
PAST SALE,,Single Family Residential,2570 Goodwin Ave,Redwood City,CA,94061,1210000,3,2.0,,1140,6695,1953,,1061,,,,,http://www.redfin.com/CA/Redwood-City/2570-Goodwin-Ave-94061/home/1542309,,,N,Y,37.4598506,-122.2396493
PAST SALE,September-16-2015,Single Family Residential,330 King St,REDWOOD CITY,CA,94062,1576000,3,2.0,REDWOOD CITY,1720,4810,1951,867,916,,Sold,,,http://www.redfin.com/CA/Redwood-City/330-King-St-94062/home/1815909,MLSListings,ML81500297,N,Y,37.4782303,-122.2423845
PAST SALE,July-24-2015,Single Family Residential,293 Alameda de las Pulgas,REDWOOD CITY,CA,94062,1452000,3,2.0,REDWOOD CITY,1810,10000,1967,921,802,,Sold,,,http://www.redfin.com/CA/Redwood-City/293-Alameda-de-las-Pulgas-94062/home/2056419,MLSListings,ML81470115,N,Y,37.4765516,-122.2504418
PAST SALE,October-5-2016,Single Family Residential,286 Iris St,REDWOOD CITY,CA,94062,1550000,4,1.5,REDWOOD CITY,1675,6500,1932,482,925,,Sold,,,http://www.redfin.com/CA/Redwood-City/286-Iris-St-94062/home/807407,MLSListings,ML81588762,N,Y,37.4801073,-122.2415876
PAST SALE,February-13-2015,Single Family Residential,441 Upton St,Redwood City,CA,94062,800000,2,1.0,Redwood City,780,2750,1953,1082,1026,,Sold,,,http://www.redfin.com/CA/Redwood-City/441-Upton-St-94062/home/1516432,San Francisco MLS,428727,N,Y,37.4720462,-122.2481299
PAST SALE,,Single Family Residential,553 Topaz St,Redwood City,CA,94062,318500,3,2.0,,1300,5250,1954,,245,,,,,http://www.redfin.com/CA/Redwood-City/553-Topaz-St-94062/home/1015270,,,N,Y,37.4712858,-122.2459305
PAST SALE,April-12-2016,Condo/Co-op,113 Shorebird Cir,Redwood Shores,CA,94065,649000,1,1.0,Redwood Shores,760,,1986,658,854,537,Sold,,,http://www.redfin.com/CA/Redwood-City/113-Shorebird-Cir-94065/unit-25/home/1907063,MLSListings,ML81563745,N,Y,37.5326634,-122.2558005
PAST SALE,,Single Family Residential,410 Star Hill Rd,Redwood City,CA,94062,1350000,,,,,70132,,,,,,,,http://www.redfin.com/CA/Redwood-City/410-Star-Hill-Rd-94062/home/1407831,,,N,Y,37.411178,-122.333656
PAST SALE,April-28-2016,Single Family Residential,1166 Virginia Ave,Redwood City,CA,94061,1222000,3,2.0,Redwood City,1600,6000,1948,642,764,,Sold,,,http://www.redfin.com/CA/Redwood-City/1166-Virginia-Ave-94061/home/1037031,San Francisco MLS,443679,N,Y,37.466233,-122.239541
PAST SALE,October-13-2016,Single Family Residential,1276 Connecticut Dr,REDWOOD CITY,CA,94061,1289000,3,1.0,REDWOOD CITY,1282,6268,1950,474,1005,,Sold,,,http://www.redfin.com/CA/Redwood-City/1276-Connecticut-Dr-94061/home/1784455,MLSListings,ML81625710,N,Y,37.4609847,-122.2404011
PAST SALE,October-31-2016,Single Family Residential,1891 Palm Ave,REDWOOD CITY,CA,94061,1655000,4,3.0,REDWOOD CITY,2489,10797,1983,456,665,,Sold,,,http://www.redfin.com/CA/Redwood-City/1891-Palm-Ave-94061/home/1249756,MLSListings,ML81599633,N,Y,37.4629304,-122.2330343
PAST SALE,March-30-2016,Single Family Residential,2424 Palm Ave,REDWOOD CITY,CA,94061,1675000,3,3.0,REDWOOD CITY,1600,5959,1952,671,1047,,Sold,,,http://www.redfin.com/CA/Redwood-City/2424-Palm-Ave-94061/home/1649887,MLSListings,ML81562276,N,Y,37.4614581,-122.236375
PAST SALE,April-8-2015,Single Family Residential,1180 Fairview Ave,REDWOOD CITY,CA,94061,1150000,3,2.0,REDWOOD CITY,1790,8400,1949,1028,642,,Sold,,,http://www.redfin.com/CA/Redwood-City/1180-Fairview-Ave-94061/home/1959054,MLSListings,ML81454059,N,Y,37.4651726,-122.2396613
PAST SALE,November-30-2016,Condo/Co-op,2903 Hastings Shore Ln,REDWOOD CITY,CA,94065,995000,3,3.0,REDWOOD CITY,1379,,1996,426,722,588,Sold,,,http://www.redfin.com/CA/Redwood-City/2903-Hastings-Shore-Ln-94065/unit-2101/home/1319607,MLSListings,ML81628108,N,Y,37.523523,-122.250366
PAST SALE,,Single Family Residential,918 Taft St,Redwood City,CA,94061,900000,4,2.0,,2034,8151,1950,,442,,,,,http://www.redfin.com/CA/Redwood-City/918-Taft-St-94061/home/1870894,,,N,Y,37.4685568,-122.2419724
PAST SALE,,Multi-Family (2-4 Unit),1636 Naomi Ct,Redwood City,CA,94061,540000,5,2.5,,2571,5900,1962,,210,,,,,http://www.redfin.com/CA/Redwood-City/1636-Naomi-Ct-94061/home/839574,,,N,Y,37.466402,-122.23268
PAST SALE,March-6-2015,Single Family Residential,2083 Oregon Ave,REDWOOD CITY,CA,94061,1050000,2,1.0,REDWOOD CITY,1090,6032,1953,1061,963,,Sold,,,http://www.redfin.com/CA/Redwood-City/2083-Oregon-Ave-94061/home/1416884,MLSListings,ML81449625,N,Y,37.4618901,-122.2363128
PAST SALE,September-9-2016,Single Family Residential,215 Chapman Rd,WOODSIDE,CA,94062,1171000,2,1.0,WOODSIDE,1050,19201,1943,508,1115,,Sold,,,http://www.redfin.com/CA/Woodside/215-Chapman-Rd-94062/home/2059264,MLSListings,ML81597365,N,Y,37.3750511,-122.263105
PAST SALE,November-30-2016,Single Family Residential,112 Skylonda Dr,Woodside,CA,94062,975000,2,2.0,San Mateo,1200,8000,1950,426,813,,Sold,,,http://www.redfin.com/CA/Redwood-City/112-Skylonda-Dr-94062/home/1988673,San Francisco MLS,445841,N,Y,37.385826,-122.265423
PAST SALE,July-10-2015,Townhouse,218 Pickleweed Ln,Redwood Shores,CA,94065,1450100,4,3.5,Redwood Shores,2198,,2011,935,660,277,Sold,,,http://www.redfin.com/CA/Redwood-City/218-Pickleweed-Ln-94065/home/44621240,MLSListings,ML81467393,N,Y,37.5407082,-122.2486943
PAST SALE,December-2-2016,Single Family Residential,373 Belmont Ave,REDWOOD CITY,CA,94061,1600000,4,3.0,REDWOOD CITY,2200,7650,1947,424,727,,Sold,,,http://www.redfin.com/CA/Redwood-City/373-Belmont-Ave-94061/home/1286318,MLSListings,ML81627841,N,Y,37.4534155,-122.2240235
PAST SALE,April-21-2016,Single Family Residential,219 Frances Ln,SAN CARLOS,CA,94070,2100000,4,3.0,SAN CARLOS,2400,13503,1966,649,875,,Sold,,,http://www.redfin.com/CA/San-Carlos/219-Frances-Ln-94070/home/1947134,MLSListings,ML81561654,N,Y,37.4830271,-122.2590541
PAST SALE,March-2-2017,Single Family Residential,211 Yarborough Ln,REDWOOD CITY,CA,94061,1600000,3,2.5,REDWOOD CITY,1840,4905,1985,334,870,195,Sold,,,http://www.redfin.com/CA/Redwood-City/211-Yarborough-Ln-94061/home/1802507,MLSListings,ML81640820,N,Y,37.4636187,-122.2193864
PAST SALE,July-28-2016,Townhouse,106 Farallon Dr,BELMONT,CA,94002,1200000,3,2.5,BELMONT,1650,2709,1990,551,727,420,Sold,,,http://www.redfin.com/CA/Belmont/106-Farallon-Dr-94002/home/1885872,MLSListings,ML81590653,Y,Y,37.533821,-122.267402
PAST SALE,July-27-2015,Townhouse,210 Pickleweed Ln,Redwood Shores,CA,94065,1356000,3,2.5,Redwood Shores,1812,1,2011,918,748,277,Sold,,,http://www.redfin.com/CA/Redwood-City/210-Pickleweed-Ln-94065/unit-137/home/44621243,MLSListings,ML81470953,N,Y,37.5405608,-122.2489221
PAST SALE,February-20-2015,Condo/Co-op,101 Chelsea Way,REDWOOD CITY,CA,94061,790000,2,2.0,REDWOOD CITY,1200,,1985,1075,658,480,Sold,,,http://www.redfin.com/CA/Redwood-City/101-Chelsea-Way-94061/unit-1/home/987997,MLSListings,ML81447928,N,Y,37.460791,-122.222541
PAST SALE,November-18-2015,Single Family Residential,407 Compass Dr,REDWOOD CITY,CA,94065,1400000,3,2.0,REDWOOD CITY,1740,7000,1969,804,805,,Sold,,,http://www.redfin.com/CA/Redwood-City/407-Compass-Dr-94065/home/2034934,MLSListings,ML81500105,N,Y,37.5295761,-122.2538709
PAST SALE,,Condo/Co-op,33 Cove Ln #3139,Redwood City,CA,94065,350000,1,1.0,,820,,1983,,427,,,,,http://www.redfin.com/CA/Redwood-City/33-Cove-Ln-94065/unit-3139/home/2053756,,,N,Y,37.5311501,-122.2556336
PAST SALE,,Condo/Co-op,25 Cove Ln #3147,Redwood City,CA,94065,880000,2,2.0,,1240,,1983,,710,,,,,http://www.redfin.com/CA/Redwood-City/25-Cove-Ln-94065/unit-3147/home/1327385,,,N,Y,37.5310392,-122.2557379
PAST SALE,March-22-2016,Condo/Co-op,7 Cove Ln,REDWOOD CITY,CA,94065,813000,2,2.0,REDWOOD CITY,1240,,1983,679,656,516,Sold,,,http://www.redfin.com/CA/Redwood-City/7-Cove-Ln-94065/unit-4165/home/1527502,MLSListings,ML81549661,N,Y,37.5311598,-122.2557902
PAST SALE,,Condo/Co-op,60 Cove Ln #1214,Redwood City,CA,94065,960000,2,2.0,,1470,,1983,,653,,,,,http://www.redfin.com/CA/Redwood-City/60-Cove-Ln-94065/unit-1214/home/2021049,,,N,Y,37.5312991,-122.2549347
PAST SALE,April-24-2016,Condo/Co-op,58 Cove Ln,Redwood Shores,CA,94065,881000,2,2.0,Redwood Shores,1470,,1983,646,599,544,Sold,,,http://www.redfin.com/CA/Redwood-City/58-Cove-Ln-94065/unit-1216/home/1704248,MLSListings,ML81561689,N,Y,37.5313025,-122.255966
PAST SALE,June-3-2015,Condo/Co-op,57 Pelican Ln,Redwood Shores,CA,94065,640000,1,1.0,Redwood Shores,837,10000,1985,972,765,442,Sold,,,http://www.redfin.com/CA/Redwood-City/57-Pelican-Ln-94065/unit-71119/home/2052722,MLSListings,ML81461453,N,Y,37.531176,-122.255853
PAST SALE,April-3-2015,Condo/Co-op,79 Pelican Ln,REDWOOD CITY,CA,94065,700000,2,2.0,REDWOOD CITY,1003,,1985,1033,698,464,Sold,,,http://www.redfin.com/CA/Redwood-City/79-Pelican-Ln-94065/unit-71141/home/2058422,MLSListings,ML81447228,N,Y,37.531176,-122.255853
PAST SALE,March-6-2015,Condo/Co-op,74 Pelican Ln,Redwood Shores,CA,94065,650000,1,1.0,Redwood Shores,1062,,1985,1061,612,468,Sold,,,http://www.redfin.com/CA/Redwood-City/74-Pelican-Ln-94065/unit-72136/home/1555707,MLSListings,ML81447990,N,Y,37.531176,-122.255853
PAST SALE,September-30-2015,Condo/Co-op,2206 Hastings Shore Ln,REDWOOD CITY,CA,94065,650000,1,1.0,REDWOOD CITY,799,,1995,853,814,505,Sold,,,http://www.redfin.com/CA/Redwood-City/2206-Hastings-Shore-Ln-94065/unit-120/home/1578257,MLSListings,ML81515170,N,Y,37.524273,-122.251449
PAST SALE,May-5-2016,Condo/Co-op,2306 Hastings Shore Ln,REDWOOD CITY,CA,94065,645000,1,1.0,REDWOOD CITY,799,,1995,635,807,505,Sold,,,http://www.redfin.com/CA/Redwood-City/2306-Hastings-Shore-Ln-94065/unit-156/home/1064279,MLSListings,ML81578269,N,Y,37.524273,-122.251449
PAST SALE,December-2-2015,Condo/Co-op,2906 Hastings Shore Ln,REDWOOD CITY,CA,94065,822000,2,2.0,REDWOOD CITY,1048,,1996,790,784,537,Sold,,,http://www.redfin.com/CA/Redwood-City/2906-Hastings-Shore-Ln-94065/unit-1100/home/1570664,MLSListings,ML81520784,N,Y,37.523523,-122.250366
PAST SALE,May-31-2016,Single Family Residential,605 Edgewood Rd,REDWOOD CITY,CA,94062,2950000,4,4.5,REDWOOD CITY,3240,17001,1929,609,910,,Sold,,,http://www.redfin.com/CA/Redwood-City/605-Edgewood-Rd-94062/home/1323431,MLSListings,ML81578119,N,Y,37.4877401,-122.2479552
PAST SALE,May-20-2016,Single Family Residential,443 Tiller Ln,Redwood Shores,CA,94065,2040000,4,2.5,Redwood Shores,2750,10498,1979,620,742,,Sold,,,http://www.redfin.com/CA/Redwood-City/443-Tiller-Ln-94065/home/2046980,MLSListings,ML81579269,Y,Y,37.5256577,-122.2507718
PAST SALE,October-15-2015,Condo/Co-op,226 Shorebird Ci Cir,REDWOOD CITY,CA,94065,697000,2,1.0,REDWOOD CITY,915,,1986,838,762,537,Sold,,,http://www.redfin.com/CA/Redwood-City/226-Shorebird-Cir-94065/unit-52/home/1805283,MLSListings,ML81513296,N,Y,37.532164,-122.254993
PAST SALE,,Condo/Co-op,413 Cork Harbour Cir Apt A,Redwood City,CA,94065,280000,2,2.0,,900,,1985,,311,,,,,http://www.redfin.com/CA/Redwood-City/413-Cork-Harbour-Cir-94065/unit-A/home/1041727,,,N,Y,37.5314642,-122.2583572
PAST SALE,February-28-2017,Multi-Family (2-4 Unit),2783 Marlborough Ave,REDWOOD CITY,CA,94063,1450000,5,,REDWOOD CITY,2928,7875,1958,336,495,,Sold,,,http://www.redfin.com/CA/Redwood-City/2783-Marlborough-Ave-94063/home/820307,MLSListings,ML81635322,N,Y,37.4722719,-122.21281
PAST SALE,June-24-2015,Single Family Residential,360 Carlos Ave,REDWOOD CITY,CA,94061,1475000,3,2.5,REDWOOD CITY,2550,7500,1968,951,578,,Sold,,,http://www.redfin.com/CA/Redwood-City/360-Carlos-Ave-94061/home/843040,MLSListings,ML81457994,N,Y,37.4698449,-122.21774
PAST SALE,April-8-2016,Single Family Residential,328 W Oakwood Blvd,REDWOOD CITY,CA,94061,2550000,4,4.5,REDWOOD CITY,3063,7108,2016,662,833,,Sold,,,http://www.redfin.com/CA/Redwood-City/328-W-Oakwood-Blvd-94061/home/103695145,MLSListings,ML81549080,N,Y,37.467046,-122.216739
PAST SALE,,Single Family Residential,1050 16th Ave,Redwood City,CA,94063,185000,2,1.0,,1370,7900,1948,,135,,,,,http://www.redfin.com/CA/Redwood-City/1050-16th-Ave-94063/home/1709534,,,N,Y,37.4832971,-122.1867461
PAST SALE,July-2-2015,Vacant Land,0 Skyline Blvd,Woodside,CA,94062,190000,,,Woodside,,209088,,943,,,Sold,,,http://www.redfin.com/CA/Woodside/Skyline-Blvd-Unknown/home/23473893,MLSListings,ML81341423,N,Y,37.3989152,-122.2932
PAST SALE,August-6-2015,Single Family Residential,247 Blakewood Way,WOODSIDE,CA,94062,780000,1,1.0,WOODSIDE,841,10400,1969,908,927,,Sold,,,http://www.redfin.com/CA/Woodside/247-Blakewood-Way-94062/home/897953,MLSListings,ML81471136,N,Y,37.3873393,-122.2692383
PAST SALE,July-4-2015,Townhouse,850 Columbia Cir,Redwood Shores,CA,94065,1260000,3,3.0,Redwood Shores,1959,,1989,941,643,450,Sold,,,http://www.redfin.com/CA/Redwood-City/850-Columbia-Cir-94065/unit-1004/home/1345883,MLSListings,ML81463988,N,Y,37.5362778,-122.2372601
PAST SALE,September-1-2015,Single Family Residential,556 Seahorse Ln,REDWOOD CITY,CA,94065,1450000,3,2.0,REDWOOD CITY,1540,6000,1979,882,942,,Sold,,,http://www.redfin.com/CA/Redwood-City/556-Seahorse-Ln-94065/home/1719643,MLSListings,ML81497879,N,Y,37.53298,-122.2433355
PAST SALE,February-5-2016,Condo/Co-op,103 Hartstene Dr,Redwood Shores,CA,94065,1425000,3,2.5,Redwood Shores,1812,,2011,725,786,277,Sold,,,http://www.redfin.com/CA/Redwood-City/103-Hartstene-Dr-94065/unit-43/home/44621233,MLSListings,ML81547003,N,Y,37.5448508,-122.2454422
PAST SALE,March-7-2016,Single Family Residential,809 Southport Dr,Redwood Shores,CA,94065,1795000,4,3.0,Redwood Shores,2660,4100,1989,694,675,242,Sold,,,http://www.redfin.com/CA/Redwood-City/809-Southport-Dr-94065/home/1092541,MLSListings,ML81548072,N,Y,37.5360548,-122.2355446
PAST SALE,March-6-2017,Single Family Residential,423 Arlington Rd,REDWOOD CITY,CA,94062,1499000,1,1.5,REDWOOD CITY,1370,7752,1913,330,1094,,Sold,,,http://www.redfin.com/CA/Redwood-City/423-Arlington-Rd-94062/home/1952467,MLSListings,ML81637573,N,Y,37.4875575,-122.2449206
PAST SALE,November-24-2015,Condo/Co-op,885 Portwalk Pl,Redwood Shores,CA,94065,706000,2,1.0,Redwood Shores,775,,1987,798,911,438,Sold,,,http://www.redfin.com/CA/Redwood-City/885-Port-Walk-Pl-94065/unit-3726/home/997981,MLSListings,ML81519963,N,Y,37.537021,-122.252545
PAST SALE,June-10-2016,Condo/Co-op,430 Barnegat Ln,REDWOOD CITY,CA,94065,730000,1,1.0,REDWOOD CITY,987,,1979,599,740,311,Sold,,,http://www.redfin.com/CA/Redwood-City/430-Barnegat-Ln-94065/unit-18/home/1713121,MLSListings,ML81579505,N,Y,37.53537,-122.246078
PAST SALE,October-18-2016,Condo/Co-op,448 Barnegat Ln,REDWOOD CITY,CA,94065,650000,1,1.0,REDWOOD CITY,811,,1979,469,801,311,Sold,,,http://www.redfin.com/CA/Redwood-City/448-Barnegat-Ln-94065/unit-7/home/1867536,MLSListings,ML81600526,N,Y,37.53537,-122.246078
PAST SALE,,Condo/Co-op,838 Boardwalk Pl #304,Redwood City,CA,94065,275000,2,2.0,,850,,1987,,324,,,,,http://www.redfin.com/CA/Redwood-City/838-Boardwalk-Pl-94065/unit-304/home/1969822,,,N,Y,37.537142,-122.250812
PAST SALE,September-22-2015,Single Family Residential,2 Ludina Way,REDWOOD CITY,CA,94061,1320000,3,2.5,REDWOOD CITY,1589,2303,2013,861,831,94,Sold,,,http://www.redfin.com/CA/Redwood-City/2-Ludina-Way-94061/home/51671459,MLSListings,ML81501196,N,Y,37.4646115,-122.2273636
PAST SALE,January-26-2017,Townhouse,201 Mendocino Way,REDWOOD CITY,CA,94065,1300000,3,2.5,REDWOOD CITY,1917,,1989,369,678,869,Sold,,,http://www.redfin.com/CA/Redwood-City/201-Mendocino-Way-94065/home/2041829,MLSListings,ML81635030,N,Y,37.5363,-122.240896
PAST SALE,April-10-2015,Townhouse,828 Lakeshore Dr,Redwood Shores,CA,94065,1278000,4,3.0,Redwood Shores,2278,,1989,1026,561,485,Sold,,,http://www.redfin.com/CA/Redwood-City/828-Lakeshore-Dr-94065/home/2021053,MLSListings,ML81454724,N,Y,37.536665,-122.24471
PAST SALE,September-22-2016,Townhouse,206 Demi Ln,Redwood Shores,CA,94065,1235000,3,2.5,Redwood Shores,1812,1,2011,495,682,277,Sold,,,http://www.redfin.com/CA/Redwood-City/206-Demi-Ln-94065/home/40183618,MLSListings,ML81598634,Y,Y,37.5438795,-122.2441955
PAST SALE,December-4-2015,Townhouse,822 Mediterranean Ln,Redwood Shores,CA,94065,1000000,2,2.0,Redwood Shores,1410,,1989,788,709,485,Sold,,,http://www.redfin.com/CA/Redwood-City/822-Mediterranean-Ln-94065/home/2033214,MLSListings,ML81516270,N,Y,37.5368037,-122.2457015
PAST SALE,April-26-2016,Single Family Residential,3520 Hoover St,REDWOOD CITY,CA,94063,800000,2,1.0,REDWOOD CITY,970,6150,1947,644,825,,Sold,,,http://www.redfin.com/CA/Redwood-City/3520-Hoover-St-94063/home/817250,MLSListings,ML81562465,Y,Y,37.4841848,-122.1892779
PAST SALE,,Single Family Residential,577 Stanford Ave,Redwood City,CA,94063,120000,3,1.0,,1180,5000,1946,,102,,,,,http://www.redfin.com/CA/Redwood-City/577-Stanford-Ave-94063/home/1183691,,,N,Y,37.4790687,-122.2092082
PAST SALE,,Single Family Residential,2896 Marlborough Ave,Redwood City,CA,94063,6500,2,1.0,,950,4944,1947,,7,,,,,http://www.redfin.com/CA/Redwood-City/2896-Marlborough-Ave-94063/home/822506,,,N,Y,37.4706773,-122.211135
PAST SALE,,Multi-Family (2-4 Unit),1110 Fifth Ave,Redwood City,CA,94063,808000,5,3.0,,2800,6844,1965,,289,,,,,http://www.redfin.com/CA/Redwood-City/1110-Fifth-Ave-94063/home/825713,,,N,Y,37.4844896,-122.1963208
PAST SALE,May-6-2016,Single Family Residential,11 Cortez Rd,REDWOOD CITY,CA,94062,1630000,4,3.0,REDWOOD CITY,2150,10950,1961,634,758,,Sold,,,http://www.redfin.com/CA/Redwood-City/11-Cortez-Ave-94062/home/1231168,MLSListings,ML81578360,N,Y,37.4786724,-122.265058
PAST SALE,July-13-2015,Single Family Residential,245 Hillsdale Way,REDWOOD CITY,CA,94062,2120000,4,4.0,REDWOOD CITY,2020,30350,1975,932,1050,,Sold,,,http://www.redfin.com/CA/Emerald-Hills/Undisclosed-address-94062/home/1434632,MLSListings,ML81470968,N,Y,37.4690722,-122.2727102
PAST SALE,October-2-2015,Single Family Residential,54 W Summit Dr,REDWOOD CITY,CA,94062,2198000,4,3.0,REDWOOD CITY,2760,10230,2007,851,796,,Sold,,,http://www.redfin.com/CA/Emerald-Hills/54-W-Summit-Dr-94062/home/828835,MLSListings,ML81499164,N,Y,37.4687943,-122.2721991
PAST SALE,,Single Family Residential,786 Lakemead Way,Emerald Hills,CA,94062,1300000,5,4.0,,2460,10030,1949,,528,,,,,http://www.redfin.com/CA/Emerald-Hills/786-Lakemead-Way-94062/home/1016186,,,N,Y,37.4596906,-122.2660838
PAST SALE,September-14-2016,Single Family Residential,572 Lakeview Way,REDWOOD CITY,CA,94062,980000,3,1.0,REDWOOD CITY,970,19998,1948,503,1010,,Sold,,,http://www.redfin.com/CA/Emerald-Hills/572-Lakeview-Way-94062/home/1060091,MLSListings,ML81598380,N,Y,37.4688485,-122.2705613
PAST SALE,May-19-2015,Single Family Residential,600 Lakeview Way,REDWOOD CITY,CA,94062,1730000,3,3.5,REDWOOD CITY,1960,6500,2003,987,883,,Sold,,,http://www.redfin.com/CA/Emerald-Hills/600-Lakeview-Way-94062/home/1071364,MLSListings,ML81460403,N,Y,37.4677843,-122.2705597
PAST SALE,June-23-2015,Single Family Residential,348 Summit Dr,REDWOOD CITY,CA,94062,1750000,3,2.5,REDWOOD CITY,2920,11000,1987,952,599,,Sold,,,http://www.redfin.com/CA/Emerald-Hills/348-Summit-Dr-94062/home/1784328,MLSListings,ML81463981,N,Y,37.4679237,-122.2663046
PAST SALE,December-4-2015,Single Family Residential,140 Springdale Way,REDWOOD CITY,CA,94062,1435000,4,4.0,REDWOOD CITY,2500,24000,1933,788,574,,Sold,,,http://www.redfin.com/CA/Emerald-Hills/140-Springdale-Way-94062/home/2017090,MLSListings,ML81515234,N,Y,37.4730225,-122.2728581
PAST SALE,May-19-2015,Single Family Residential,645 Sylvan Way,REDWOOD CITY,CA,94062,2365000,5,4.5,REDWOOD CITY,4380,24928,2005,987,540,,Sold,,,http://www.redfin.com/CA/Emerald-Hills/645-Sylvan-Way-94062/home/17309146,MLSListings,ML81448524,N,Y,37.4659699,-122.2704914
PAST SALE,January-10-2017,Single Family Residential,49 W Summit Dr,REDWOOD CITY,CA,94062,2175000,4,3.5,REDWOOD CITY,2670,9900,1947,385,815,,Sold,,,http://www.redfin.com/CA/Emerald-Hills/49-W-Summit-Dr-94062/home/1717919,MLSListings,ML81633052,N,Y,37.4686769,-122.2716799
PAST SALE,,Single Family Residential,719 Hillcrest Way,Emerald Hills,CA,94062,1625000,4,3.0,,3200,7250,1989,,508,,,,,http://www.redfin.com/CA/Emerald-Hills/719-Hillcrest-Way-94062/home/1845508,,,N,Y,37.4631899,-122.2676139
PAST SALE,March-13-2015,Multi-Family (2-4 Unit),661 Hampshire Ave,REDWOOD CITY,CA,94063,1060000,5,,REDWOOD CITY,3200,5000,1963,1054,331,,Sold,,,http://www.redfin.com/CA/Redwood-City/661-Hampshire-Ave-94063/home/1936155,MLSListings,ML81451738,N,Y,37.4796329,-122.206878
PAST SALE,,Single Family Residential,3057 Page St,Redwood City,CA,94063,1300000,3,2.0,,1670,6000,1940,,778,,,,,http://www.redfin.com/CA/Redwood-City/3057-Page-St-94063/home/1920190,,,N,Y,37.4839955,-122.1992283
PAST SALE,August-3-2016,Single Family Residential,615 Douglas Ave,REDWOOD CITY,CA,94063,1050000,4,2.0,REDWOOD CITY,1670,5000,1949,545,629,,Sold,,,http://www.redfin.com/CA/Redwood-City/615-Douglas-Ave-94063/home/1784108,MLSListings,ML81592541,N,Y,37.4805576,-122.2111302
PAST SALE,November-9-2015,Single Family Residential,808 8th Ave,REDWOOD CITY,CA,94063,800000,2,1.0,REDWOOD CITY,1370,6780,1947,813,584,,Sold,,,http://www.redfin.com/CA/Redwood-City/808-Eighth-Ave-94063/home/2017037,MLSListings,ML81520401,N,Y,37.4790923,-122.1968089
PAST SALE,September-16-2015,Single Family Residential,12 Lowell St,REDWOOD CITY,CA,94062,2298000,4,2.5,REDWOOD CITY,2860,9750,1930,867,803,,Sold,,,http://www.redfin.com/CA/Redwood-City/12-Lowell-St-94062/home/805572,MLSListings,ML81499153,N,Y,37.4824074,-122.2492432
PAST SALE,November-28-2016,Single Family Residential,477 Emerald Ave,SAN CARLOS,CA,94070,2225000,4,3.0,SAN CARLOS,2560,5262,1947,428,869,,Sold,,,http://www.redfin.com/CA/San-Carlos/477-Emerald-Ave-94070/home/1926167,MLSListings,ML81628697,N,Y,37.4866395,-122.257417
PAST SALE,October-7-2016,Single Family Residential,1733 Alameda de Las Pulgas,SAN CARLOS,CA,94070,1090000,3,1.5,SAN CARLOS,1230,3400,1946,480,886,,Sold,,,http://www.redfin.com/CA/San-Carlos/1733-Alameda-de-las-Pulgas-94070/home/797546,MLSListings,ML81600903,N,Y,37.484943,-122.2578489
PAST SALE,March-27-2015,Single Family Residential,279 Kelton Ave,SAN CARLOS,CA,94070,2550000,3,2.5,SAN CARLOS,2880,7020,1941,1040,885,,Sold,,,http://www.redfin.com/CA/San-Carlos/279-Kelton-Ave-94070/home/1231220,MLSListings,ML81454839,N,Y,37.4867782,-122.254456
PAST SALE,June-7-2016,Single Family Residential,1341 Saint Francis Way,SAN CARLOS,CA,94070,1730000,3,2.0,SAN CARLOS,1620,5501,1951,602,1068,,Sold,,,http://www.redfin.com/CA/San-Carlos/1341-Saint-Francis-Way-94070/home/803724,MLSListings,ML81582953,N,Y,37.493173,-122.2476636
PAST SALE,July-29-2016,Single Family Residential,134 Somerset St,REDWOOD CITY,CA,94062,1835000,3,2.0,REDWOOD CITY,1670,6750,1927,550,1099,,Sold,,,http://www.redfin.com/CA/Redwood-City/134-Somerset-St-94062/home/2029641,MLSListings,ML81591403,N,Y,37.4876692,-122.247049
PAST SALE,November-2-2015,Single Family Residential,32 King St,REDWOOD CITY,CA,94062,1950000,3,2.0,REDWOOD CITY,2133,9750,1931,820,914,,Sold,,,http://www.redfin.com/CA/Redwood-City/32-King-St-94062/home/1963599,MLSListings,ML81519354,N,Y,37.4827643,-122.2481454
PAST SALE,,Multi-Family (2-4 Unit),1535 Hess Rd,Redwood City,CA,94061,2300000,10,7.0,,6998,7500,1964,,329,,,,,http://www.redfin.com/CA/Redwood-City/1535-Hess-Rd-94061/home/1231407,,,N,Y,37.472051,-122.224168
PAST SALE,June-12-2015,Single Family Residential,759 Upland Rd,REDWOOD CITY,CA,94062,1950000,4,3.0,REDWOOD CITY,2790,14300,1960,963,699,,Sold,,,http://www.redfin.com/CA/Redwood-City/759-Upland-Rd-94062/home/1276401,MLSListings,ML81463977,N,Y,37.4707074,-122.2535996
PAST SALE,September-30-2016,Single Family Residential,2412 Harding Ave,REDWOOD CITY,CA,94062,1200000,3,2.0,REDWOOD CITY,1300,8880,1956,487,923,,Sold,,,http://www.redfin.com/CA/Redwood-City/2412-Harding-Ave-94062/home/1742285,MLSListings,ML81595652,N,Y,37.470761,-122.252509
PAST SALE,,Single Family Residential,24 Colton Ct,Redwood City,CA,94062,3300000,5,4.0,,4710,21752,1994,,701,,,,,http://www.redfin.com/CA/Redwood-City/24-Colton-Ct-94062/home/875193,,,N,Y,37.4596923,-122.2756709
PAST SALE,November-11-2016,Single Family Residential,2526 Woodland Pl,REDWOOD CITY,CA,94062,1625000,3,2.0,REDWOOD CITY,2138,12800,1933,445,760,,Sold,,,http://www.redfin.com/CA/Emerald-Hills/2526-Woodland-Pl-94062/home/1082383,MLSListings,ML81631620,N,Y,37.4665982,-122.2681284
PAST SALE,,Single Family Residential,2547 Woodland Pl,Emerald Hills,CA,94062,313000,1,1.0,,1080,10998,1938,,290,,,,,http://www.redfin.com/CA/Emerald-Hills/2547-Woodland-Pl-94062/home/1926764,,,N,Y,37.466253,-122.268232
PAST SALE,,Single Family Residential,655 Glenloch Way,Emerald Hills,CA,94062,3555000,4,4.0,,2965,15239,2015,,1199,,,,,http://www.redfin.com/CA/Emerald-Hills/655-Glenloch-Way-94062/home/143944545,,,N,Y,37.4646617,-122.270709
PAST SALE,September-4-2015,Single Family Residential,105 Wideview Ct,REDWOOD CITY,CA,94062,2598000,5,3.0,REDWOOD CITY,4030,24390,1969,879,645,,Sold,,,http://www.redfin.com/CA/Redwood-City/105-Wideview-Ct-94062/home/1333122,MLSListings,ML81485624,N,Y,37.4714796,-122.2650271
PAST SALE,,Single Family Residential,40 W Summit Dr,Emerald Hills,CA,94062,1190000,3,2.0,,1210,18900,1947,,983,,,,,http://www.redfin.com/CA/Emerald-Hills/40-W-Summit-Dr-94062/home/828759,,,N,Y,37.4696369,-122.2710162
PAST SALE,October-14-2015,Single Family Residential,3 Summit Ct,REDWOOD CITY,CA,94062,1421000,2,1.0,REDWOOD CITY,1109,10125,1948,839,1281,,Sold,,,http://www.redfin.com/CA/Emerald-Hills/3-Summit-Ct-94062/home/1942452,MLSListings,ML81513718,N,Y,37.4695152,-122.268946
PAST SALE,April-13-2016,Single Family Residential,434 Summit Dr,REDWOOD CITY,CA,94062,1308000,2,1.0,REDWOOD CITY,975,6181,1941,657,1342,,Sold,,,http://www.redfin.com/CA/Emerald-Hills/434-Summit-Dr-94062/home/832620,MLSListings,ML81563755,N,Y,37.4694539,-122.265216
PAST SALE,July-6-2016,Single Family Residential,3534 Oak Knoll Dr,REDWOOD CITY,CA,94062,2100000,3,1.0,REDWOOD CITY,1580,20300,1963,573,1329,,Sold,,,http://www.redfin.com/CA/Emerald-Hills/3534-Oak-Knoll-Dr-94062/home/1915871,MLSListings,ML81590251,N,Y,37.4652101,-122.2630578
PAST SALE,September-6-2016,Single Family Residential,3531 Oak Knoll Dr,REDWOOD CITY,CA,94062,1150000,3,2.5,REDWOOD CITY,1853,4218,1987,511,621,,Sold,,,http://www.redfin.com/CA/Emerald-Hills/3531-Oak-Knoll-Dr-94062/home/827484,MLSListings,ML81562486,N,Y,37.464963,-122.2633939
PAST SALE,March-24-2016,Single Family Residential,3509 GLENWOOD Ave,REDWOOD CITY,CA,94062,1425000,3,1.0,REDWOOD CITY,1430,8720,1951,677,997,,Sold,,,http://www.redfin.com/CA/Redwood-City/3509-Glenwood-Ave-94062/home/836444,MLSListings,ML81561536,N,Y,37.4689547,-122.2529664
PAST SALE,December-2-2016,Single Family Residential,775 Lakeview Way,REDWOOD CITY,CA,94062,1350000,3,2.0,REDWOOD CITY,1310,12100,1949,424,1031,,Sold,,,http://www.redfin.com/CA/Emerald-Hills/775-Lakeview-Way-94062/home/1710325,MLSListings,ML81590243,N,Y,37.4629841,-122.2639331
PAST SALE,March-2-2017,Single Family Residential,815 California Way,REDWOOD CITY,CA,94062,2160000,3,2.5,REDWOOD CITY,2000,7290,1999,334,1080,,Sold,,,http://www.redfin.com/CA/Emerald-Hills/815-California-Way-94062/home/2037694,MLSListings,ML81637123,N,Y,37.4583767,-122.2695829
PAST SALE,March-1-2017,Single Family Residential,611 Hillcrest Dr,REDWOOD CITY,CA,94062,1510000,3,2.0,REDWOOD CITY,1550,6621,1970,335,974,,Sold,,,http://www.redfin.com/CA/Redwood-City/611-Hillcrest-Dr-94062/home/1411838,MLSListings,ML81636938,N,Y,37.4711158,-122.2526384
PAST SALE,May-14-2015,Single Family Residential,637 Lombardy Way,Redwood City,CA,94062,3050000,4,5.5,Redwood City,4525,16552,2002,992,674,,Sold,,,http://www.redfin.com/CA/Emerald-Hills/637-Lombardy-Way-94062/home/1198180,San Francisco MLS,431861,N,Y,37.4614807,-122.270852
PAST SALE,,Single Family Residential,239 Ferndale Way,Emerald Hills,CA,94062,930000,1,2.0,,940,7840,1926,,989,,,,,http://www.redfin.com/CA/Emerald-Hills/239-Ferndale-Way-94062/home/826494,,,N,Y,37.4718196,-122.276055
PAST SALE,December-11-2015,Single Family Residential,412 Lakeview Way,REDWOOD CITY,CA,94062,1325000,4,2.5,REDWOOD CITY,2130,6708,1975,781,622,,Sold,,,http://www.redfin.com/CA/Emerald-Hills/412-Lakeview-Way-94062/home/1936267,MLSListings,ML81518994,N,Y,37.4711498,-122.2686339
PAST SALE,March-2-2017,Single Family Residential,83 Tum Suden Way,WOODSIDE,CA,94062,3015000,5,3.0,WOODSIDE,4700,22564,1981,334,641,,Sold,,,http://www.redfin.com/CA/Woodside/83-Tum-Suden-Way-94062/home/1124941,MLSListings,ML81615110,N,Y,37.4535779,-122.2685707
PAST SALE,September-29-2016,Single Family Residential,523 Oak Park Way,REDWOOD CITY,CA,94062,1560000,3,3.0,REDWOOD CITY,1990,6799,1998,488,784,,Sold,,,http://www.redfin.com/CA/Emerald-Hills/523-Oak-Park-Way-94062/home/1016136,MLSListings,ML81600493,N,Y,37.462863,-122.275106
PAST SALE,June-9-2015,Townhouse,817 Columbia Cir,Redwood Shores,CA,94065,1170000,3,3.0,Redwood Shores,1800,1,1989,966,650,450,Sold,,,http://www.redfin.com/CA/Redwood-City/817-Columbia-Cir-94065/home/1826812,MLSListings,ML81461495,N,Y,37.5363665,-122.2364183
PAST SALE,May-23-2015,Townhouse,24 Admiralty Pl,REDWOOD CITY,CA,94065,1380000,3,2.5,REDWOOD CITY,1960,3136,1977,983,704,325,Sold,,,http://www.redfin.com/CA/Redwood-City/24-Admiralty-Pl-94065/home/1518599,MLSListings,ML81464999,N,Y,37.533025,-122.247602
PAST SALE,January-21-2016,Single Family Residential,581 Seahorse,Redwood Shores,CA,94065,1375000,3,2.0,Redwood Shores,1760,6350,1979,740,781,,Sold,,,http://www.redfin.com/CA/Redwood-City/581-Seahorse-Ln-94065/home/940043,MLSListings,ML81534426,N,Y,37.5342584,-122.2442718
PAST SALE,March-30-2016,Single Family Residential,732 Newport Cir,Redwood Shores,CA,94065,1775000,3,3.0,Redwood Shores,1863,5619,1985,671,953,165,Sold,,,http://www.redfin.com/CA/Redwood-City/732-Newport-Cir-94065/home/1992534,MLSListings,ML81562575,Y,Y,37.5342251,-122.2517631
PAST SALE,February-1-2016,Condo/Co-op,753 Barnegat Ln #99,Redwood Shores,CA,94065,675000,1,1.0,Redwood Shores,811,,1979,729,832,311,Sold,,,http://www.redfin.com/CA/Redwood-City/753-Barnegat-Ln-94065/unit-99/home/1527389,MLSListings,ML81518435,N,Y,37.53537,-122.246078
PAST SALE,May-1-2015,Townhouse,17 Spinnaker Pl,Redwood Shores,CA,94065,1550000,3,2.5,Redwood Shores,1740,3164,1977,1005,891,325,Sold,,,http://www.redfin.com/CA/Redwood-City/17-Spinnaker-Pl-94065/home/1241787,MLSListings,ML81458173,N,Y,37.531956,-122.249721
PAST SALE,April-22-2015,Condo/Co-op,458 Barnegat Ln,REDWOOD CITY,CA,94065,712000,1,1.0,REDWOOD CITY,987,,1979,1014,721,311,Sold,,,http://www.redfin.com/CA/Redwood-City/458-Barnegat-Ln-94065/unit-4/home/1730510,MLSListings,ML81454097,N,Y,37.53537,-122.246078
PAST SALE,November-19-2015,Single Family Residential,2912 Jefferson Ave,REDWOOD CITY,CA,94062,1050000,3,2.0,REDWOOD CITY,1640,7293,1966,803,640,,Sold,,,http://www.redfin.com/CA/Redwood-City/2912-Jefferson-Ave-94062/home/2020056,MLSListings,ML81518316,N,Y,37.4709262,-122.2448707
PAST SALE,October-9-2016,Single Family Residential,296 Hillview Ave,REDWOOD CITY,CA,94062,1650000,4,2.5,REDWOOD CITY,2650,8969,1977,478,623,,Sold,,,http://www.redfin.com/CA/Redwood-City/296-Hillview-Ave-94062/home/1886705,MLSListings,ML81611582,N,Y,37.4749162,-122.247991
PAST SALE,May-20-2016,Single Family Residential,609 Rockingham Ln,REDWOOD CITY,CA,94065,1609000,3,2.5,REDWOOD CITY,2020,3825,1998,620,797,192,Sold,,,http://www.redfin.com/CA/Redwood-City/609-Rockingham-Ln-94065/home/1317518,MLSListings,ML81565956,N,Y,37.5461602,-122.2376595
PAST SALE,June-21-2016,Single Family Residential,317 Starfish Ln,Redwood Shores,CA,94065,1185000,2,2.5,Redwood Shores,1270,2580,1986,588,933,165,Sold,,,http://www.redfin.com/CA/Redwood-City/317-Starfish-Ln-94065/home/1418637,MLSListings,ML81585507,Y,Y,37.5360462,-122.2494076
PAST SALE,,Single Family Residential,454 Jeter St,Redwood City,CA,94062,315000,3,1.0,,1470,10350,1941,,214,,,,,http://www.redfin.com/CA/Redwood-City/454-Jeter-St-94062/home/2046467,,,N,Y,37.4775475,-122.2399509
PAST SALE,July-19-2016,Single Family Residential,470 Myrtle St,REDWOOD CITY,CA,94062,1510000,3,2.0,REDWOOD CITY,1610,6500,1928,560,938,,Sold,,,http://www.redfin.com/CA/Redwood-City/470-Myrtle-St-94062/home/831710,MLSListings,ML81588259,N,Y,37.4759325,-122.2414497
PAST SALE,November-20-2015,Single Family Residential,1 Goodwin Ct,REDWOOD CITY,CA,94061,2150000,4,3.0,REDWOOD CITY,2880,13320,1979,802,747,,Sold,,,http://www.redfin.com/CA/Redwood-City/1-Goodwin-Ct-94061/home/888137,MLSListings,ML81519997,N,Y,37.4555253,-122.246683
PAST SALE,April-3-2015,Single Family Residential,2635 Brewster Ave,REDWOOD CITY,CA,94062,1070000,3,1.5,REDWOOD CITY,1500,7800,1934,1033,713,,Sold,,,http://www.redfin.com/CA/Redwood-City/2635-Brewster-Ave-94062/home/1350808,MLSListings,ML81454741,N,Y,37.4761232,-122.249731
PAST SALE,August-26-2016,Single Family Residential,3665 Farm Hill Blvd,REDWOOD CITY,CA,94061,2000000,4,3.0,REDWOOD CITY,2230,17600,1956,522,897,,Sold,,,http://www.redfin.com/CA/Redwood-City/3665-Farm-Hill-Blvd-94061/home/830590,MLSListings,ML81596631,N,Y,37.4602027,-122.2488379
PAST SALE,February-10-2017,Single Family Residential,431 Vera Ave,REDWOOD CITY,CA,94061,1162000,3,2.0,REDWOOD CITY,1248,7800,1942,354,931,,Sold,,,http://www.redfin.com/CA/Redwood-City/431-Vera-Ave-94061/home/1567103,MLSListings,ML81634398,N,Y,37.4780876,-122.2302555
PAST SALE,December-11-2015,Condo/Co-op,636 Fan tail Way #910,Redwood City,CA,94063,958000,3,2.5,Redwood City,1447,,2013,781,662,240,Sold,,,http://www.redfin.com/CA/Redwood-City/636-Fan-Tail-Way-94063/unit-910/home/101697055,San Francisco MLS,439582,N,Y,37.4951064,-122.2240689
PAST SALE,March-3-2015,Townhouse,654 Sea Anchor Dr #2305,Redwood City,CA,94063,875000,2,2.5,Redwood City,1506,,2014,1064,581,240,Sold,,,http://www.redfin.com/CA/Redwood-City/654-Sea-Anchor-Dr-94063/unit-2305/home/54535080,MLSListings,ML81409251,N,Y,37.4977956,-122.2225527
PAST SALE,July-31-2015,Single Family Residential,147 Iris St,REDWOOD CITY,CA,94062,1385900,2,2.0,REDWOOD CITY,1360,6500,1927,914,1019,,Sold,,,http://www.redfin.com/CA/Redwood-City/147-Iris-St-94062/home/2014683,MLSListings,ML81470976,N,Y,37.4826332,-122.2440012
PAST SALE,November-4-2016,Single Family Residential,421 Harrison Ave,REDWOOD CITY,CA,94062,740000,2,1.0,REDWOOD CITY,710,5240,1921,452,1042,,Sold,,,http://www.redfin.com/CA/Redwood-City/421-Harrison-Ave-94062/home/810231,MLSListings,ML81614589,N,Y,37.480901,-122.233796
PAST SALE,,Condo/Co-op,1233 Warren St #106,Redwood City,CA,94063,187000,3,3.0,,913,,1995,,205,,,,,http://www.redfin.com/CA/Redwood-City/1233-Warren-St-94063/unit-106/home/1833523,,,N,Y,37.491831,-122.23758
PAST SALE,June-8-2015,Condo/Co-op,104 Sydney Ln,REDWOOD CITY,CA,94063,951000,3,2.5,REDWOOD CITY,1390,99,1999,967,684,300,Sold,,,http://www.redfin.com/CA/Redwood-City/104-Sydney-Ln-94063/unit-22/home/996323,MLSListings,ML81463208,N,Y,37.4970521,-122.2249101
PAST SALE,March-18-2016,Single Family Residential,2428 Whipple Ave,REDWOOD CITY,CA,94062,2160000,4,3.0,REDWOOD CITY,3470,8450,1928,683,622,,Sold,,,http://www.redfin.com/CA/Redwood-City/2428-Whipple-Ave-94062/home/802930,MLSListings,ML81550342,N,Y,37.4814045,-122.2516207
PAST SALE,September-3-2015,Single Family Residential,433 Upton St,REDWOOD CITY,CA,94062,1550000,3,2.0,REDWOOD CITY,1364,5500,2008,880,1136,,Sold,,,http://www.redfin.com/CA/Redwood-City/433-Upton-St-94062/home/2058092,MLSListings,ML81471241,N,Y,37.472199,-122.2483497
PAST SALE,,Single Family Residential,560 Douglas Ave,Redwood City,CA,94063,341500,3,1.0,,1430,5000,1947,,239,,,,,http://www.redfin.com/CA/Redwood-City/560-Douglas-Ave-94063/home/816728,,,N,Y,37.4794444,-122.2113541
PAST SALE,December-23-2016,Single Family Residential,248 3rd Ave,REDWOOD CITY,CA,94063,875000,4,3.0,REDWOOD CITY,1620,5998,1949,403,540,,Sold,,,http://www.redfin.com/CA/Redwood-City/248-Third-Ave-94063/home/1397771,MLSListings,ML81588177,N,Y,37.4716502,-122.206802
PAST SALE,November-13-2015,Single Family Residential,852 14th Ave,MENLO PARK,CA,94025,1096000,3,2.0,MENLO PARK,1190,5358,1950,809,921,,Sold,,,http://www.redfin.com/CA/Menlo-Park/852-Fourteenth-Ave-94025/home/819764,MLSListings,ML81516660,N,Y,37.4771452,-122.1893612
PAST SALE,,Multi-Family (2-4 Unit),919 Seventh Ave,Redwood City,CA,94063,975000,4,2.0,,1958,5670,1957,,498,,,,,http://www.redfin.com/CA/Redwood-City/919-Seventh-Ave-94063/home/1870846,,,N,Y,37.481819,-122.196752
PAST SALE,May-12-2016,Single Family Residential,84 Murray Ct,REDWOOD CITY,CA,94061,870000,2,1.0,REDWOOD CITY,830,5500,1940,628,1048,,Sold,,,http://www.redfin.com/CA/Redwood-City/Murray-Ct-94061/home/841597,MLSListings,ML81576982,N,Y,37.4691971,-122.2218853
PAST SALE,May-14-2016,Single Family Residential,515 Upland Rd,REDWOOD CITY,CA,94062,1670000,4,2.5,REDWOOD CITY,2820,19571,1947,626,592,,Sold,,,http://www.redfin.com/CA/Redwood-City/515-Upland-Rd-94062/home/833496,MLSListings,ML81585580,N,Y,37.4757403,-122.2530892
PAST SALE,May-12-2015,Single Family Residential,128 Stanley St,REDWOOD CITY,CA,94062,1150000,3,1.0,REDWOOD CITY,1120,5000,1951,994,1027,,Sold,,,http://www.redfin.com/CA/Redwood-City/128-Stanley-St-94062/home/832746,MLSListings,ML81458864,N,Y,37.4764743,-122.2530254
PAST SALE,,Single Family Residential,3048 Oak Knoll Dr,Redwood City,CA,94062,2450000,4,3.5,,3200,13000,2015,,766,,,,,http://www.redfin.com/CA/Redwood-City/3048-Oak-Knoll-Dr-94062/home/108551424,,,N,Y,37.4761452,-122.2562973
PAST SALE,,Single Family Residential,1143 Virginia Ave,Redwood City,CA,94061,1000000,3,1.0,,1260,6000,1959,,794,,,,,http://www.redfin.com/CA/Redwood-City/1143-Virginia-Ave-94061/home/1742221,,,N,Y,37.4667309,-122.2394073
PAST SALE,June-9-2015,Single Family Residential,1256 Crompton Rd,REDWOOD CITY,CA,94061,1725000,3,2.0,REDWOOD CITY,1890,6270,1951,966,913,,Sold,,,http://www.redfin.com/CA/Redwood-City/1256-Crompton-Rd-94061/home/1049568,MLSListings,ML81467465,N,Y,37.45985,-122.2431285
PAST SALE,April-4-2016,Single Family Residential,13704 Skyline Blvd,WOODSIDE,CA,94062,1230000,3,2.0,WOODSIDE,2510,27700,1949,666,490,,Sold,,,http://www.redfin.com/CA/Woodside/13704-Skyline-Blvd-94062/home/1425441,MLSListings,ML81498638,N,Y,37.440354,-122.324278
PAST SALE,September-29-2016,Vacant Land,0 Huckleberry,Woodside,CA,94062,24500,,,Redwood Park,,8605,,488,,,Sold,,,http://www.redfin.com/CA/Woodside/Huckleberry-Trl-94062/home/17367249,MLSListings,ML81409409,N,Y,37.4351188,-122.3216999
PAST SALE,January-12-2017,Single Family Residential,919 Chatsworth Ln,REDWOOD CITY,CA,94061,1490000,4,2.5,REDWOOD CITY,2060,4748,1985,383,723,195,Sold,,,http://www.redfin.com/CA/Redwood-City/919-Chatsworth-Ln-94061/home/1202647,MLSListings,ML81630022,N,Y,37.4629412,-122.2206724
PAST SALE,March-8-2017,Single Family Residential,339 Sequoia Ave,REDWOOD CITY,CA,94061,1980000,3,2.5,REDWOOD CITY,2330,5000,1939,328,850,,Sold,,,http://www.redfin.com/CA/Redwood-City/339-Sequoia-Ave-94061/home/1601181,MLSListings,ML81636814,N,Y,37.453228,-122.2250552
PAST SALE,May-11-2015,Condo/Co-op,1240 Woodside Rd #10,REDWOOD CITY,CA,94061,450000,2,2.0,REDWOOD CITY,1035,,1961,995,435,450,Sold,,,http://www.redfin.com/CA/Redwood-City/Woodside-Rd-94061/home/17308038,MLSListings,ML81453979,N,Y,37.4593407,-122.2271205
PAST SALE,,Single Family Residential,18 Kentfield Ct,Redwood City,CA,94061,1458000,3,2.0,,1840,2279,2016,,792,,,,,http://www.redfin.com/CA/Redwood-City/18-Kentfield-Ct-94061/home/109581597,,,N,Y,37.4638292,-122.2257207
PAST SALE,,Single Family Residential,2429 Ohio Ave,Redwood City,CA,94061,639000,3,2.0,,1400,9625,1951,,456,,,,,http://www.redfin.com/CA/Redwood-City/2429-Ohio-Ave-94061/home/1016274,,,N,Y,37.4551315,-122.2310321
PAST SALE,,Condo/Co-op,108 Camerota Way #1204,Redwood City,CA,94065,1260000,3,2.0,,1363,,1996,,924,,,,,http://www.redfin.com/CA/Redwood-City/108-Camerota-Way-94065/unit-1204/home/39832895,,,N,Y,37.5446389,-122.241651
PAST SALE,April-22-2016,Single Family Residential,709 Rainsong Ln,Redwood Shores,CA,94065,1970000,4,2.5,Redwood Shores,2280,3835,1998,648,864,150,Sold,,,http://www.redfin.com/CA/Redwood-City/709-Rainsong-Ln-94065/home/2054556,MLSListings,ML81563909,N,Y,37.5456472,-122.2388444
PAST SALE,July-8-2015,Single Family Residential,2064 Seabrook Ct,Redwood Shores,CA,94065,2400000,4,3.0,Redwood Shores,3300,6829,1999,937,727,290,Sold,,,http://www.redfin.com/CA/Redwood-City/2064-Seabrook-Ct-94065/home/1073481,MLSListings,ML81459337,N,Y,37.5477044,-122.2360468
PAST SALE,August-25-2016,Condo/Co-op,566 Shoal Cir,REDWOOD CITY,CA,94065,878000,1,2.0,REDWOOD CITY,1323,,1992,523,664,374,Sold,,,http://www.redfin.com/CA/Redwood-City/566-Shoal-Cir-94065/unit-57/home/1878487,MLSListings,ML81597016,N,Y,37.5407,-122.235807
PAST SALE,April-14-2016,Single Family Residential,569 Skiff Cir,Redwood Shores,CA,94065,1530000,3,2.0,Redwood Shores,1810,6500,1969,656,845,,Sold,,,http://www.redfin.com/CA/Redwood-City/569-Skiff-Cir-94065/home/945002,MLSListings,ML81563103,N,Y,37.529044,-122.2500098
PAST SALE,March-17-2015,Single Family Residential,437 Lanyard Dr,REDWOOD CITY,CA,94065,1300000,3,2.0,REDWOOD CITY,1320,7000,1971,1050,985,,Sold,,,http://www.redfin.com/CA/Redwood-City/437-Lanyard-Dr-94065/home/2059371,MLSListings,ML81449690,N,Y,37.5278241,-122.2533216
PAST SALE,,Condo/Co-op,453 Cork Harbour Cir,Redwood City,CA,94065,450000,1,1.0,,764,,1985,,589,,,,,http://www.redfin.com/CA/Redwood-City/453-Cork-Harbour-Cir-94065/home/1906978,,,N,Y,37.5327342,-122.25785
PAST SALE,March-28-2016,Condo/Co-op,877 Portwalk Pl,REDWOOD CITY,CA,94065,825000,2,2.0,REDWOOD CITY,917,,1987,673,900,476,Sold,,,http://www.redfin.com/CA/Redwood-City/877-Port-Walk-Pl-94065/unit-3722/home/2015738,MLSListings,ML81550214,N,Y,37.5381812,-122.2514874
PAST SALE,March-15-2017,Single Family Residential,628 Island Pl,REDWOOD CITY,CA,94065,2020000,4,2.5,REDWOOD CITY,2240,6998,1987,321,902,292,Sold,,,http://www.redfin.com/CA/Redwood-City/628-Island-Pl-94065/home/940539,MLSListings,ML81642412,N,Y,37.5348675,-122.2533114
PAST SALE,July-19-2016,Condo/Co-op,34 Pelican Ln,Redwood Shores,CA,94065,750000,2,1.0,Redwood Shores,1063,,1985,560,706,486,Sold,,,http://www.redfin.com/CA/Redwood-City/34-Pelican-Ln-94065/unit-62096/home/1555693,MLSListings,ML81590900,N,Y,37.531176,-122.255853
PAST SALE,January-21-2016,Condo/Co-op,97 Pelican Ln,Redwood Shores,CA,94065,665000,1,1.0,Redwood Shores,837,,1985,740,795,442,Sold,,,http://www.redfin.com/CA/Redwood-City/97-Pelican-Ln-94065/unit-81159/home/2022896,MLSListings,ML81522633,N,Y,37.531176,-122.255853
PAST SALE,June-12-2015,Condo/Co-op,802 Boardwalk Pl,Redwood Shores,CA,94065,785000,2,2.0,Redwood Shores,850,,1987,963,924,475,Sold,,,http://www.redfin.com/CA/Redwood-City/802-Boardwalk-Pl-94065/unit-102/home/1878593,MLSListings,ML81462819,N,Y,37.537142,-122.250812
PAST SALE,,Condo/Co-op,850 Boardwalk Pl #404,Redwood City,CA,94065,315000,2,2.0,,850,,1987,,371,,,,,http://www.redfin.com/CA/Redwood-City/850-Boardwalk-Pl-94065/unit-404/home/2022930,,,N,Y,37.537142,-122.250812
PAST SALE,October-6-2015,Condo/Co-op,247 Shorebird Cir,REDWOOD CITY,CA,94065,820000,2,2.0,REDWOOD CITY,1018,,1986,847,806,536,Sold,,,http://www.redfin.com/CA/Redwood-City/247-Shorebird-Cir-94065/unit-94/home/1730907,MLSListings,ML81511978,N,Y,37.532164,-122.254993
PAST SALE,February-14-2017,Condo/Co-op,725 Portwalk Pl,Redwood Shores,CA,94065,795000,2,2.0,Redwood Shores,850,,1987,350,935,478,Sold,,,http://www.redfin.com/CA/Redwood-City/725-Port-Walk-Pl-94065/unit-2705/home/1482504,MLSListings,ML81636953,N,Y,37.5370663,-122.2525843
PAST SALE,November-30-2016,Condo/Co-op,727 Portwalk Pl,REDWOOD CITY,CA,94065,801900,2,2.0,REDWOOD CITY,850,,1987,426,943,476,Sold,,,http://www.redfin.com/CA/Redwood-City/727-Port-Walk-Pl-94065/unit-2726/home/1788450,MLSListings,ML81615500,N,Y,37.537021,-122.252545
PAST SALE,September-23-2015,Condo/Co-op,859 Portwalk Pl,Redwood Shores,CA,94065,803000,2,2.0,Redwood Shores,910,,1987,860,882,461,Sold,,,http://www.redfin.com/CA/Redwood-City/859-Port-Walk-Pl-94065/unit-3801/home/1527736,MLSListings,ML81500098,N,Y,37.537021,-122.252545
PAST SALE,March-1-2016,Condo/Co-op,2208 Hastings Shore Ln,REDWOOD CITY,CA,94065,910000,3,3.0,REDWOOD CITY,1411,,1995,700,645,666,Sold,,,http://www.redfin.com/CA/Redwood-City/2208-Hastings-Shore-Ln-94065/unit-226/home/991518,MLSListings,ML81547262,N,Y,37.524273,-122.251449
PAST SALE,August-14-2015,Condo/Co-op,2502 Hastings Shore Ln,REDWOOD CITY,CA,94065,631000,1,1.0,REDWOOD CITY,747,,1995,900,845,497,Sold,,,http://www.redfin.com/CA/Redwood-City/2502-Hastings-Shore-Ln-94065/unit-166/home/992936,MLSListings,ML81483406,N,Y,37.5240129,-122.2509802
PAST SALE,April-17-2015,Condo/Co-op,2606 Hastings Shore Ln,REDWOOD CITY,CA,94065,575000,1,1.0,REDWOOD CITY,75680,796,1996,1019,8,475,Sold,,,http://www.redfin.com/CA/Redwood-City/2606-Hastings-Shore-Ln-94065/unit-176/home/1075229,MLSListings,ML81454446,N,Y,37.523523,-122.250366
PAST SALE,,Single Family Residential,822 Newport Cir,Redwood City,CA,94065,525000,2,2.0,,1310,3577,1987,,401,,,,,http://www.redfin.com/CA/Redwood-City/822-Newport-Cir-94065/home/1241731,,,N,Y,37.5369985,-122.2495184
PAST SALE,,Townhouse,803 Mendocino Way #108,Redwood City,CA,94065,1110000,3,2.0,,1769,185764,1989,,627,,,,,http://www.redfin.com/CA/Redwood-City/803-Mendocino-Way-94065/unit-108/home/2028365,,,N,Y,37.5363,-122.240896
PAST SALE,,Single Family Residential,646 Marlin Ct,Redwood City,CA,94065,1940000,3,2.0,,2280,12000,1977,,851,,,,,http://www.redfin.com/CA/Redwood-City/646-Marlin-Ct-94065/home/1335130,,,N,Y,37.5349178,-122.2474268
PAST SALE,April-5-2016,Condo/Co-op,838 Lakeshore Dr,Redwood Shores,CA,94065,1238000,2,2.0,Redwood Shores,1892,,1989,665,654,485,Sold,,,http://www.redfin.com/CA/Redwood-City/838-Lakeshore-Dr-94065/unit-1322/home/990567,MLSListings,ML81561464,N,Y,37.536665,-122.24471
PAST SALE,,Condo/Co-op,828 Mediterranean Ln #2223,Redwood City,CA,94065,1075000,2,2.0,,2056,,1989,,523,,,,,http://www.redfin.com/CA/Redwood-City/828-Mediterranean-Ln-94065/unit-2223/home/2025650,,,N,Y,37.5366164,-122.2457647
PAST SALE,,Condo/Co-op,743 Mediterranean Ln #4011,Redwood City,CA,94065,1450000,3,3.0,,2365,,1989,,613,,,,,http://www.redfin.com/CA/Redwood-City/743-Mediterranean-Ln-94065/unit-4011/home/1969781,,,N,Y,37.5376866,-122.2426405
PAST SALE,,Townhouse,441 Leahy St,Redwood City,CA,94061,1185000,3,3.0,,1770,2296,1978,,669,,,,,http://www.redfin.com/CA/Redwood-City/441-Leahy-St-94061/home/1845143,,,N,Y,37.471709,-122.217914
PAST SALE,July-2-2015,Single Family Residential,1121 Johnson St,REDWOOD CITY,CA,94061,1105000,3,1.0,REDWOOD CITY,1260,5750,1950,943,877,,Sold,,,http://www.redfin.com/CA/Redwood-City/1121-Johnson-St-94061/home/1574645,MLSListings,ML81468103,N,Y,37.4726208,-122.2328983
PAST SALE,December-28-2015,Multi-Family (2-4 Unit),1354 Valota Rd,REDWOOD CITY,CA,94061,1198000,4,,REDWOOD CITY,2360,7150,1946,764,508,,Sold,,,http://www.redfin.com/CA/Redwood-City/1354-Valota-Rd-94061/home/2054363,MLSListings,ML81515959,N,Y,37.4658267,-122.234729
PAST SALE,,Condo/Co-op,50 Horgan Ave Apt 35,Redwood City,CA,94061,720000,3,2.0,,1550,,1979,,465,,,,,http://www.redfin.com/CA/Redwood-City/50-Horgan-Ave-94061/unit-35/home/988569,,,N,Y,37.4638564,-122.2234583
PAST SALE,June-24-2016,Single Family Residential,1918 Maddux Dr,REDWOOD CITY,CA,94061,1380000,4,2.0,REDWOOD CITY,1470,6050,1951,585,939,,Sold,,,http://www.redfin.com/CA/Redwood-City/1918-Maddux-Dr-94061/home/1625639,MLSListings,ML81586683,N,Y,37.4529742,-122.2347181
PAST SALE,February-22-2017,Single Family Residential,1013 Cardiff Ln,REDWOOD CITY,CA,94061,1425000,3,2.5,REDWOOD CITY,1570,4508,1986,342,908,195,Sold,,,http://www.redfin.com/CA/Redwood-City/1013-Cardiff-Ln-94061/home/1857177,MLSListings,ML81630707,N,Y,37.4600931,-122.2207533
PAST SALE,,Single Family Residential,19 Kentfield Ct,Redwood City,CA,94061,1649000,4,2.0,,2183,3557,2016,,755,,,,,http://www.redfin.com/CA/Redwood-City/19-Kentfield-Ct-94061/home/109581821,,,N,Y,37.4641993,-122.2258955
PAST SALE,,Single Family Residential,1102 Vera Ave,Redwood City,CA,94061,437500,3,1.0,,1012,12000,1951,,432,,,,,http://www.redfin.com/CA/Redwood-City/1102-Vera-Ave-94061/home/1903830,,,N,Y,37.4738836,-122.2363265
PAST SALE,February-27-2015,Single Family Residential,1180 Grand St,REDWOOD CITY,CA,94061,950000,3,2.0,REDWOOD CITY,1350,4700,1953,1068,704,,Sold,,,http://www.redfin.com/CA/Redwood-City/1180-Grand-St-94061/home/2037351,MLSListings,ML81448356,N,Y,37.4729535,-122.229909
PAST SALE,,Single Family Residential,1178 Ebener St,Redwood City,CA,94061,597000,2,1.0,,870,5358,1927,,686,,,,,http://www.redfin.com/CA/Redwood-City/1178-Ebener-St-94061/home/813696,,,N,Y,37.4736047,-122.2294017
PAST SALE,August-10-2016,Single Family Residential,2030 Hull Ave,REDWOOD CITY,CA,94061,1900000,4,2.5,REDWOOD CITY,2610,6011,1994,538,728,,Sold,,,http://www.redfin.com/CA/Redwood-City/2030-Hull-Ave-94061/home/1379700,MLSListings,ML81590288,N,Y,37.4482736,-122.2295464
PAST SALE,February-29-2016,Single Family Residential,224 Madrone St,REDWOOD CITY,CA,94061,935000,3,2.0,REDWOOD CITY,1300,5000,1987,701,719,,Sold,,,http://www.redfin.com/CA/Redwood-City/224-Madrone-St-94061/home/811154,MLSListings,ML81534623,N,Y,37.4731691,-122.2210864
PAST SALE,December-9-2016,Single Family Residential,1817 Roosevelt Ave,REDWOOD CITY,CA,94061,1298000,3,2.5,REDWOOD CITY,1506,2626,1947,417,862,,Sold,,,http://www.redfin.com/CA/Redwood-City/1817-Roosevelt-Ave-94061/home/2050581,MLSListings,ML81629652,N,Y,37.4679891,-122.2391604
PAST SALE,,Single Family Residential,1434 Oak Ave,Redwood City,CA,94061,1200000,3,1.0,,1050,6250,1952,,1143,,,,,http://www.redfin.com/CA/Redwood-City/1434-Oak-Ave-94061/home/1341881,,,N,Y,37.4687576,-122.2349747
PAST SALE,November-19-2015,Single Family Residential,1199 Saint Francis St,REDWOOD CITY,CA,94061,1380000,3,2.5,REDWOOD CITY,1653,6300,1950,803,835,,Sold,,,http://www.redfin.com/CA/Redwood-City/1199-Saint-Francis-St-94061/home/835347,MLSListings,ML81519119,N,Y,37.4682716,-122.2356645
PAST SALE,October-20-2016,Single Family Residential,1017 King St,REDWOOD CITY,CA,94061,975000,3,1.0,REDWOOD CITY,1030,4600,1921,467,947,,Sold,,,http://www.redfin.com/CA/Redwood-City/1017-King-St-94061/home/1081578,MLSListings,ML81614584,N,Y,37.473019,-122.2347594
PAST SALE,,Single Family Residential,1206 Gordon St,Redwood City,CA,94061,533500,3,2.0,,1690,8100,1947,,316,,,,,http://www.redfin.com/CA/Redwood-City/1206-Gordon-St-94061/home/1037250,,,N,Y,37.4702343,-122.2324237
PAST SALE,February-1-2017,Single Family Residential,1646 Pecan Ct,Redwood City,CA,94061,1450000,3,2.0,Redwood City,1530,6700,1957,363,948,,Sold,,,http://www.redfin.com/CA/Redwood-City/1646-Pecan-Ct-94061/home/839591,San Francisco MLS,453175,N,Y,37.4632277,-122.2289391
PAST SALE,,Single Family Residential,920 Knightsbridge Ln,Redwood City,CA,94061,1800000,4,2.0,,2060,5775,1986,,874,,,,,http://www.redfin.com/CA/Redwood-City/920-Knightsbridge-Ln-94061/home/1947570,,,N,Y,37.4619951,-122.2210375
PAST SALE,March-20-2015,Single Family Residential,2766 Kensington Rd,REDWOOD CITY,CA,94061,1221000,3,1.0,REDWOOD CITY,1020,6050,1952,1047,1197,,Sold,,,http://www.redfin.com/CA/Redwood-City/2766-Kensington-Rd-94061/home/1489183,MLSListings,ML81448748,N,Y,37.4569031,-122.2381612
PAST SALE,February-22-2017,Single Family Residential,1736 Alameda De Las Pulgas,REDWOOD CITY,CA,94061,1415000,4,2.5,REDWOOD CITY,2094,7860,1952,342,676,,Sold,,,http://www.redfin.com/CA/Redwood-City/1736-Alameda-de-las-Pulgas-94061/home/2058187,MLSListings,ML81636250,Y,Y,37.4529507,-122.2366942
PAST SALE,March-23-2015,Single Family Residential,1816 Maddux Dr,REDWOOD CITY,CA,94061,1325000,3,2.0,REDWOOD CITY,1274,6700,1952,1044,1040,,Sold,,,http://www.redfin.com/CA/Redwood-City/1816-Maddux-Dr-94061/home/1091307,MLSListings,ML81452884,N,Y,37.4548378,-122.2347055
PAST SALE,March-26-2015,Single Family Residential,307 Belmont Ave,REDWOOD CITY,CA,94061,950000,2,1.0,REDWOOD CITY,980,3876,1955,1041,969,,Sold,,,http://www.redfin.com/CA/Redwood-City/307-Belmont-Ave-94061/home/1425717,MLSListings,ML81450877,N,Y,37.4541474,-122.2250228
PAST SALE,June-15-2016,Single Family Residential,399 Sequoia Ave,REDWOOD CITY,CA,94061,2000000,5,4.0,REDWOOD CITY,3325,7000,2008,594,602,,Sold,,,http://www.redfin.com/CA/Redwood-City/399-Sequoia-Ave-94061/home/1816868,MLSListings,ML81577961,N,Y,37.4523861,-122.2239582
PAST SALE,September-2-2016,Single Family Residential,423 Sequoia Ave,REDWOOD CITY,CA,94061,1725000,4,2.0,REDWOOD CITY,1620,8102,1952,515,1065,,Sold,,,http://www.redfin.com/CA/Redwood-City/423-Sequoia-Ave-94061/home/888041,MLSListings,ML81611559,N,Y,37.4515569,-122.2234094
PAST SALE,November-9-2015,Condo/Co-op,601 Leahy St #105,REDWOOD CITY,CA,94061,770000,3,2.0,REDWOOD CITY,1555,32319,1975,813,495,395,Sold,,,http://www.redfin.com/CA/Redwood-City/601-Leahy-St-94061/unit-105/home/1138187,MLSListings,ML81514272,N,Y,37.4706007,-122.2162369
PAST SALE,June-1-2016,Condo/Co-op,601 Leahy St #206,REDWOOD CITY,CA,94061,780000,3,2.0,REDWOOD CITY,1555,32234,1975,608,502,425,Sold,,,http://www.redfin.com/CA/Redwood-City/601-Leahy-St-94061/unit-206/home/987513,MLSListings,ML81578556,N,Y,37.4706007,-122.2162369
PAST SALE,December-13-2016,Townhouse,115 Farallon Dr,BELMONT,CA,94002,1220000,4,3.5,BELMONT,2270,2121,1990,413,537,497,Sold,,,http://www.redfin.com/CA/Belmont/115-Farallon-Dr-94002/home/746013,MLSListings,ML81599141,N,Y,37.533525,-122.267961
PAST SALE,April-27-2015,Single Family Residential,915 Marsh Rd,MENLO PARK,CA,94025,955000,3,1.0,MENLO PARK,1070,5000,1950,1009,893,,Sold,,,http://www.redfin.com/CA/Menlo-Park/915-Marsh-Rd-94025/home/1999327,MLSListings,ML81457444,N,Y,37.4773423,-122.1868072
PAST SALE,October-14-2016,Single Family Residential,1092 2nd Ave,REDWOOD CITY,CA,94063,1520000,4,3.5,REDWOOD CITY,2586,5001,2016,473,588,,Sold,,,http://www.redfin.com/CA/Redwood-City/1092-Second-Ave-94063/home/1876342,MLSListings,ML81590982,N,Y,37.484507,-122.200041
PAST SALE,June-2-2015,Single Family Residential,1060 Haven Ave,REDWOOD CITY,CA,94063,900000,3,2.0,REDWOOD CITY,1760,10000,1945,973,511,,Sold,,,http://www.redfin.com/CA/Redwood-City/1060-Haven-Ave-94063/home/1717773,MLSListings,ML81467021,N,Y,37.4831953,-122.1899544
PAST SALE,April-1-2015,Multi-Family (2-4 Unit),122 E Wayne Ct,REDWOOD CITY,CA,94063,1435000,9,,REDWOOD CITY,4458,9100,1974,1035,322,,Sold,,,http://www.redfin.com/CA/Redwood-City/122-Wayne-Ct-E-94063/home/113842997,MLSListings,ML81450702,N,Y,37.4794707,-122.1867102
PAST SALE,,Single Family Residential,2953 Calvin Ave,Redwood City,CA,94063,324000,2,1.0,,820,3200,1940,,395,,,,,http://www.redfin.com/CA/Redwood-City/2953-Calvin-Ave-94063/home/1488076,,,N,Y,37.4728921,-122.2094209
PAST SALE,September-23-2016,Single Family Residential,693 3rd Ave,REDWOOD CITY,CA,94063,850000,2,1.5,REDWOOD CITY,1140,6720,1934,494,746,,Sold,,,http://www.redfin.com/CA/Redwood-City/693-Third-Ave-94063/home/1864614,MLSListings,ML81600439,N,Y,37.4785291,-122.2032979
PAST SALE,,Multi-Family (2-4 Unit),585 Hampshire Ave,Redwood City,CA,94063,900000,5,4.0,,3200,5000,1963,,281,,,,,http://www.redfin.com/CA/Redwood-City/585-Hampshire-Ave-94063/home/1534450,,,N,Y,37.4783697,-122.2077541
PAST SALE,June-10-2016,Multi-Family (2-4 Unit),1080 Haven Ave,REDWOOD CITY,CA,94063,1150000,4,,REDWOOD CITY,2140,10000,1954,599,537,,Sold,,,http://www.redfin.com/CA/Redwood-City/1080-Haven-Ave-94063/home/1643447,MLSListings,ML81586151,N,Y,37.4837606,-122.1898969
PAST SALE,July-1-2016,Single Family Residential,3421 Bay Rd,REDWOOD CITY,CA,94063,1280000,6,3.5,REDWOOD CITY,2860,7280,1949,578,448,,Sold,,,http://www.redfin.com/CA/Redwood-City/3423-Bay-Rd-94063/home/823428,MLSListings,ML81586979,N,Y,37.4796564,-122.1934537
PAST SALE,,Single Family Residential,964 Blandford Blvd,Redwood City,CA,94062,2550000,3,4.0,,2700,10293,1931,,944,,,,,http://www.redfin.com/CA/Redwood-City/964-Blandford-Blvd-94062/home/1886462,,,N,Y,37.483782,-122.2524356
PAST SALE,February-26-2016,Single Family Residential,827 Chestnut St,REDWOOD CITY,CA,94063,812000,2,1.0,REDWOOD CITY,1160,5000,1946,704,700,,Sold,,,http://www.redfin.com/CA/Redwood-City/827-Chestnut-St-94063/home/1341408,MLSListings,ML81522608,N,Y,37.4853829,-122.219708
PAST SALE,November-21-2016,Condo/Co-op,329 Fuller St #6,REDWOOD CITY,CA,94063,1162996,2,3.5,REDWOOD CITY,1576,,2016,435,738,491,Sold,,,http://www.redfin.com/CA/Redwood-City/329-Fuller-St-94063/unit-6/home/105537336,MLSListings,ML81595629,N,Y,37.488884,-122.2327953
PAST SALE,June-26-2015,Single Family Residential,219 Finger Ave,REDWOOD CITY,CA,94062,1550000,3,2.5,REDWOOD CITY,1390,5000,1936,949,1115,,Sold,,,http://www.redfin.com/CA/Redwood-City/219-Finger-Ave-94062/home/1643315,MLSListings,ML81467698,N,Y,37.4899112,-122.2464573
PAST SALE,June-22-2016,Single Family Residential,123 B St,REDWOOD CITY,CA,94063,899950,2,1.0,REDWOOD CITY,910,5000,1948,587,989,,Sold,,,http://www.redfin.com/CA/Redwood-City/123-B-St-94063/home/1285084,MLSListings,ML81580501,N,Y,37.4923851,-122.2404572
PAST SALE,September-27-2016,Single Family Residential,478 Avenue Del Ora,REDWOOD CITY,CA,94062,1275000,2,2.5,REDWOOD CITY,1290,7065,1922,490,988,,Sold,,,http://www.redfin.com/CA/Redwood-City/478-Avenue-Del-Ora-94062/home/2055288,MLSListings,ML81585027,N,Y,37.4747116,-122.2436147
PAST SALE,,Single Family Residential,803 Lakeview Way,Emerald Hills,CA,94062,1460000,2,1.0,,1600,11500,1947,,913,,,,,http://www.redfin.com/CA/Emerald-Hills/803-Lakeview-Way-94062/home/1276265,,,N,Y,37.4629772,-122.2637188
PAST SALE,February-11-2016,Single Family Residential,1912 Goodwin Ave,REDWOOD CITY,CA,94061,1580000,4,3.0,REDWOOD CITY,2239,8128,1956,719,706,,Sold,,,http://www.redfin.com/CA/Redwood-City/1912-Goodwin-Ave-94061/home/1295663,MLSListings,ML81547822,N,Y,37.4647227,-122.2349089
PAST SALE,August-10-2016,Single Family Residential,151 Atherwood Ave,REDWOOD CITY,CA,94061,1830000,4,2.5,REDWOOD CITY,1727,6020,2016,538,1060,,Sold,,,http://www.redfin.com/CA/Redwood-City/151-Atherwood-Ave-94061/home/1162367,MLSListings,ML81597341,N,Y,37.4601237,-122.2230039
PAST SALE,May-31-2016,Single Family Residential,3125 Hoover St,REDWOOD CITY,CA,94063,932000,3,2.0,REDWOOD CITY,1280,5998,1936,609,728,,Sold,,,http://www.redfin.com/CA/Redwood-City/3125-Hoover-St-94063/home/2014784,MLSListings,ML81579950,Y,Y,37.4856468,-122.1973302
PAST SALE,January-12-2017,Single Family Residential,562 Hillcrest Way,REDWOOD CITY,CA,94062,1699000,3,2.5,REDWOOD CITY,2570,5243,1987,383,661,,Sold,,,http://www.redfin.com/CA/Emerald-Hills/562-Hillcrest-Way-94062/home/1909701,MLSListings,ML81601005,N,Y,37.4637859,-122.2737849
PAST SALE,May-26-2016,Single Family Residential,1644 Carleton Ct,REDWOOD CITY,CA,94061,1408000,3,2.0,REDWOOD CITY,1330,6699,1955,614,1059,,Sold,,,http://www.redfin.com/CA/Redwood-City/1644-Carleton-Ct-94061/home/2056430,MLSListings,ML81580543,N,Y,37.4644037,-122.2305817
PAST SALE,September-2-2016,Single Family Residential,430 Hillcrest Dr,REDWOOD CITY,CA,94062,952000,2,1.0,REDWOOD CITY,830,6651,1948,515,1147,,Sold,,,http://www.redfin.com/CA/Redwood-City/430-Hillcrest-Dr-94062/home/834972,MLSListings,ML81592690,N,Y,37.4707743,-122.2505113
PAST SALE,May-4-2016,Single Family Residential,35 Selby Ln,ATHERTON,CA,94027,3500000,5,3.0,ATHERTON,2720,28690,1951,636,1287,,Sold,,,http://www.redfin.com/CA/Atherton/35-Selby-Ln-94027/home/1952982,MLSListings,ML81565074,N,Y,37.4661314,-122.2120997
PAST SALE,,Single Family Residential,3311 Spring St,Redwood City,CA,94063,860000,2,1.0,,1580,5700,1947,,544,,,,,http://www.redfin.com/CA/Redwood-City/3311-Spring-St-94063/home/1808642,,,N,Y,37.4789573,-122.1964996
PAST SALE,September-7-2016,Single Family Residential,843 6th Ave,REDWOOD CITY,CA,94063,815000,2,1.0,REDWOOD CITY,1350,5898,1948,510,604,,Sold,,,http://www.redfin.com/CA/Redwood-City/843-Sixth-Ave-94063/home/817607,MLSListings,ML81591391,N,Y,37.4811175,-122.1980911
PAST SALE,December-1-2016,Single Family Residential,704 Windsor Way,REDWOOD CITY,CA,94061,1270000,3,1.0,REDWOOD CITY,1313,6098,1940,425,967,,Sold,,,http://www.redfin.com/CA/Redwood-City/704-Windsor-Way-94061/home/1667660,MLSListings,ML81629108,N,Y,37.4679326,-122.245342
PAST SALE,July-19-2016,Single Family Residential,1121 Vera Ave,REDWOOD CITY,CA,94061,750000,3,2.0,REDWOOD CITY,1080,3497,1960,560,694,,Sold,,,http://www.redfin.com/CA/Redwood-City/1121-Vera-Ave-94061/home/1071403,MLSListings,ML81589879,N,Y,37.4734651,-122.2360982
PAST SALE,October-17-2016,Single Family Residential,1125 Saint Francis St,REDWOOD CITY,CA,94061,1407500,2,2.0,REDWOOD CITY,1406,5700,2016,470,1001,,Sold,,,http://www.redfin.com/CA/Redwood-City/1125-Saint-Francis-St-94061/home/1015305,MLSListings,ML81600028,N,Y,37.4692198,-122.2367696
PAST SALE,July-29-2016,Single Family Residential,260 Alameda De Las Pulgas,REDWOOD CITY,CA,94062,1100000,3,2.0,REDWOOD CITY,1480,8658,1962,550,743,,Sold,,,http://www.redfin.com/CA/Redwood-City/260-Alameda-de-las-Pulgas-94062/home/1239997,MLSListings,ML81590879,N,Y,37.4777212,-122.2514769
PAST SALE,April-30-2015,Single Family Residential,2548 Brewster Ave,REDWOOD CITY,CA,94062,1138000,4,3.0,REDWOOD CITY,2637,6489,2017,1006,432,,Sold,,,http://www.redfin.com/CA/Redwood-City/2548-Brewster-Ave-94062/home/1360692,MLSListings,ML81458145,N,Y,37.4770264,-122.2493536
PAST SALE,December-19-2015,Single Family Residential,327 Fulton St,REDWOOD CITY,CA,94062,1365000,3,2.5,REDWOOD CITY,1490,6500,1939,773,916,,Sold,,,http://www.redfin.com/CA/Redwood-City/327-Fulton-St-94062/home/811022,MLSListings,ML81545320,N,Y,37.4816682,-122.2381115
PAST SALE,,Single Family Residential,726 Topaz St,Redwood City,CA,94061,1000500,2,1.0,,1290,6200,1950,,776,,,,,http://www.redfin.com/CA/Redwood-City/726-Topaz-St-94061/home/2043054,,,N,Y,37.4688751,-122.2435148
PAST SALE,March-18-2015,Single Family Residential,2796 McGarvey Ave,REDWOOD CITY,CA,94061,1207000,3,2.0,REDWOOD CITY,1450,6592,1953,1049,832,,Sold,,,http://www.redfin.com/CA/Redwood-City/2796-Mcgarvey-Ave-94061/home/1926503,MLSListings,ML81449473,N,Y,37.4639104,-122.2469058
PAST SALE,October-28-2015,Single Family Residential,3 Garden St,REDWOOD CITY,CA,94063,875000,3,1.0,REDWOOD CITY,980,7314,1951,825,893,,Sold,,,http://www.redfin.com/CA/Redwood-City/3-Garden-St-94063/home/1541268,MLSListings,ML81512236,N,Y,37.4970757,-122.2400043
PAST SALE,October-27-2015,Single Family Residential,1716 Whipple Ave,REDWOOD CITY,CA,94062,1100000,3,1.0,REDWOOD CITY,1150,9900,1918,826,957,,Sold,,,http://www.redfin.com/CA/Redwood-City/1716-Whipple-Ave-94062/home/2046453,MLSListings,ML81499982,N,Y,37.4857502,-122.2462746
PAST SALE,September-3-2015,Condo/Co-op,19 Claremont Ave #6,REDWOOD CITY,CA,94062,500000,1,1.0,REDWOOD CITY,733,,1979,880,682,425,Sold,,,http://www.redfin.com/CA/Redwood-City/19-Claremont-Ave-94062/unit-6/home/1878353,MLSListings,ML81498691,N,Y,37.4904965,-122.2409547
PAST SALE,November-3-2016,Condo/Co-op,257 Arlington Rd #204,REDWOOD CITY,CA,94062,895000,2,2.0,REDWOOD CITY,1757,23060,1969,453,509,425,Sold,,,http://www.redfin.com/CA/Redwood-City/257-Arlington-Rd-94062/unit-204/home/1457299,MLSListings,ML81614596,N,Y,37.4886901,-122.2435691
PAST SALE,July-29-2016,Condo/Co-op,80 Pelican Ln,REDWOOD CITY,CA,94065,922500,2,2.0,REDWOOD CITY,1228,,1985,550,751,529,Sold,,,http://www.redfin.com/CA/Redwood-City/80-Pelican-Ln-94065/unit-72142/home/1364681,MLSListings,ML81591930,N,Y,37.531176,-122.255853
PAST SALE,February-26-2016,Single Family Residential,1771 Maryland St,REDWOOD CITY,CA,94061,1468000,3,2.0,REDWOOD CITY,1176,5850,1951,704,1248,,Sold,,,http://www.redfin.com/CA/Redwood-City/1771-Maryland-St-94061/home/2017430,MLSListings,ML81562509,N,Y,37.4535391,-122.2350059
PAST SALE,October-3-2016,Single Family Residential,712 Sapphire St,REDWOOD CITY,CA,94061,823000,2,1.0,REDWOOD CITY,958,3000,1956,484,859,,Sold,,,http://www.redfin.com/CA/Redwood-City/712-Sapphire-St-94061/home/831812,MLSListings,ML81612143,N,Y,37.4694715,-122.2429516
PAST SALE,June-30-2015,Single Family Residential,355 Montserrat Dr,Redwood Shores,CA,94065,1800000,4,3.0,San Mateo,2150,4250,1995,945,837,206,Sold,,,http://www.redfin.com/CA/Redwood-City/355-Montserrat-Dr-94065/home/1872087,San Francisco MLS,432436,N,Y,37.5421655,-122.2406375
PAST SALE,May-6-2015,Single Family Residential,150 Northridge Ln,WOODSIDE,CA,94062,3100000,3,3.0,WOODSIDE,2530,57934,1953,1000,1225,85,Sold,,,http://www.redfin.com/CA/Woodside/150-Northridge-Ln-94062/home/1463166,MLSListings,ML81460759,N,Y,37.4522599,-122.2423503
PAST SALE,,Single Family Residential,2060 Nassau Dr,Redwood City,CA,94061,1000000,3,2.0,,1510,6596,1956,,662,,,,,http://www.redfin.com/CA/Redwood-City/2060-Nassau-Dr-94061/home/1871335,,,N,Y,37.4462541,-122.2273833
PAST SALE,May-2-2016,Single Family Residential,3123 Wessex Way,REDWOOD CITY,CA,94061,1250000,3,2.5,REDWOOD CITY,1217,6250,1953,638,1027,,Sold,,,http://www.redfin.com/CA/Redwood-City/3123-Wessex-Way-94061/home/1295580,MLSListings,ML81583268,N,Y,37.4690961,-122.2457424
PAST SALE,October-5-2016,Condo/Co-op,4000 Farm Hill Blvd #305,REDWOOD CITY,CA,94061,815000,3,2.0,REDWOOD CITY,1157,,1973,482,704,550,Sold,,,http://www.redfin.com/CA/Redwood-City/4000-Farm-Hill-Blvd-94061/unit-305/home/984347,MLSListings,ML81627322,N,Y,37.451158,-122.261557
PAST SALE,March-13-2015,Townhouse,601 Mendocino Way #601,Redwood Shores,CA,94065,915000,3,2.5,Redwood Shores,1713,,1989,1054,534,864,Sold,,,http://www.redfin.com/CA/Redwood-City/601-Mendocino-Way-94065/unit-601/home/1262114,MLSListings,ML81450608,N,Y,37.5363,-122.240896
PAST SALE,December-8-2016,Single Family Residential,647 Martinique Dr,Redwood Shores,CA,94065,1290000,2,2.0,Redwood Shores,1320,4791,1978,418,977,90,Sold,,,http://www.redfin.com/CA/Redwood-City/647-Martinique-Dr-94065/home/1728329,MLSListings,ML81629150,Y,Y,37.530165,-122.2454599
PAST SALE,April-6-2016,Single Family Residential,400 Saint Martin Dr,Redwood Shores,CA,94065,1760000,4,2.5,Redwood Shores,2010,8359,1996,664,876,206,Sold,,,http://www.redfin.com/CA/Redwood-City/400-Saint-Martin-Dr-94065/home/1858182,MLSListings,ML81501261,N,Y,37.5412259,-122.2383408
PAST SALE,November-20-2015,Condo/Co-op,145 Shorebird Cir,REDWOOD CITY,CA,94065,805000,2,2.0,REDWOOD CITY,1026,,1986,802,785,537,Sold,,,http://www.redfin.com/CA/Redwood-City/145-Shorebird-Cir-94065/unit-89/home/1075174,MLSListings,ML81518997,N,Y,37.532164,-122.254993
PAST SALE,January-25-2016,Single Family Residential,1846 Barton St,REDWOOD CITY,CA,94061,1625000,3,1.0,REDWOOD CITY,1224,10584,1950,736,1328,,Sold,,,http://www.redfin.com/CA/Redwood-City/1846-Barton-St-94061/home/881437,MLSListings,ML81533718,N,Y,37.4489309,-122.2248142
PAST SALE,December-15-2016,Single Family Residential,278 San Carlos Ave,REDWOOD CITY,CA,94061,1190000,3,2.0,REDWOOD CITY,1260,5100,1941,411,944,,Sold,,,http://www.redfin.com/CA/Redwood-City/278-San-Carlos-Ave-94061/home/1851151,MLSListings,ML81630327,N,Y,37.4552855,-122.2247889
PAST SALE,May-27-2016,Single Family Residential,304 Sequoia Ave,REDWOOD CITY,CA,94061,1650000,4,2.0,REDWOOD CITY,2315,11790,1938,613,713,,Sold,,,http://www.redfin.com/CA/Redwood-City/304-Sequoia-Ave-94061/home/1718711,MLSListings,ML81579474,N,Y,37.4534061,-122.2260627
PAST SALE,February-16-2016,Condo/Co-op,601 Leahy St #202,REDWOOD CITY,CA,94061,741000,3,2.0,REDWOOD CITY,1555,32317,1975,714,477,395,Sold,,,http://www.redfin.com/CA/Redwood-City/601-Leahy-St-94061/unit-202/home/1094107,MLSListings,ML81546247,N,Y,37.4706007,-122.2162369
PAST SALE,October-17-2016,Single Family Residential,848 14th Ave,MENLO PARK,CA,94025,1662500,3,3.0,MENLO PARK,1749,5370,2016,470,951,,Sold,,,http://www.redfin.com/CA/Menlo-Park/848-Fourteenth-Ave-94025/home/1830504,MLSListings,ML81601023,N,Y,37.4771533,-122.1895624
PAST SALE,July-16-2016,Single Family Residential,12 Saint Marys Pl,REDWOOD CITY,CA,94063,1042000,3,2.0,REDWOOD CITY,1810,6325,1948,563,576,,Sold,,,http://www.redfin.com/CA/Redwood-City/12-Saint-Marys-Pl-94063/home/1153762,MLSListings,ML81590098,N,Y,37.4791056,-122.188319
PAST SALE,June-8-2016,Condo/Co-op,25 Cove Ln #25,REDWOOD CITY,CA,94065,880000,2,2.0,REDWOOD CITY,1240,,1983,601,710,516,Sold,,,http://www.redfin.com/CA/Redwood-City/25-Cove-Ln-94065/unit-25/home/105534958,MLSListings,ML81585683,N,Y,37.5310392,-122.2557379
PAST SALE,June-15-2016,Single Family Residential,448 Emerald Ave,SAN CARLOS,CA,94070,1590000,3,2.0,SAN CARLOS,1350,5500,1950,594,1178,,Sold,,,http://www.redfin.com/CA/San-Carlos/448-Emerald-Ave-94070/home/1469923,MLSListings,ML81584898,N,Y,37.4870227,-122.2580371
PAST SALE,February-27-2015,Condo/Co-op,413 Cork Harbour Cir Unit C,REDWOOD CITY,CA,94065,506000,1,1.0,REDWOOD CITY,764,,1985,1068,662,428,Sold,,,http://www.redfin.com/CA/Redwood-City/413-Cork-Harbour-Cir-94065/unit-C/home/1148211,MLSListings,ML81447787,N,Y,37.5314642,-122.2583572
PAST SALE,June-25-2015,Single Family Residential,604 Park Rd,REDWOOD CITY,CA,94062,1525000,3,2.5,REDWOOD CITY,2200,7750,1986,950,693,,Sold,,,http://www.redfin.com/CA/Emerald-Hills/604-Park-Rd-94062/home/1212950,MLSListings,ML81466518,N,Y,37.4665234,-122.2673272
PAST SALE,May-8-2015,Single Family Residential,902 Fallen Leaf Way,REDWOOD CITY,CA,94062,3000000,5,3.5,REDWOOD CITY,4170,15100,2003,998,719,,Sold,,,http://www.redfin.com/CA/Emerald-Hills/902-Fallen-Leaf-Way-94062/home/878103,MLSListings,ML81448893,N,Y,37.4571879,-122.2635974
PAST SALE,September-28-2016,Single Family Residential,406 E Oakwood Blvd,REDWOOD CITY,CA,94061,1348000,3,1.5,REDWOOD CITY,1870,9435,1956,489,721,,Sold,,,http://www.redfin.com/CA/Redwood-City/406-E-Oakwood-Blvd-94061/home/1857170,MLSListings,ML81588975,N,Y,37.4673182,-122.2151008
PAST SALE,April-1-2015,Single Family Residential,2320 Spring St,REDWOOD CITY,CA,94063,720000,3,1.0,REDWOOD CITY,940,6050,1947,1035,766,,Sold,,,http://www.redfin.com/CA/Redwood-City/Spring-St-94063/home/815361,MLSListings,ML81452126,N,Y,37.483043,-122.2124532
PAST SALE,July-31-2015,Single Family Residential,570 Douglas Ave,REDWOOD CITY,CA,94063,525000,2,1.0,REDWOOD CITY,670,5000,1931,914,784,,Sold,,,http://www.redfin.com/CA/Redwood-City/570-Douglas-Ave-94063/home/816739,MLSListings,ML81497144,N,Y,37.4797036,-122.2111437
PAST SALE,August-18-2016,Multi-Family (2-4 Unit),2911 Calvin Ave,REDWOOD CITY,CA,94063,740000,4,,REDWOOD CITY,1040,5000,1958,530,712,,Sold,,,http://www.redfin.com/CA/Redwood-City/2911-Calvin-Ave-94063/home/1315402,MLSListings,ML81591026,N,Y,37.4734125,-122.210135
PAST SALE,,Single Family Residential,170 Nottingham Ave,Redwood City,CA,94063,270000,2,2.0,,1180,4620,1944,,229,,,,,http://www.redfin.com/CA/Redwood-City/170-Nottingham-Ave-94063/home/1915767,,,N,Y,37.474249,-122.2145191
PAST SALE,May-26-2015,Single Family Residential,2212 Whipple Ave,REDWOOD CITY,CA,94062,1910000,3,3.0,REDWOOD CITY,2380,8400,1929,980,803,,Sold,,,http://www.redfin.com/CA/Redwood-City/2212-Whipple-Ave-94062/home/1487863,MLSListings,ML81458395,N,Y,37.4827726,-122.2499261
PAST SALE,,Single Family Residential,402 Upton St,Redwood City,CA,94062,150000,3,2.0,,1580,5500,1948,,95,,,,,http://www.redfin.com/CA/Redwood-City/402-Upton-St-94062/home/1717972,,,N,Y,37.472562,-122.249572
PAST SALE,October-23-2015,Single Family Residential,269 Kelton Ave,SAN CARLOS,CA,94070,1700000,3,1.5,SAN CARLOS,1800,6780,1941,830,944,,Sold,,,http://www.redfin.com/CA/San-Carlos/269-Kelton-Ave-94070/home/1931611,MLSListings,ML81513845,N,Y,37.4868604,-122.2542934
PAST SALE,April-5-2016,Single Family Residential,2525 Whipple Ave,REDWOOD CITY,CA,94062,1475000,3,2.0,REDWOOD CITY,1870,7683,1975,665,789,,Sold,,,http://www.redfin.com/CA/Redwood-City/2525-Whipple-Ave-94062/home/2002247,MLSListings,ML81561700,N,Y,37.4803347,-122.2520389
PAST SALE,December-23-2015,Single Family Residential,961 15th Ave,REDWOOD CITY,CA,94063,860000,2,1.0,REDWOOD CITY,1100,6000,1948,769,782,,Sold,,,http://www.redfin.com/CA/Redwood-City/961-Fifteenth-Ave-94063/home/2054328,MLSListings,ML81521782,N,Y,37.4800544,-122.1895305
PAST SALE,,Single Family Residential,3611 Page St,Redwood City,CA,94063,483000,6,3.0,,3297,7400,1947,,146,,,,,http://www.redfin.com/CA/Redwood-City/3611-Page-St-94063/home/819134,,,N,Y,37.481387,-122.187899
PAST SALE,September-23-2015,Single Family Residential,2010 Jefferson Ave,REDWOOD CITY,CA,94062,925000,3,2.0,REDWOOD CITY,1310,5800,1940,860,706,,Sold,,,http://www.redfin.com/CA/Redwood-City/2010-Jefferson-Ave-94062/home/1864206,MLSListings,ML81501110,N,Y,37.4761772,-122.2383024
PAST SALE,,Single Family Residential,2025 Jefferson Ave,Redwood City,CA,94062,1550000,3,2.0,,2130,9750,1993,,728,,,,,http://www.redfin.com/CA/Redwood-City/2025-Jefferson-Ave-94062/home/1574567,,,N,Y,37.4755621,-122.238021
PAST SALE,April-17-2015,Single Family Residential,731 Myrtle St,REDWOOD CITY,CA,94061,1300000,4,2.0,REDWOOD CITY,1530,7500,1940,1019,850,,Sold,,,http://www.redfin.com/CA/Redwood-City/731-Myrtle-St-94061/home/1406546,MLSListings,ML81454978,N,Y,37.4735922,-122.2373627
PAST SALE,,Multi-Family (2-4 Unit),560 Vera Ave,Redwood City,CA,94061,700000,9,7.0,,6508,7070,1964,,108,,,,,http://www.redfin.com/CA/Redwood-City/560-Vera-Ave-94061/home/1212684,,,N,Y,37.4770944,-122.2323369
PAST SALE,July-10-2015,Single Family Residential,943 Johnson St,REDWOOD CITY,CA,94061,1118500,4,2.0,REDWOOD CITY,1710,5750,1946,935,654,,Sold,,,http://www.redfin.com/CA/Redwood-City/943-Johnson-St-94061/home/1081231,MLSListings,ML81464231,N,Y,37.4738853,-122.2344145
PAST SALE,,Multi-Family (2-4 Unit),434 Roosevelt Ave,Redwood City,CA,94061,640000,5,2.5,,3248,5040,1970,,197,,,,,http://www.redfin.com/CA/Redwood-City/434-Roosevelt-Ave-94061/home/1958808,,,N,Y,37.4771128,-122.228527
PAST SALE,April-13-2016,Single Family Residential,1148 Adams St,REDWOOD CITY,CA,94061,920000,2,1.0,REDWOOD CITY,1000,5000,1945,657,920,,Sold,,,http://www.redfin.com/CA/Redwood-City/1148-Adams-St-94061/home/815030,MLSListings,ML81564146,N,Y,37.4772551,-122.2258848
PAST SALE,,Multi-Family (2-4 Unit),437 Redwood Ave,Redwood City,CA,94061,150000,4,1.0,,1290,7650,1912,,116,,,,,http://www.redfin.com/CA/Redwood-City/437-Redwood-Ave-94061/home/1323588,,,N,Y,37.473207,-122.226329
PAST SALE,October-16-2015,Single Family Residential,164 Poplar,REDWOOD CITY,CA,94061,850000,3,2.0,REDWOOD CITY,1110,5500,1943,837,766,,Sold,,,http://www.redfin.com/CA/Redwood-City/164-Poplar-Ave-94061/home/2002132,MLSListings,ML81512995,N,Y,37.4751155,-122.2234419
PAST SALE,February-17-2017,Condo/Co-op,253 Oak Ave Unit A,REDWOOD CITY,CA,94061,754000,2,2.0,REDWOOD CITY,1175,29179,1985,347,642,200,Sold,,,http://www.redfin.com/CA/Redwood-City/253-Oak-Ave-94061/unit-A/home/112872922,MLSListings,ML81635024,N,Y,37.4753533,-122.2258858
PAST SALE,October-28-2016,Single Family Residential,263 Hudson St,REDWOOD CITY,CA,94062,1570000,3,2.0,REDWOOD CITY,1780,6500,1936,459,882,,Sold,,,http://www.redfin.com/CA/Redwood-City/263-Hudson-St-94062/home/1059717,MLSListings,ML81599844,N,Y,37.4813043,-122.240801
PAST SALE,October-19-2016,Single Family Residential,120 Hudson St,REDWOOD CITY,CA,94062,1620000,3,3.0,REDWOOD CITY,1490,6499,1924,468,1087,,Sold,,,http://www.redfin.com/CA/Redwood-City/120-Hudson-St-94062/home/804940,MLSListings,ML81612645,N,Y,37.4832284,-122.2439388
PAST SALE,September-9-2015,Single Family Residential,128 Fulton St,REDWOOD CITY,CA,94062,1500000,2,2.0,REDWOOD CITY,1400,6240,1925,874,1071,,Sold,,,http://www.redfin.com/CA/Redwood-City/128-Fulton-St-94062/home/2052371,MLSListings,ML81500133,N,Y,37.4844793,-122.2424101
PAST SALE,April-11-2016,Single Family Residential,366 Iris St,REDWOOD CITY,CA,94062,1865000,4,2.5,REDWOOD CITY,2050,6499,1931,659,910,,Sold,,,http://www.redfin.com/CA/Redwood-City/366-Iris-St-94062/home/2048717,MLSListings,ML81564947,N,Y,37.4789982,-122.2402551
PAST SALE,August-11-2016,Single Family Residential,371 Jeter St,REDWOOD CITY,CA,94062,1475000,4,3.0,REDWOOD CITY,2000,6499,1948,537,738,,Sold,,,http://www.redfin.com/CA/Redwood-City/371-Jeter-St-94062/home/1416326,MLSListings,ML81562776,N,Y,37.4787141,-122.2405757
PAST SALE,January-21-2017,Single Family Residential,931 Harrison Ave,REDWOOD CITY,CA,94062,1499000,3,2.0,REDWOOD CITY,1550,6499,1948,374,967,,Sold,,,http://www.redfin.com/CA/Redwood-City/931-Harrison-Ave-94062/home/1881756,MLSListings,ML81626720,N,Y,37.4773504,-122.2388632
PAST SALE,July-20-2016,Single Family Residential,527 Jackson Ave,REDWOOD CITY,CA,94061,650000,3,1.0,REDWOOD CITY,1240,5200,1926,559,524,,Sold,,,http://www.redfin.com/CA/Redwood-City/527-Jackson-Ave-94061/home/1444164,MLSListings,ML81589890,N,Y,37.4786056,-122.2332217
PAST SALE,April-17-2015,Single Family Residential,4 Clinton Ct,REDWOOD CITY,CA,94061,805000,3,1.0,REDWOOD CITY,820,2900,1940,1019,982,,Sold,,,http://www.redfin.com/CA/Redwood-City/4-Clinton-Ct-94061/home/813999,MLSListings,ML81452367,N,Y,37.4788718,-122.2307237
PAST SALE,November-13-2015,Single Family Residential,5 Vera Ct,REDWOOD CITY,CA,94061,1000000,3,2.0,REDWOOD CITY,1695,4800,1924,809,590,,Sold,,,http://www.redfin.com/CA/Redwood-City/5-Vera-Ct-94061/home/1991748,MLSListings,ML81518011,N,Y,37.4798105,-122.229668
PAST SALE,,Multi-Family (2-4 Unit),910 Clinton St,Redwood City,CA,94061,9450000,30,2.0,,18687,13875,1972,,506,,,,,http://www.redfin.com/CA/Redwood-City/910-Clinton-St-94061/home/814405,,,N,Y,37.4782649,-122.229745
PAST SALE,,Single Family Residential,561 Madison Ave,Redwood City,CA,94061,477500,3,1.0,,1320,5200,1930,,362,,,,,http://www.redfin.com/CA/Redwood-City/561-Madison-Ave-94061/home/1649476,,,N,Y,37.4774942,-122.2328953
PAST SALE,April-5-2016,Single Family Residential,1820 Middlefield Rd,REDWOOD CITY,CA,94063,820000,3,2.0,REDWOOD CITY,1090,4400,1925,665,752,,Sold,,,http://www.redfin.com/CA/Redwood-City/1820-Middlefield-Rd-94063/home/1633219,MLSListings,ML81550576,N,Y,37.4815122,-122.2205055
PAST SALE,December-14-2016,Condo/Co-op,1090 Main St #104,REDWOOD CITY,CA,94063,700000,2,2.0,REDWOOD CITY,1172,29853,1983,412,597,477,Sold,,,http://www.redfin.com/CA/Redwood-City/1090-Main-St-94063/unit-104/home/1299486,MLSListings,ML81630741,N,Y,37.4831836,-122.2263905
PAST SALE,July-14-2016,Condo/Co-op,630 Bair Island Rd #111,REDWOOD CITY,CA,94063,985000,2,2.0,REDWOOD CITY,1382,,2012,565,713,240,Sold,,,http://www.redfin.com/CA/Redwood-City/630-Bair-Island-Rd-94063/unit-111/home/51671620,MLSListings,ML81588338,N,Y,37.4958568,-122.2255752
PAST SALE,,Condo/Co-op,630 Bair Island Rd Unit 110,Redwood City,CA,94063,880000,2,2.0,,1249,,2012,,705,,,,,http://www.redfin.com/CA/Redwood-City/630-Bair-Island-Rd-94063/unit-110/home/51671632,,,N,Y,37.4958568,-122.2255752
PAST SALE,July-28-2015,Townhouse,642 Turnbuckle Dr #1807,REDWOOD CITY,CA,94063,1300000,3,2.5,REDWOOD CITY,2001,2001,2012,917,650,240,Sold,,,http://www.redfin.com/CA/Redwood-City/642-Turnbuckle-Dr-94063/unit-1807/home/45440285,MLSListings,ML81472194,N,Y,37.4953736,-122.2228132
PAST SALE,March-31-2016,Condo/Co-op,642 Bair Island Rd #1001,REDWOOD CITY,CA,94063,1300000,3,2.5,REDWOOD CITY,1689,1689,2014,670,770,240,Sold,,,http://www.redfin.com/CA/Redwood-City/642-Bair-Island-Rd-94063/unit-1001/home/103188956,MLSListings,ML81548033,N,Y,37.4960153,-122.2241854
PAST SALE,March-2-2017,Townhouse,654 Sea Anchor Dr #2306,REDWOOD CITY,CA,94063,1380000,3,2.5,REDWOOD CITY,1595,,2015,334,865,256,Sold,,,http://www.redfin.com/CA/Redwood-City/654-Sea-Anchor-Dr-94063/unit-2306/home/109581835,MLSListings,ML81635527,N,Y,37.4977956,-122.2225527
PAST SALE,September-19-2016,Single Family Residential,1120 Adams St,REDWOOD CITY,CA,94061,711000,2,1.0,REDWOOD CITY,610,5301,1988,498,1166,,Sold,,,http://www.redfin.com/CA/Redwood-City/1120-Adams-St-94061/home/1523554,MLSListings,ML81598896,N,Y,37.4775956,-122.2264011
PAST SALE,,Single Family Residential,719 Elm St,Redwood City,CA,94063,781000,3,2.0,,1230,5000,1925,,635,,,,,http://www.redfin.com/CA/Redwood-City/719-Elm-St-94063/home/1591532,,,N,Y,37.485434,-122.2227152
PAST SALE,September-6-2016,Multi-Family (5+ Unit),1903 Middlefield Rd,REDWOOD CITY,CA,94063,3150000,3,,REDWOOD CITY,8116,8537,1961,511,388,,Sold,,,http://www.redfin.com/CA/Redwood-City/1903-Middlefield-Rd-94063/home/813299,MLSListings,ML81589457,N,Y,37.481597,-122.219706
PAST SALE,April-29-2015,Townhouse,656 Sea Anchor Dr #2506,Redwood City,CA,94063,963582,3,2.5,Redwood City,1711,,2015,1007,563,240,Sold,,,http://www.redfin.com/CA/Redwood-City/656-Sea-Anchor-Dr-94063/unit-2506/home/57022628,MLSListings,ML81428658,N,Y,37.4977808,-122.2219156
PAST SALE,March-6-2015,Townhouse,784 Arguello St,REDWOOD CITY,CA,94063,525000,2,1.5,REDWOOD CITY,1026,23801,1980,1061,512,430,Sold,,,http://www.redfin.com/CA/Redwood-City/784-Arguello-St-94063/home/1612124,MLSListings,ML81447313,N,Y,37.488746,-122.234757
PAST SALE,,Single Family Residential,611 Middlefield Rd,Redwood City,CA,94063,720000,,,,,4767,,,,,,,,http://www.redfin.com/CA/Redwood-City/611-Middlefield-Rd-94063/home/1350347,,,N,Y,37.4882697,-122.2290007
PAST SALE,March-28-2016,Condo/Co-op,632 True Wind Way #609,REDWOOD CITY,CA,94063,1080000,3,2.5,REDWOOD CITY,1686,,2013,673,641,240,Sold,,,http://www.redfin.com/CA/Redwood-City/632-True-Wind-Way-94063/unit-609/home/103782679,MLSListings,ML81550599,N,Y,37.4951526,-122.2248778
PAST SALE,February-11-2015,Condo/Co-op,630 Bair Island Rd #106,REDWOOD CITY,CA,94063,900000,3,2.5,REDWOOD CITY,1497,,2012,1084,601,240,Sold,,,http://www.redfin.com/CA/Redwood-City/630-Bair-Island-Rd-94063/unit-106/home/51671631,MLSListings,ML81445641,N,Y,37.4958568,-122.2255752
PAST SALE,March-17-2015,Townhouse,654 Sea Anchor Dr #2303,Redwood City,CA,94063,900000,3,2.5,Redwood City,1595,,2014,1050,564,240,Sold,,,http://www.redfin.com/CA/Redwood-City/654-Sea-Anchor-Dr-94063/unit-2303/home/54534761,MLSListings,ML81409246,N,Y,37.4977956,-122.2225527
PAST SALE,April-3-2015,Townhouse,658 Sea Anchor Dr #2603,Redwood City,CA,94063,899375,3,2.5,Redwood City,1595,,,1033,564,240,Sold,,,http://www.redfin.com/CA/Redwood-City/658-Sea-Anchor-Dr-94063/unit-2603/home/57022247,MLSListings,ML81428653,N,Y,37.4978785,-122.2219261
PAST SALE,September-16-2016,Condo/Co-op,630 Warren St #13,REDWOOD CITY,CA,94063,1448299,3,3.5,REDWOOD CITY,1579,,2016,501,917,527,Sold,,,http://www.redfin.com/CA/Redwood-City/630-Warren-St-94063/unit-13/home/105537338,MLSListings,ML81585854,N,Y,37.4886439,-122.2331012
PAST SALE,,Single Family Residential,2030 Nassau Dr,Redwood City,CA,94061,1560000,3,2.0,,1560,6596,1956,,1000,,,,,http://www.redfin.com/CA/Redwood-City/2030-Nassau-Dr-94061/home/1609658,,,N,Y,37.4467258,-122.2269857
PAST SALE,February-24-2017,Townhouse,1435 Kentfield Ave,REDWOOD CITY,CA,94061,1350000,3,2.5,REDWOOD CITY,2172,2005,2003,340,622,265,Sold,,,http://www.redfin.com/CA/Redwood-City/1435-Kentfield-Ave-94061/home/1580851,MLSListings,ML81635572,N,Y,37.467514,-122.230353
PAST SALE,December-20-2016,Single Family Residential,76 Bonita Ave,REDWOOD CITY,CA,94061,1100000,2,1.0,REDWOOD CITY,1230,5940,1948,406,894,,Sold,,,http://www.redfin.com/CA/Redwood-City/Undisclosed-address-94061/home/2017183,MLSListings,ML81631946,N,Y,37.4675597,-122.2223741
PAST SALE,,Single Family Residential,2158 Mcgarvey Ave,Redwood City,CA,94061,1680000,3,2.0,,1710,9717,1950,,982,,,,,http://www.redfin.com/CA/Redwood-City/2158-Mcgarvey-Ave-94061/home/838746,,,N,Y,37.4655351,-122.2410961
PAST SALE,February-19-2016,Townhouse,411 Oak Ave,REDWOOD CITY,CA,94061,589000,2,1.5,REDWOOD CITY,870,,1980,711,677,375,Sold,,,http://www.redfin.com/CA/Redwood-City/411-Oak-Ave-94061/home/988664,MLSListings,ML81546237,N,Y,37.474452,-122.226857
PAST SALE,June-13-2016,Single Family Residential,1827 Madison Ave,REDWOOD CITY,CA,94061,1070000,2,1.0,REDWOOD CITY,950,5998,1948,596,1126,,Sold,,,http://www.redfin.com/CA/Redwood-City/1827-Madison-Ave-94061/home/2047675,MLSListings,ML81583930,N,Y,37.469988,-122.242877
PAST SALE,July-18-2015,Single Family Residential,1103 Lyons St,REDWOOD CITY,CA,94061,1270000,3,2.0,REDWOOD CITY,1470,6720,1953,927,864,,Sold,,,http://www.redfin.com/CA/Redwood-City/1103-Lyons-St-94061/home/1268572,MLSListings,ML81471490,N,Y,37.4717822,-122.2344847
PAST SALE,August-28-2015,Townhouse,1631 Kentfield,REDWOOD CITY,CA,94061,850000,3,2.5,REDWOOD CITY,1530,1416,1975,886,556,250,Sold,,,http://www.redfin.com/CA/Redwood-City/1631-Kentfield-Ave-94061/home/2056450,MLSListings,ML81497563,N,Y,37.46434,-122.226388
PAST SALE,,Single Family Residential,1130 Clinton St,Redwood City,CA,94061,757500,2,2.0,,1180,5700,1924,,642,,,,,http://www.redfin.com/CA/Redwood-City/1130-Clinton-St-94061/home/814795,,,N,Y,37.4763869,-122.2274719
PAST SALE,June-13-2016,Single Family Residential,2732 Goodwin Ave,REDWOOD CITY,CA,94061,1303000,3,1.0,REDWOOD CITY,1120,5749,1952,596,1163,,Sold,,,http://www.redfin.com/CA/Redwood-City/2732-Goodwin-Ave-94061/home/1865019,MLSListings,ML81582954,N,Y,37.4584468,-122.2415283
PAST SALE,October-14-2015,Single Family Residential,507 Buena Vista Ave,REDWOOD CITY,CA,94061,1800000,3,2.0,REDWOOD CITY,1526,7475,1951,839,1180,,Sold,,,http://www.redfin.com/CA/Redwood-City/507-Buena-Vista-Ave-94061/home/1668411,MLSListings,ML81517002,N,Y,37.4527014,-122.2199286
PAST SALE,November-25-2015,Single Family Residential,2674 Hampton Ave,REDWOOD CITY,CA,94061,1357500,3,2.0,REDWOOD CITY,1310,6600,1954,797,1036,,Sold,,,http://www.redfin.com/CA/Redwood-City/2674-Hampton-Ave-94061/home/1920652,MLSListings,ML81517922,N,Y,37.456732,-122.2330584
PAST SALE,July-26-2016,Single Family Residential,1445 Connecticut Dr,REDWOOD CITY,CA,94061,1276588,2,1.0,REDWOOD CITY,1090,6100,1952,553,1171,,Sold,,,http://www.redfin.com/CA/Redwood-City/1445-Connecticut-Dr-94061/home/1886766,MLSListings,ML81591155,N,Y,37.4605526,-122.237495
PAST SALE,November-10-2016,Single Family Residential,1748 Kansas St,REDWOOD CITY,CA,94061,1600000,4,2.5,REDWOOD CITY,2430,6721,1980,446,658,,Sold,,,http://www.redfin.com/CA/Redwood-City/1748-Kansas-St-94061/home/846134,MLSListings,ML81627753,N,Y,37.4610671,-122.2300358
PAST SALE,February-5-2015,Single Family Residential,234 Beresford Ave,REDWOOD CITY,CA,94061,950000,2,1.0,REDWOOD CITY,900,5100,1947,1090,1056,,Sold,,,http://www.redfin.com/CA/Redwood-City/234-Beresford-Ave-94061/home/1661005,MLSListings,ML81447169,N,Y,37.4553254,-122.2261191
PAST SALE,January-11-2016,Townhouse,500 Leahy St,REDWOOD CITY,CA,94061,856000,2,2.0,REDWOOD CITY,1410,2890,1969,750,607,450,Sold,,,http://www.redfin.com/CA/Redwood-City/500-Leahy-St-94061/home/1575046,MLSListings,ML81533148,N,Y,37.470807,-122.217717
PAST SALE,February-20-2015,Single Family Residential,366 E Oakwood Blvd,REDWOOD CITY,CA,94061,1725000,3,2.5,REDWOOD CITY,1859,9434,1940,1075,928,,Sold,,,http://www.redfin.com/CA/Redwood-City/366-E-Oakwood-Blvd-94061/home/2050604,MLSListings,ML81447315,N,Y,37.4674316,-122.215207
PAST SALE,June-24-2016,Single Family Residential,915 Whitehall Ln,REDWOOD CITY,CA,94061,1700000,3,2.5,REDWOOD CITY,1570,4634,1985,585,1083,195,Sold,,,http://www.redfin.com/CA/Redwood-City/915-Whitehall-Ln-94061/home/1379246,MLSListings,ML81586945,N,Y,37.4615542,-122.219033
PAST SALE,October-24-2016,Single Family Residential,460 2nd Ave,REDWOOD CITY,CA,94063,650000,2,1.0,REDWOOD CITY,1070,7901,1947,463,607,,Sold,,,http://www.redfin.com/CA/Redwood-City/460-Second-Ave-94063/home/1434928,MLSListings,ML81629590,N,Y,37.4748966,-122.2060263
PAST SALE,,Single Family Residential,186 Dumbarton Ave,Redwood City,CA,94063,300000,2,1.0,,770,2500,1959,,390,,,,,http://www.redfin.com/CA/Redwood-City/186-Dumbarton-Ave-94063/home/1111033,,,N,Y,37.4725577,-122.2114081
PAST SALE,June-18-2015,Single Family Residential,1154 Davis St,REDWOOD CITY,CA,94061,1025000,2,1.0,REDWOOD CITY,910,5700,1948,957,1126,,Sold,,,http://www.redfin.com/CA/Redwood-City/1154-Davis-St-94061/home/813774,MLSListings,ML81465793,N,Y,37.4746049,-122.22936
PAST SALE,April-5-2016,Condo/Co-op,464 Clinton St #208,REDWOOD CITY,CA,94062,652000,2,2.0,REDWOOD CITY,985,19408,1961,665,662,363,Sold,,,http://www.redfin.com/CA/Redwood-City/464-Clinton-St-94062/unit-208/home/1115414,MLSListings,ML81563793,N,Y,37.481607,-122.2342099
PAST SALE,April-21-2016,Single Family Residential,548 Island Pl,Redwood Shores,CA,94065,2875000,4,3.5,Redwood Shores,3150,13900,1992,649,913,285,Sold,,,http://www.redfin.com/CA/Redwood-City/548-Island-Pl-94065/home/1858157,MLSListings,ML81561502,N,Y,37.5321596,-122.2530869
PAST SALE,March-26-2015,Townhouse,23 Admiralty Pl,Redwood Shores,CA,94065,1350000,3,2.5,Redwood Shores,1740,3136,1977,1041,776,325,Sold,,,http://www.redfin.com/CA/Redwood-City/23-Admiralty-Pl-94065/home/1557952,MLSListings,ML81451622,N,Y,37.533082,-122.247537
