SALE TYPE,SOLD DATE,PROPERTY TYPE,ADDRESS,CITY,STATE,ZIP,PRICE,BEDS,BATHS,LOCATION,SQUARE FEET,LOT SIZE,YEAR BUILT,DAYS ON MARKET,$/SQUARE FEET,HOA/MONTH,STATUS,NEXT OPEN HOUSE START TIME,NEXT OPEN HOUSE END TIME,URL (SEE http://www.redfin.com/buy-a-home/comparative-market-analysis FOR INFO ON PRICING),SOURCE,MLS#,FAVORITE,INTERESTED,LATITUDE,LONGITUDE
PAST SALE,,Single Family Residential,729 Walnut Ave,Burlingame,CA,94010,1860000,2,1.0,,1240,8050,1908,,1500,,,,,http://www.redfin.com/CA/Burlingame/729-Walnut-Ave-94010/home/1170347,,,N,Y,37.5784548,-122.3588831
PAST SALE,June-23-2017,Condo/Co-op,735 El Camino Real #102,BURLINGAME,CA,94010,800000,2,1.0,BURLINGAME,1001,18925,1981,221,799,570,Sold,,,http://www.redfin.com/CA/Burlingame/735-El-Camino-Real-94010/unit-102/home/976712,MLSListings,ML81652333,N,Y,37.5786302,-122.3570773
PAST SALE,,Single Family Residential,1493 Oak Grove Ave,Burlingame,CA,94010,1375000,2,1.0,,1190,4280,1925,,1155,,,,,http://www.redfin.com/CA/Burlingame/1493-Oak-Grove-Ave-94010/home/690349,,,N,Y,37.5789003,-122.3555738
PAST SALE,July-29-2016,Condo/Co-op,735 El Camino Real #301,BURLINGAME,CA,94010,735000,2,1.0,BURLINGAME,982,18922,1981,550,748,570,Sold,,,http://www.redfin.com/CA/Burlingame/735-El-Camino-Real-94010/unit-301/home/1928414,MLSListings,ML81597535,N,Y,37.5786302,-122.3570773
PAST SALE,April-22-2016,Condo/Co-op,110 W 3rd Ave #5,SAN MATEO,CA,94402,837000,1,1.0,SAN MATEO,1100,13551,1929,648,761,530,Sold,,,http://www.redfin.com/CA/San-Mateo/110-W-3rd-Ave-94402/unit-5/home/1663149,MLSListings,ML81565759,N,Y,37.561835,-122.328075
PAST SALE,September-2-2016,Single Family Residential,1810 Barroilhet Ave,BURLINGAME,CA,94010,2220400,3,1.0,BURLINGAME,1570,7144,1927,515,1414,,Sold,,,http://www.redfin.com/CA/Burlingame/1810-Barroilhet-Ave-94010/home/1368927,MLSListings,ML81600745,N,Y,37.5705097,-122.3512605
PAST SALE,February-27-2017,Condo/Co-op,735 El Camino Real #203,BURLINGAME,CA,94010,760000,2,1.0,BURLINGAME,1001,,1981,337,759,570,Sold,,,http://www.redfin.com/CA/Burlingame/735-El-Camino-Real-94010/unit-203/home/2049863,MLSListings,ML81638366,N,Y,37.5786302,-122.3570773
PAST SALE,July-11-2016,Condo/Co-op,1515 Arc Way #112,BURLINGAME,CA,94010,770000,2,1.0,BURLINGAME,1048,26398,1973,568,735,325,Sold,,,http://www.redfin.com/CA/Burlingame/1515-Arc-Way-94010/unit-112/home/1933588,MLSListings,ML81586890,N,Y,37.5797414,-122.3589724
PAST SALE,,Condo/Co-op,735 El Camino Real Apt 101,Burlingame,CA,94010,600000,1,1.0,,982,,1981,,611,,,,,http://www.redfin.com/CA/Burlingame/735-El-Camino-Real-94010/unit-101/home/976701,,,N,Y,37.5786302,-122.3570773
PAST SALE,April-14-2016,Single Family Residential,709 Acacia Dr,BURLINGAME,CA,94010,1355000,3,1.0,BURLINGAME,1190,5375,1924,656,1139,,Sold,,,http://www.redfin.com/CA/Burlingame/709-Acacia-Dr-94010/home/1908240,MLSListings,ML81563687,Y,Y,37.5798488,-122.3553851
PAST SALE,June-5-2017,Single Family Residential,2120 Carmelita Ave,BURLINGAME,CA,94010,1998000,2,1.0,BURLINGAME,1180,5450,1925,239,1693,,Sold,,,http://www.redfin.com/CA/Hillsborough/2120-Carmelita-Ave-94010/home/1791244,MLSListings,ML81646853,N,Y,37.5783677,-122.3684827
PAST SALE,July-21-2016,Condo/Co-op,212 Eaton Rd #23,SAN MATEO,CA,94402,1000000,2,1.0,SAN MATEO,1310,24750,1928,558,763,644,Sold,,,http://www.redfin.com/CA/San-Mateo/212-Eaton-Rd-94402/unit-23/home/2055568,MLSListings,ML81591062,N,Y,37.560735,-122.3295053
PAST SALE,,Condo/Co-op,1515 Arc Way Apt 209,Burlingame,CA,94010,576500,1,1.0,,841,,1973,,685,,,,,http://www.redfin.com/CA/Burlingame/1515-Arc-Way-94010/unit-209/home/1894105,,,N,Y,37.5797414,-122.3589724
PAST SALE,June-28-2017,Single Family Residential,1515 Willow Ave,BURLINGAME,CA,94010,1900000,2,1.0,BURLINGAME,1560,7750,1919,216,1218,,Sold,,,http://www.redfin.com/CA/Burlingame/1515-Willow-Ave-94010/home/2054983,MLSListings,ML81653678,N,Y,37.5791185,-122.3582439
PAST SALE,,Single Family Residential,2202 Summit Dr,Hillsborough,CA,94010,1375000,4,5.0,,3917,109854,1975,,351,,,,,http://www.redfin.com/CA/Hillsborough/2202-Summit-Dr-94010/home/143944523,,,N,Y,37.5763033,-122.3832878
PAST SALE,October-3-2016,Single Family Residential,2240 Redington Rd,HILLSBOROUGH,CA,94010,2875000,3,1.5,HILLSBOROUGH,1570,37679,1910,484,1831,,Sold,,,http://www.redfin.com/CA/Hillsborough/2240-Redington-Rd-94010/home/683383,MLSListings,ML81627041,N,Y,37.5722745,-122.3697673
PAST SALE,May-26-2017,Single Family Residential,1327 Castillo Ave,BURLINGAME,CA,94010,2150000,3,1.5,BURLINGAME,1650,6000,1941,249,1303,,Sold,,,http://www.redfin.com/CA/Burlingame/1327-Castillo-Ave-94010/home/2053125,MLSListings,ML81648623,Y,Y,37.5801083,-122.3774248
PAST SALE,,Single Family Residential,25 Buckthorn Way,Hillsborough,CA,94010,4132500,2,1.0,,2200,23522,1973,,1878,,,,,http://www.redfin.com/CA/Hillsborough/25-Buckthorn-Way-94010/home/1274226,,,N,Y,37.565581,-122.356494
PAST SALE,August-1-2017,Condo/Co-op,530 El Camino Real #301,BURLINGAME,CA,94010,1040000,2,2.0,BURLINGAME,1377,42608,2000,182,755,321,Sold,,,http://www.redfin.com/CA/Burlingame/530-El-Camino-Real-94010/unit-301/home/1003994,MLSListings,ML81667565,N,Y,37.5778647,-122.3539293
PAST SALE,June-6-2017,Condo/Co-op,530 El Camino Real #308,BURLINGAME,CA,94010,1030000,2,2.0,BURLINGAME,1262,42608,2000,238,816,321,Sold,,,http://www.redfin.com/CA/Burlingame/530-El-Camino-Real-94010/unit-308/home/1004013,MLSListings,ML81650255,N,Y,37.5778647,-122.3539293
PAST SALE,November-3-2017,Condo/Co-op,977 El Camino Real #106,BURLINGAME,CA,94010,900000,2,2.0,BURLINGAME,1445,21053,1981,88,623,440,Sold,,,http://www.redfin.com/CA/Burlingame/977-El-Camino-Real-94010/unit-106/home/1884325,MLSListings,ML81680300,N,Y,37.581294,-122.361657
PAST SALE,October-23-2017,Condo/Co-op,550 El Camino Real #201,BURLINGAME,CA,94010,1180000,3,2.0,BURLINGAME,1589,13613,1997,99,743,450,Sold,,,http://www.redfin.com/CA/Burlingame/550-El-Camino-Real-94010/unit-201/home/22850150,MLSListings,ML81678043,N,Y,37.5780009,-122.3542996
PAST SALE,,Single Family Residential,2050 Ralston Ave,Hillsborough,CA,94010,1500000,3,2.0,,3020,22275,1959,,497,,,,,http://www.redfin.com/CA/Hillsborough/2050-Ralston-Ave-94010/home/2054067,,,N,Y,37.57194,-122.3557314
PAST SALE,January-3-2017,Single Family Residential,739 El Cerrito Ave,HILLSBOROUGH,CA,94010,2700000,2,2.0,HILLSBOROUGH,2680,36480,1958,392,1007,,Sold,,,http://www.redfin.com/CA/Hillsborough/739-El-Cerrito-Ave-94010/home/701903,MLSListings,ML81612664,N,Y,37.5558094,-122.3390144
PAST SALE,April-12-2016,Single Family Residential,745 Columbia Dr,SAN MATEO,CA,94402,1868000,3,2.0,SAN MATEO,2160,7493,1949,658,865,,Sold,,,http://www.redfin.com/CA/San-Mateo/745-Columbia-Dr-94402/home/1966843,MLSListings,ML81562320,N,Y,37.5521869,-122.3376399
PAST SALE,October-7-2016,Single Family Residential,1526 Parrott Dr,SAN MATEO,CA,94402,1600888,3,2.0,SAN MATEO,1470,8001,1952,480,1089,,Sold,,,http://www.redfin.com/CA/San-Mateo/1526-Parrott-Dr-94402/home/1415087,MLSListings,ML81613395,N,Y,37.5307555,-122.3406198
PAST SALE,March-2-2017,Single Family Residential,315 Roblar Ave,HILLSBOROUGH,CA,94010,4550000,4,2.0,HILLSBOROUGH,2390,25993,1950,334,1904,,Sold,,,http://www.redfin.com/CA/Hillsborough/315-Roblar-Ave-94010/home/1057867,MLSListings,ML81638403,N,Y,37.5644372,-122.3386363
PAST SALE,September-2-2016,Single Family Residential,1125 Bernal Ave,BURLINGAME,CA,94010,1700000,3,2.0,BURLINGAME,2010,5998,1921,515,846,,Sold,,,http://www.redfin.com/CA/Burlingame/1125-Bernal-Ave-94010/home/682227,MLSListings,ML81599484,Y,Y,37.579948,-122.368237
PAST SALE,November-1-2016,Single Family Residential,1517 Sanchez Ave,BURLINGAME,CA,94010,1850000,2,2.0,BURLINGAME,1480,7048,1925,455,1250,,Sold,,,http://www.redfin.com/CA/Burlingame/1517-Sanchez-Ave-94010/home/1368905,MLSListings,ML81614783,Y,Y,37.5810761,-122.3622951
PAST SALE,July-6-2016,Single Family Residential,1344 Parrott Dr,SAN MATEO,CA,94402,2220000,4,2.0,SAN MATEO,2260,10000,1952,573,982,,Sold,,,http://www.redfin.com/CA/San-Mateo/1344-Parrott-Dr-94402/home/1079527,MLSListings,ML81588649,N,Y,37.5337961,-122.344258
PAST SALE,,Single Family Residential,1255 Jackling Dr,Hillsborough,CA,94010,2335000,3,2.0,,2130,10192,1951,,1096,,,,,http://www.redfin.com/CA/Hillsborough/1255-Jackling-Dr-94010/home/2058844,,,Y,Y,37.580982,-122.372119
PAST SALE,May-12-2016,Single Family Residential,802 Barneson Ave,SAN MATEO,CA,94402,1825000,3,2.0,SAN MATEO,2020,6499,1949,628,903,,Sold,,,http://www.redfin.com/CA/San-Mateo/802-Barneson-Ave-94402/home/1946401,MLSListings,ML81580570,N,Y,37.5441577,-122.3304964
PAST SALE,July-7-2016,Single Family Residential,724 Newhall Rd,BURLINGAME,CA,94010,2373000,4,2.0,BURLINGAME,2180,8049,1920,572,1089,,Sold,,,http://www.redfin.com/CA/Burlingame/724-Newhall-Rd-94010/home/1880476,MLSListings,ML81588438,N,Y,37.5780998,-122.3594288
PAST SALE,October-6-2016,Condo/Co-op,1457 Bellevue Ave #3,BURLINGAME,CA,94010,1461000,2,2.0,BURLINGAME,1760,24393,1984,481,830,550,Sold,,,http://www.redfin.com/CA/Burlingame/1457-Bellevue-Ave-94010/unit-3/home/1922314,MLSListings,ML81598784,N,Y,37.5778982,-122.3517376
PAST SALE,June-17-2016,Condo/Co-op,525 Almer Rd #310,BURLINGAME,CA,94010,1117500,2,2.0,BURLINGAME,1644,,1975,592,680,559,Sold,,,http://www.redfin.com/CA/Burlingame/525-Almer-Rd-94010/unit-310/home/972362,MLSListings,ML81584198,N,Y,37.5783309,-122.3532843
PAST SALE,November-22-2017,Condo/Co-op,50 Mounds Rd #702,SAN MATEO,CA,94402,1500000,2,2.0,SAN MATEO,2076,171751,1973,69,723,1175,Sold,,,http://www.redfin.com/CA/San-Mateo/50-Mounds-Rd-94402/unit-702/home/2057682,MLSListings,ML81683006,N,Y,37.5666792,-122.3329061
PAST SALE,March-17-2017,Single Family Residential,250 Gramercy Dr,SAN MATEO,CA,94402,2340000,4,2.0,SAN MATEO,2000,7004,1953,319,1170,,Sold,,,http://www.redfin.com/CA/San-Mateo/250-Gramercy-Dr-94402/home/702908,MLSListings,ML81638522,N,Y,37.5684838,-122.3346793
PAST SALE,February-24-2016,Single Family Residential,1872 Black Mountain Rd,HILLSBOROUGH,CA,94010,2510000,4,2.0,HILLSBOROUGH,2450,22350,1953,706,1024,,Sold,,,http://www.redfin.com/CA/Hillsborough/1872-Black-Mountain-Rd-94010/home/1935169,MLSListings,ML81547077,N,Y,37.548056,-122.3695225
PAST SALE,June-20-2017,Condo/Co-op,50 Mounds Rd #514,SAN MATEO,CA,94402,1676000,2,2.0,SAN MATEO,2036,,1973,224,823,1175,Sold,,,http://www.redfin.com/CA/San-Mateo/50-Mounds-Rd-94402/unit-514/home/1866723,MLSListings,ML81638601,N,Y,37.5666792,-122.3329061
PAST SALE,August-19-2016,Condo/Co-op,50 Mounds Rd #401,SAN MATEO,CA,94402,1400000,2,2.0,SAN MATEO,2076,,1973,529,674,1075,Sold,,,http://www.redfin.com/CA/San-Mateo/50-Mounds-Rd-94402/unit-401/home/1960445,MLSListings,ML81588462,N,Y,37.5666792,-122.3329061
PAST SALE,March-29-2017,Condo/Co-op,530 El Camino Real #309,BURLINGAME,CA,94010,930000,2,2.0,BURLINGAME,1268,42608,2000,307,733,321,Sold,,,http://www.redfin.com/CA/Burlingame/530-El-Camino-Real-94010/unit-309/home/1004819,MLSListings,ML81636052,N,Y,37.5778647,-122.3539293
PAST SALE,September-20-2017,Condo/Co-op,50 Mounds Rd #402,SAN MATEO,CA,94402,1620000,2,2.0,SAN MATEO,2076,171751,1973,132,780,1175,Sold,,,http://www.redfin.com/CA/San-Mateo/50-Mounds-Rd-94402/unit-402/home/1729642,MLSListings,ML81668955,N,Y,37.5666792,-122.3329061
PAST SALE,October-12-2016,Condo/Co-op,212 Eaton Rd #26,SAN MATEO,CA,94402,1110000,2,2.0,SAN MATEO,1310,24750,1928,475,847,644,Sold,,,http://www.redfin.com/CA/San-Mateo/212-Eaton-Rd-94402/unit-26/home/1585963,MLSListings,ML81625764,N,Y,37.560735,-122.3295053
PAST SALE,,Condo/Co-op,50 Mounds Rd Apt 212,San Mateo,CA,94402,867000,2,2.0,,2036,,1973,,426,,,,,http://www.redfin.com/CA/San-Mateo/50-Mounds-Rd-94402/unit-212/home/1310034,,,N,Y,37.5666792,-122.3329061
PAST SALE,April-12-2016,Single Family Residential,2116 Broadway,BURLINGAME,CA,94010,1800000,3,2.0,BURLINGAME,2040,6000,1924,658,882,,Sold,,,http://www.redfin.com/CA/Burlingame/2116-Broadway-94010/home/1368943,MLSListings,ML81550558,N,Y,37.5795692,-122.3706407
PAST SALE,March-13-2017,Condo/Co-op,50 Mounds Rd #106,SAN MATEO,CA,94402,1198000,2,2.0,SAN MATEO,2076,,1973,323,577,1175,Sold,,,http://www.redfin.com/CA/San-Mateo/50-Mounds-Rd-94402/unit-106/home/2047096,MLSListings,ML81638397,N,Y,37.5666792,-122.3329061
PAST SALE,July-31-2017,Condo/Co-op,977 El Camino Real #104,BURLINGAME,CA,94010,900000,2,2.0,BURLINGAME,1567,21053,1981,183,574,440,Sold,,,http://www.redfin.com/CA/Burlingame/977-El-Camino-Real-94010/unit-104/home/976210,MLSListings,ML81644514,N,Y,37.581294,-122.361657
PAST SALE,July-31-2017,Single Family Residential,1507 Willow Ave,BURLINGAME,CA,94010,1200000,2,2.0,BURLINGAME,1210,13958,1912,183,992,,Sold,,,http://www.redfin.com/CA/Burlingame/1507-Willow-Ave-94010/home/1304479,MLSListings,ML81656859,N,Y,37.5792878,-122.3581839
PAST SALE,June-7-2017,Condo/Co-op,518 Almer Rd #3,BURLINGAME,CA,94010,1250000,2,2.0,BURLINGAME,1600,8719,1994,237,781,520,Sold,,,http://www.redfin.com/CA/Burlingame/518-Almer-Rd-94010/unit-3/home/966314,MLSListings,ML81653072,N,Y,37.5788161,-122.3526811
PAST SALE,August-4-2017,Condo/Co-op,525 Almer Rd #210,BURLINGAME,CA,94010,1070000,2,2.0,BURLINGAME,1644,46982,1975,179,651,559,Sold,,,http://www.redfin.com/CA/Burlingame/525-Almer-Rd-94010/unit-210/home/113816244,MLSListings,ML81655411,N,Y,37.5783309,-122.3532843
PAST SALE,June-5-2017,Condo/Co-op,1499 Oak Grove Ave #104,BURLINGAME,CA,94010,1007000,2,2.0,BURLINGAME,1566,15134,1997,239,643,580,Sold,,,http://www.redfin.com/CA/Burlingame/1499-Oak-Grove-Ave-94010/unit-104/home/1989376,MLSListings,ML81643015,N,Y,37.5787352,-122.3558055
PAST SALE,,Single Family Residential,455 El Centro Rd,Hillsborough,CA,94010,2440000,3,2.0,,2290,15260,1955,,1066,,,,,http://www.redfin.com/CA/Hillsborough/455-El-Centro-Rd-94010/home/1683769,,,N,Y,37.5611387,-122.3557317
PAST SALE,November-28-2017,Condo/Co-op,1500 Willow Ave #203,BURLINGAME,CA,94010,850000,2,2.0,BURLINGAME,1212,15426,1981,63,701,365,Sold,,,http://www.redfin.com/CA/Burlingame/1500-Willow-Ave-94010/unit-203/home/1646320,MLSListings,ML81672991,N,Y,37.5795729,-122.3585077
PAST SALE,November-21-2017,Condo/Co-op,550 El Camino Real #304,BURLINGAME,CA,94010,1086000,2,2.0,BURLINGAME,1255,13613,1997,70,865,450,Sold,,,http://www.redfin.com/CA/Burlingame/550-El-Camino-Real-94010/unit-304/home/1055137,MLSListings,ML81681368,N,Y,37.5780009,-122.3542996
PAST SALE,August-30-2017,Condo/Co-op,550 El Camino Real #203,BURLINGAME,CA,94010,960000,2,2.0,BURLINGAME,1160,13613,1997,153,828,450,Sold,,,http://www.redfin.com/CA/Burlingame/550-El-Camino-Real-94010/unit-203/home/1918447,MLSListings,ML81670217,N,Y,37.5780009,-122.3542996
PAST SALE,,Single Family Residential,1769 Forest View Ave,Hillsborough,CA,94010,2825000,3,2.0,,2270,16800,1951,,1244,,,,,http://www.redfin.com/CA/Hillsborough/1769-Forest-View-Ave-94010/home/1514019,,,N,Y,37.5783529,-122.3633214
PAST SALE,June-30-2016,Single Family Residential,1435 Parrott Dr,SAN MATEO,CA,94402,1475000,3,2.0,SAN MATEO,1630,7919,1957,579,905,,Sold,,,http://www.redfin.com/CA/San-Mateo/1435-Parrott-Dr-94402/home/2008776,MLSListings,ML81584036,N,Y,37.5320734,-122.3421466
PAST SALE,June-16-2017,Condo/Co-op,525 Almer Rd #307,BURLINGAME,CA,94010,1125000,2,2.0,BURLINGAME,1288,46982,1975,228,873,507,Sold,,,http://www.redfin.com/CA/Burlingame/525-Almer-Rd-94010/unit-307/home/1627809,MLSListings,ML81654028,N,Y,37.5783309,-122.3532843
PAST SALE,December-19-2016,Single Family Residential,1570 Lakeview Dr,HILLSBOROUGH,CA,94010,2240000,3,2.0,HILLSBOROUGH,2300,21344,1969,407,974,,Sold,,,http://www.redfin.com/CA/Hillsborough/Undisclosed-address-94010/home/1815104,MLSListings,ML81630380,N,Y,37.5397288,-122.3615956
PAST SALE,February-8-2016,Condo/Co-op,1515 Floribunda Ave #310,BURLINGAME,CA,94010,1100000,2,2.0,BURLINGAME,1828,39430,1977,722,602,577,Sold,,,http://www.redfin.com/CA/Burlingame/1515-Floribunda-Ave-94010/unit-310/home/1318505,MLSListings,ML81514119,N,Y,37.5784838,-122.3542761
PAST SALE,,Single Family Residential,3920 Ralston Ave,Hillsborough,CA,94010,2850000,3,2.0,,2660,22400,1952,,1071,,,,,http://www.redfin.com/CA/Hillsborough/3920-Ralston-Ave-94010/home/691773,,,N,Y,37.5514879,-122.3727957
PAST SALE,March-28-2016,Condo/Co-op,525 Almer Rd #110,BURLINGAME,CA,94010,1065000,2,2.0,BURLINGAME,1644,,1975,673,648,571,Sold,,,http://www.redfin.com/CA/Burlingame/525-Almer-Rd-94010/unit-110/home/39832847,MLSListings,ML81562152,N,Y,37.5783309,-122.3532843
PAST SALE,,Condo/Co-op,1515 Floribunda Ave Apt 203,Burlingame,CA,94010,1185000,2,2.0,,1936,,1977,,612,,,,,http://www.redfin.com/CA/Burlingame/1515-Floribunda-Ave-94010/unit-203/home/971474,,,N,Y,37.5784838,-122.3542761
PAST SALE,April-25-2016,Single Family Residential,1000 Bernal Ave,BURLINGAME,CA,94010,2330000,3,2.0,BURLINGAME,1910,8700,1939,645,1220,,Sold,,,http://www.redfin.com/CA/Burlingame/1000-Bernal-Ave-94010/home/1978643,MLSListings,ML81579263,Y,Y,37.5793872,-122.3660294
PAST SALE,October-12-2017,Condo/Co-op,50 Mounds Rd #403,SAN MATEO,CA,94402,1630000,2,2.0,SAN MATEO,2076,171751,1973,110,785,1175,Sold,,,http://www.redfin.com/CA/San-Mateo/50-Mounds-Rd-94402/unit-403/home/965469,MLSListings,ML81678165,N,Y,37.5666792,-122.3329061
PAST SALE,September-15-2017,Condo/Co-op,30 Mounds Rd #401,SAN MATEO,CA,94402,1100000,2,2.0,SAN MATEO,1352,18547,1979,137,814,510,Sold,,,http://www.redfin.com/CA/San-Mateo/30-Mounds-Rd-94402/unit-401/home/974267,MLSListings,ML81674575,N,Y,37.5674269,-122.3328833
PAST SALE,June-30-2017,Condo/Co-op,50 Mounds Rd #209,SAN MATEO,CA,94402,1325000,2,2.0,SAN MATEO,2036,171751,1973,214,651,1175,Sold,,,http://www.redfin.com/CA/San-Mateo/50-Mounds-Rd-94402/unit-209/home/1787171,MLSListings,ML81645848,N,Y,37.5666792,-122.3329061
PAST SALE,March-29-2017,Condo/Co-op,525 Almer Rd #312,BURLINGAME,CA,94010,1400000,2,2.0,BURLINGAME,1843,,1975,307,760,699,Sold,,,http://www.redfin.com/CA/Burlingame/525-Almer-Rd-94010/unit-312/home/112974418,MLSListings,ML81635831,N,Y,37.5783309,-122.3532843
PAST SALE,October-27-2017,Single Family Residential,714 Paloma Ave,BURLINGAME,CA,94010,1650000,3,2.0,BURLINGAME,1680,6650,1927,95,982,,Sold,,,http://www.redfin.com/CA/Burlingame/714-Paloma-Ave-94010/home/1503969,MLSListings,ML81679478,N,Y,37.5797949,-122.355935
PAST SALE,,Condo/Co-op,525 Almer Rd #210,Burlingame,CA,94010,1070000,2,2.0,,1644,,1975,,651,,,,,http://www.redfin.com/CA/Burlingame/525-Almer-Rd-94010/unit-210/home/972351,,,N,Y,37.5783309,-122.3532843
PAST SALE,September-1-2016,Single Family Residential,700 Newhall Rd,BURLINGAME,CA,94010,2234000,2,2.0,BURLINGAME,2310,6899,1977,516,967,,Sold,,,http://www.redfin.com/CA/Burlingame/700-Newhall-Rd-94010/home/1918841,MLSListings,ML81595400,N,Y,37.5774339,-122.358575
PAST SALE,,Condo/Co-op,518 Almer Rd Apt 8,Burlingame,CA,94010,187500,2,2.0,,1600,,1994,,117,,,,,http://www.redfin.com/CA/Burlingame/518-Almer-Rd-94010/unit-8/home/1288601,,,N,Y,37.5788161,-122.3526811
PAST SALE,,Condo/Co-op,525 Almer Rd Apt 104,Burlingame,CA,94010,1160000,2,2.0,,1353,,1975,,857,,,,,http://www.redfin.com/CA/Burlingame/525-Almer-Rd-94010/unit-104/home/1235032,,,N,Y,37.5783309,-122.3532843
PAST SALE,,Single Family Residential,309 Barbara Way,Hillsborough,CA,94010,3100000,4,2.0,,2490,22050,1954,,1245,,,,,http://www.redfin.com/CA/Hillsborough/309-Barbara-Way-94010/home/1348376,,,N,Y,37.5470934,-122.3651162
PAST SALE,May-12-2017,Single Family Residential,215 Chapin Ln,BURLINGAME,CA,94010,2800000,2,2.0,BURLINGAME,2040,6600,1947,263,1373,,Sold,,,http://www.redfin.com/CA/Burlingame/215-Chapin-Ln-94010/home/1121441,MLSListings,ML81645065,Y,Y,37.5723895,-122.351606
PAST SALE,September-13-2017,Single Family Residential,244 Harvard Rd,SAN MATEO,CA,94402,2800000,3,2.0,SAN MATEO,2760,6110,1986,139,1014,,Sold,,,http://www.redfin.com/CA/San-Mateo/244-Harvard-Rd-94402/home/709023,MLSListings,ML81677742,N,Y,37.5569921,-122.3324905
PAST SALE,May-15-2017,Single Family Residential,262 W 3rd Ave,SAN MATEO,CA,94402,2110000,3,2.0,SAN MATEO,1980,4320,1952,260,1066,,Sold,,,http://www.redfin.com/CA/San-Mateo/262-W-3rd-Ave-94402/home/710725,MLSListings,ML81648820,N,Y,37.559676,-122.3310017
PAST SALE,October-3-2016,Single Family Residential,661 Nevada Ave,SAN MATEO,CA,94402,1800000,3,2.0,SAN MATEO,1670,5998,1948,484,1078,,Sold,,,http://www.redfin.com/CA/San-Mateo/661-Nevada-Ave-94402/home/1631617,MLSListings,ML81627241,N,Y,37.5513895,-122.3332025
PAST SALE,May-23-2017,Single Family Residential,10 Castle Ct,HILLSBOROUGH,CA,94010,3200000,3,2.0,HILLSBOROUGH,2910,25530,1955,252,1100,,Sold,,,http://www.redfin.com/CA/Hillsborough/10-Castle-Ct-94010/home/1181246,MLSListings,ML81652873,N,Y,37.5559302,-122.3701015
PAST SALE,July-21-2016,Condo/Co-op,30 Mounds Rd #201,SAN MATEO,CA,94402,910000,2,2.0,SAN MATEO,1352,18547,1979,558,673,388,Sold,,,http://www.redfin.com/CA/San-Mateo/30-Mounds-Rd-94402/unit-201/home/2050858,MLSListings,ML81591439,N,Y,37.5674269,-122.3328833
PAST SALE,November-24-2017,Condo/Co-op,1500 Willow Ave #302,BURLINGAME,CA,94010,862000,2,2.0,BURLINGAME,1032,15426,1981,67,835,338,Sold,,,http://www.redfin.com/CA/Burlingame/1500-Willow-Ave-94010/unit-302/home/1680994,MLSListings,ML81680312,N,Y,37.5795729,-122.3585077
PAST SALE,June-2-2017,Condo/Co-op,525 Almer Rd #104,BURLINGAME,CA,94010,1160000,2,2.0,BURLINGAME,1353,,1975,242,857,506,Sold,,,http://www.redfin.com/CA/Burlingame/525-Almer-Rd-94010/unit-303/home/113609903,MLSListings,ML81644322,N,Y,37.5783309,-122.3532843
PAST SALE,May-20-2016,Single Family Residential,52 El Cerrito Ave,SAN MATEO,CA,94402,1565000,2,2.0,SAN MATEO,1750,6298,1953,620,894,,Sold,,,http://www.redfin.com/CA/San-Mateo/52-El-Cerrito-Ave-94402/home/2058884,MLSListings,ML81580184,N,Y,37.565758,-122.331707
PAST SALE,,Single Family Residential,705 Walnut Ave,Burlingame,CA,94010,1765000,2,2.0,,1570,8190,1953,,1124,,,,,http://www.redfin.com/CA/Burlingame/705-Walnut-Ave-94010/home/1106909,,,N,Y,37.5778357,-122.3580576
PAST SALE,July-29-2016,Condo/Co-op,50 Mounds Rd #511,SAN MATEO,CA,94402,1410000,2,2.0,SAN MATEO,2076,,1973,550,679,1075,Sold,,,http://www.redfin.com/CA/San-Mateo/50-Mounds-Rd-94402/unit-511/home/965488,MLSListings,ML81597686,N,Y,37.5666792,-122.3329061
PAST SALE,June-10-2016,Condo/Co-op,50 Mounds Rd #507,SAN MATEO,CA,94402,1420000,2,2.0,SAN MATEO,2076,,1973,599,684,1075,Sold,,,http://www.redfin.com/CA/San-Mateo/50-Mounds-Rd-94402/unit-507/home/1409572,MLSListings,ML81584447,N,Y,37.5666792,-122.3329061
PAST SALE,April-14-2017,Single Family Residential,1263 Parrott Dr,SAN MATEO,CA,94402,1730000,3,2.0,SAN MATEO,1750,10712,1952,291,989,,Sold,,,http://www.redfin.com/CA/San-Mateo/1263-Parrott-Dr-94402/home/1807538,MLSListings,ML81641770,N,Y,37.536148,-122.344463
PAST SALE,May-6-2016,Condo/Co-op,1499 Oak Grove Ave #103,BURLINGAME,CA,94010,960000,2,2.0,BURLINGAME,1475,15132,1997,634,651,560,Sold,,,http://www.redfin.com/CA/Burlingame/1499-Oak-Grove-Ave-94010/unit-103/home/969588,MLSListings,ML81577141,N,Y,37.5787352,-122.3558055
PAST SALE,February-3-2017,Condo/Co-op,1457 Bellevue Ave #6,BURLINGAME,CA,94010,1200000,2,2.0,BURLINGAME,1500,24394,1984,361,800,550,Sold,,,http://www.redfin.com/CA/Burlingame/1457-Bellevue-Ave-94010/unit-6/home/2028249,MLSListings,ML81635053,N,Y,37.5778982,-122.3517376
PAST SALE,April-26-2016,Condo/Co-op,1457 Bellevue Ave #17,BURLINGAME,CA,94010,1208000,2,2.0,BURLINGAME,1610,24393,1984,644,750,550,Sold,,,http://www.redfin.com/CA/Burlingame/1457-Bellevue-Ave-94010/unit-17/home/1465373,MLSListings,ML81579378,N,Y,37.5778982,-122.3517376
PAST SALE,May-6-2016,Single Family Residential,1539 Parrott Dr,SAN MATEO,CA,94402,1580000,3,2.0,SAN MATEO,1780,10200,1952,634,888,,Sold,,,http://www.redfin.com/CA/San-Mateo/1539-Parrott-Dr-94402/home/734057,MLSListings,ML81561380,N,Y,37.5310149,-122.3401752
PAST SALE,,Single Family Residential,724 Oregon Ave,San Mateo,CA,94402,2000000,3,2.0,,1930,6000,1954,,1036,,,,,http://www.redfin.com/CA/San-Mateo/724-Oregon-Ave-94402/home/2008671,,,N,Y,37.5502851,-122.3339861
PAST SALE,December-30-2016,Single Family Residential,72 Oak Valley Rd,SAN MATEO,CA,94402,2035000,4,2.0,SAN MATEO,2800,39000,1963,396,727,,Sold,,,http://www.redfin.com/CA/San-Mateo/72-Oak-Valley-Rd-94402/home/2048576,MLSListings,ML81634408,N,Y,37.5504677,-122.339588
PAST SALE,September-16-2016,Single Family Residential,301 Jackson St,SAN MATEO,CA,94402,2350000,3,2.0,SAN MATEO,1970,10798,1940,501,1193,,Sold,,,http://www.redfin.com/CA/San-Mateo/301-Jackson-St-94402/home/1891187,MLSListings,ML81598429,N,Y,37.5557393,-122.3339051
PAST SALE,,Single Family Residential,1470 Crystal Dr,Hillsborough,CA,94010,1800000,3,2.0,,2510,21900,1953,,717,,,,,http://www.redfin.com/CA/Hillsborough/1470-Crystal-Dr-94010/home/1822639,,,N,Y,37.53659,-122.3582368
PAST SALE,December-27-2016,Condo/Co-op,525 Almer Rd #207,BURLINGAME,CA,94010,950000,2,2.0,BURLINGAME,1288,,1975,399,738,490,Sold,,,http://www.redfin.com/CA/Burlingame/525-Almer-Rd-94010/unit-207/home/1778252,MLSListings,ML81612005,N,Y,37.5783309,-122.3532843
PAST SALE,September-16-2016,Condo/Co-op,525 Almer Rd #105,BURLINGAME,CA,94010,950000,2,2.0,BURLINGAME,1288,,1975,501,738,472,Sold,,,http://www.redfin.com/CA/Burlingame/525-Almer-Rd-94010/unit-105/home/1137766,MLSListings,ML81594188,N,Y,37.5783309,-122.3532843
PAST SALE,January-13-2017,Single Family Residential,615 Pullman Rd,HILLSBOROUGH,CA,94010,2800000,3,2.0,HILLSBOROUGH,2110,22165,1953,382,1327,,Sold,,,http://www.redfin.com/CA/Hillsborough/615-Pullman-Rd-94010/home/1869715,MLSListings,ML81635629,N,Y,37.5562241,-122.3733085
PAST SALE,June-27-2017,Single Family Residential,45 Berryessa Way,HILLSBOROUGH,CA,94010,2800000,3,2.0,HILLSBOROUGH,2730,86684,1977,217,1026,,Sold,,,http://www.redfin.com/CA/Hillsborough/45-Berryessa-Way-94010/home/1550934,MLSListings,ML81634881,N,Y,37.53131,-122.3590455
PAST SALE,May-10-2016,Single Family Residential,804 Foothill Dr,SAN MATEO,CA,94402,1502000,3,2.0,SAN MATEO,2060,7500,1953,630,729,,Sold,,,http://www.redfin.com/CA/San-Mateo/804-Foothill-Dr-94402/home/1219159,MLSListings,ML81578025,N,Y,37.5447623,-122.3318898
PAST SALE,November-28-2016,Condo/Co-op,1515 Arc Way #306,BURLINGAME,CA,94010,820000,2,2.0,BURLINGAME,1176,26397,1973,428,697,325,Sold,,,http://www.redfin.com/CA/Burlingame/1515-Arc-Way-94010/unit-306/home/1114540,MLSListings,ML81626932,N,Y,37.5797414,-122.3589724
PAST SALE,September-30-2016,Single Family Residential,15 Cottonwood Ct,HILLSBOROUGH,CA,94010,2550000,3,2.0,HILLSBOROUGH,2790,26041,1978,487,914,,Sold,,,http://www.redfin.com/CA/Hillsborough/15-Cottonwood-Ct-94010/home/1023927,MLSListings,ML81611886,N,Y,37.5647564,-122.37304
PAST SALE,October-4-2017,Condo/Co-op,101 Arroyo Ct #1,SAN MATEO,CA,94402,1010000,2,2.0,SAN MATEO,1410,10993,1980,118,716,650,Sold,,,http://www.redfin.com/CA/San-Mateo/101-Arroyo-Ct-94402/unit-1/home/1938689,MLSListings,ML81674276,N,Y,37.5620304,-122.3281822
PAST SALE,October-13-2016,Single Family Residential,575 Darrell Rd,HILLSBOROUGH,CA,94010,2650000,4,2.0,HILLSBOROUGH,2440,22498,1953,474,1086,,Sold,,,http://www.redfin.com/CA/Hillsborough/575-Darrell-Rd-94010/home/1485982,MLSListings,ML81587697,N,Y,37.5530523,-122.3759029
PAST SALE,,Single Family Residential,708 Tulane Ct,San Mateo,CA,94402,1800000,3,2.0,,1860,6954,1939,,968,,,,,http://www.redfin.com/CA/San-Mateo/708-Tulane-Ct-94402/home/1875481,,,N,Y,37.5539722,-122.3376682
PAST SALE,March-28-2016,Single Family Residential,1139 Parrott Dr,SAN MATEO,CA,94402,1500000,3,2.0,SAN MATEO,1550,9343,1952,673,968,,Sold,,,http://www.redfin.com/CA/San-Mateo/1139-Parrott-Dr-94402/home/731614,MLSListings,ML81561347,N,Y,37.5388467,-122.3458431
PAST SALE,December-19-2017,Single Family Residential,709 Bucknell Dr,SAN MATEO,CA,94402,1998000,3,2.0,SAN MATEO,2260,10560,1946,42,884,,Sold,,,http://www.redfin.com/CA/San-Mateo/709-Bucknell-Dr-94402/home/708419,MLSListings,ML81681484,N,Y,37.5513985,-122.3316555
PAST SALE,,Single Family Residential,30 Warm Canyon Way,Hillsborough,CA,94010,120000,3,2.0,,2260,35284,1959,,53,,,,,http://www.redfin.com/CA/Hillsborough/30-Warm-Canyon-Way-94010/home/1693087,,,N,Y,37.553441,-122.3674836
PAST SALE,June-17-2016,Single Family Residential,349 Moseley Rd,HILLSBOROUGH,CA,94010,2310000,3,2.0,HILLSBOROUGH,2230,24001,1956,592,1036,,Sold,,,http://www.redfin.com/CA/Hillsborough/349-Moseley-Rd-94010/home/1514226,MLSListings,ML81586835,N,Y,37.550988,-122.3637805
PAST SALE,,Condo/Co-op,50 Mounds Rd Apt 406,San Mateo,CA,94402,1458000,2,2.0,,2076,,1973,,702,,,,,http://www.redfin.com/CA/San-Mateo/50-Mounds-Rd-94402/unit-406/home/2035153,,,N,Y,37.5666792,-122.3329061
PAST SALE,,Condo/Co-op,525 Almer Rd Apt 312,Burlingame,CA,94010,1400000,2,2.0,,1843,,1975,,760,,,,,http://www.redfin.com/CA/Burlingame/525-Almer-Rd-94010/unit-312/home/970946,,,N,Y,37.5783309,-122.3532843
PAST SALE,May-22-2017,Single Family Residential,1527 Parrott Dr,SAN MATEO,CA,94402,1715000,3,2.0,SAN MATEO,1850,10300,1952,253,927,,Sold,,,http://www.redfin.com/CA/San-Mateo/1527-Parrott-Dr-94402/home/1807541,MLSListings,ML81644467,N,Y,37.5311642,-122.3404711
PAST SALE,,Single Family Residential,2705 Easton Dr,Burlingame,CA,94010,2347000,3,2.0,,2300,8190,1925,,1020,,,,,http://www.redfin.com/CA/Burlingame/2705-Easton-Dr-94010/home/1978653,,,N,Y,37.5780867,-122.3776283
PAST SALE,,Single Family Residential,2683 Summit Dr,Hillsborough,CA,94010,1800000,3,2.0,,1670,10500,1952,,1078,,,,,http://www.redfin.com/CA/Hillsborough/2683-Summit-Dr-94010/home/1368933,,,N,Y,37.5748083,-122.3851938
PAST SALE,September-27-2016,Single Family Residential,60 Crystal Ter,BURLINGAME,CA,94010,1838000,4,2.5,BURLINGAME,2370,9600,1976,490,776,,Sold,,,http://www.redfin.com/CA/Burlingame/60-Crystal-Ter-94010/home/677749,MLSListings,ML81592526,N,Y,37.5713087,-122.3939073
PAST SALE,,Single Family Residential,736 Jacaranda Cir,Hillsborough,CA,94010,3200000,4,3.0,,3200,40090,1977,,1000,,,,,http://www.redfin.com/CA/Hillsborough/736-Jacaranda-Cir-94010/home/1012515,,,N,Y,37.5629914,-122.3732251
PAST SALE,October-27-2016,Single Family Residential,425 Moseley Rd,HILLSBOROUGH,CA,94010,2880000,4,2.5,HILLSBOROUGH,2720,21923,1959,460,1059,,Sold,,,http://www.redfin.com/CA/Hillsborough/425-Moseley-Rd-94010/home/1908293,MLSListings,ML81613392,N,Y,37.553677,-122.3667402
PAST SALE,September-16-2016,Single Family Residential,1320 Hayne Rd,HILLSBOROUGH,CA,94010,3180000,4,2.5,HILLSBOROUGH,3230,60548,1965,501,985,,Sold,,,http://www.redfin.com/CA/Hillsborough/1320-Hayne-Rd-94010/home/1983119,MLSListings,ML81590298,N,Y,37.5525396,-122.3623879
PAST SALE,October-26-2016,Condo/Co-op,747 El Camino Real #5,BURLINGAME,CA,94010,925000,2,2.5,BURLINGAME,1389,9226,1981,461,666,300,Sold,,,http://www.redfin.com/CA/Burlingame/747-El-Camino-Real-94010/unit-5/home/1745575,MLSListings,ML81601349,N,Y,37.5788122,-122.3573911
PAST SALE,September-23-2016,Single Family Residential,1371 Enchanted Way,SAN MATEO,CA,94402,1428000,4,2.5,SAN MATEO,1480,8658,1959,494,965,,Sold,,,http://www.redfin.com/CA/San-Mateo/1371-Enchanted-Way-94402/home/2051243,MLSListings,ML81597853,N,Y,37.532869,-122.3452796
PAST SALE,August-22-2016,Single Family Residential,514 Fairfax Ave,SAN MATEO,CA,94402,2650000,3,2.5,SAN MATEO,2370,7213,1935,526,1118,,Sold,,,http://www.redfin.com/CA/San-Mateo/514-Fairfax-Ave-94402/home/2021465,MLSListings,ML81595148,N,Y,37.5554873,-122.3347978
PAST SALE,,Single Family Residential,2103 Carmelita Ave,Hillsborough,CA,94010,2190000,3,2.0,,2060,6900,1927,,1063,,,,,http://www.redfin.com/CA/Hillsborough/2103-Carmelita-Ave-94010/home/683308,,,N,Y,37.5786743,-122.3676171
PAST SALE,July-25-2016,Single Family Residential,723 Foothill Dr,SAN MATEO,CA,94402,1900000,4,2.5,SAN MATEO,2620,7318,1962,554,725,,Sold,,,http://www.redfin.com/CA/San-Mateo/723-Foothill-Dr-94402/home/714665,MLSListings,ML81591158,N,Y,37.5450555,-122.3305245
PAST SALE,May-31-2016,Condo/Co-op,50 Mounds Rd #602,SAN MATEO,CA,94402,1300000,2,2.5,SAN MATEO,2076,,1973,609,626,1075,Sold,,,http://www.redfin.com/CA/San-Mateo/50-Mounds-Rd-94402/unit-602/home/1938306,MLSListings,ML81565940,N,Y,37.5666792,-122.3329061
PAST SALE,February-13-2017,Single Family Residential,419 Edgewood Rd,SAN MATEO,CA,94402,2550000,3,2.5,SAN MATEO,2184,6780,1932,351,1168,,Sold,,,http://www.redfin.com/CA/San-Mateo/419-Edgewood-Rd-94402/home/2014107,MLSListings,ML81635285,N,Y,37.5621265,-122.3521935
PAST SALE,October-3-2016,Single Family Residential,152 Pepper Ave,BURLINGAME,CA,94010,2100000,3,2.5,BURLINGAME,2124,3780,1937,484,989,,Sold,,,http://www.redfin.com/CA/Burlingame/152-Pepper-Ave-94010/home/1034448,MLSListings,ML81611881,N,Y,37.5723523,-122.3519269
PAST SALE,June-8-2016,Single Family Residential,39 Oak Valley Rd,SAN MATEO,CA,94402,1625000,3,2.5,SAN MATEO,2380,6499,1960,601,683,,Sold,,,http://www.redfin.com/CA/San-Mateo/39-Oak-Valley-Rd-94402/home/734495,MLSListings,ML81581942,N,Y,37.5493126,-122.3400782
PAST SALE,November-15-2016,Single Family Residential,307 Engle Rd,SAN MATEO,CA,94402,1700000,2,2.5,SAN MATEO,1270,5998,1913,441,1339,,Sold,,,http://www.redfin.com/CA/San-Mateo/307-Engle-Rd-94402/home/1548855,MLSListings,ML81630157,N,Y,37.5688716,-122.3357246
PAST SALE,November-13-2017,Single Family Residential,600 W Poplar Ave,SAN MATEO,CA,94402,2325000,3,2.5,SAN MATEO,2059,7320,1923,78,1129,,Sold,,,http://www.redfin.com/CA/San-Mateo/600-W-Poplar-Ave-94402/home/692653,MLSListings,ML81678305,N,Y,37.5637015,-122.3487643
PAST SALE,,Single Family Residential,3111 Canyon Rd,Burlingame,CA,94010,1890000,3,2.0,,1870,13200,1965,,1011,,,,,http://www.redfin.com/CA/Burlingame/3111-Canyon-Rd-94010/home/2016545,,,Y,Y,37.5718293,-122.392526
PAST SALE,May-12-2016,Single Family Residential,20 Country Club Dr,HILLSBOROUGH,CA,94010,4400000,3,2.5,HILLSBOROUGH,3480,26453,1956,628,1264,,Sold,,,http://www.redfin.com/CA/Hillsborough/20-Country-Club-Dr-94010/home/1247226,MLSListings,ML81580233,N,Y,37.5724265,-122.3553369
PAST SALE,,Single Family Residential,461 Fulton Rd,San Mateo,CA,94402,3600000,4,2.0,,3026,10080,1930,,1190,,,,,http://www.redfin.com/CA/San-Mateo/461-Fulton-Rd-94402/home/1108040,,,N,Y,37.5637112,-122.3535522
PAST SALE,April-11-2016,Single Family Residential,1465 Crystal Dr,HILLSBOROUGH,CA,94010,3998000,4,2.5,HILLSBOROUGH,3454,22982,1979,659,1157,,Sold,,,http://www.redfin.com/CA/Hillsborough/1465-Crystal-Dr-94010/home/2016765,MLSListings,ML81550727,N,Y,37.5360815,-122.358745
PAST SALE,,Single Family Residential,60 Braemar Dr,Hillsborough,CA,94010,550000,4,3.0,,2830,25700,1978,,194,,,,,http://www.redfin.com/CA/Hillsborough/60-Braemar-Dr-94010/home/730652,,,N,Y,37.5412978,-122.3547471
PAST SALE,July-28-2017,Single Family Residential,85 Bates Rd,HILLSBOROUGH,CA,94010,2525000,3,2.5,HILLSBOROUGH,2590,33106,1977,186,975,,Sold,,,http://www.redfin.com/CA/Hillsborough/85-Bates-Rd-94010/home/1548831,MLSListings,ML81652145,N,Y,37.5542653,-122.3526017
PAST SALE,July-10-2017,Single Family Residential,35 Buckingham Ct,HILLSBOROUGH,CA,94010,3900000,4,2.5,HILLSBOROUGH,3390,30203,1979,204,1150,,Sold,,,http://www.redfin.com/CA/Hillsborough/35-Buckingham-Ct-94010/home/732618,MLSListings,ML81656910,N,Y,37.5357874,-122.3572728
PAST SALE,,Single Family Residential,1020 Bromfield Rd,Hillsborough,CA,94010,1833000,4,3.0,,2776,18180,1949,,660,,,,,http://www.redfin.com/CA/Hillsborough/1020-Bromfield-Rd-94010/home/1693071,,,N,Y,37.5634595,-122.3555779
PAST SALE,April-30-2016,Single Family Residential,35 Pear Ct,HILLSBOROUGH,CA,94010,3200000,4,2.5,HILLSBOROUGH,3506,30400,1978,640,913,,Sold,,,http://www.redfin.com/CA/Hillsborough/35-Pear-Ct-94010/home/1987327,MLSListings,ML81564779,N,Y,37.562007,-122.3702282
PAST SALE,,Condo/Co-op,1512 Floribunda Ave Apt 301,Burlingame,CA,94010,2950000,3,2.0,,2783,,2008,,1060,,,,,http://www.redfin.com/CA/Burlingame/1512-Floribunda-Ave-94010/unit-301/home/21967770,,,N,Y,37.5790026,-122.3546679
PAST SALE,May-30-2017,Single Family Residential,50 De Sabla Rd,SAN MATEO,CA,94402,2950000,3,2.5,SAN MATEO,2586,11400,1942,245,1141,,Sold,,,http://www.redfin.com/CA/San-Mateo/50-De-Sabla-Rd-94402/home/1890783,MLSListings,ML81640240,N,Y,37.5649749,-122.3311138
PAST SALE,November-3-2017,Single Family Residential,75 Windermere Rd,HILLSBOROUGH,CA,94010,3500000,3,2.5,HILLSBOROUGH,2300,22338,1953,88,1522,,Sold,,,http://www.redfin.com/CA/Hillsborough/75-Windermere-Rd-94010/home/1079515,MLSListings,ML81680560,N,Y,37.5371766,-122.3594502
PAST SALE,November-9-2017,Single Family Residential,440 Remillard Dr,HILLSBOROUGH,CA,94010,3372000,3,2.5,HILLSBOROUGH,2850,23625,1960,82,1183,,Sold,,,http://www.redfin.com/CA/Hillsborough/440-Remillard-Dr-94010/home/2038839,MLSListings,ML81674680,N,Y,37.5528875,-122.3686707
PAST SALE,March-14-2017,Single Family Residential,10 Melrose Ct,SAN MATEO,CA,94402,1925000,3,2.5,SAN MATEO,2990,9800,1949,322,644,,Sold,,,http://www.redfin.com/CA/San-Mateo/10-Melrose-Ct-94402/home/735535,MLSListings,ML81635391,N,Y,37.547046,-122.3386762
PAST SALE,June-9-2017,Single Family Residential,35 Knollcrest Rd,HILLSBOROUGH,CA,94010,3200000,4,2.5,HILLSBOROUGH,3540,19166,1971,235,904,,Sold,,,http://www.redfin.com/CA/Hillsborough/35-Knollcrest-Rd-94010/home/693196,MLSListings,ML81642563,N,Y,37.5501179,-122.3588395
PAST SALE,June-1-2017,Single Family Residential,710 Edgewood Rd,SAN MATEO,CA,94402,2100000,3,2.5,SAN MATEO,1690,5500,1910,243,1243,,Sold,,,http://www.redfin.com/CA/San-Mateo/710-Edgewood-Rd-94402/home/1765139,MLSListings,ML81650194,N,Y,37.5683816,-122.3500302
PAST SALE,,Condo/Co-op,1512 Floribunda Ave Apt 402,Burlingame,CA,94010,2500000,2,2.0,,1941,,2008,,1288,,,,,http://www.redfin.com/CA/Burlingame/1512-Floribunda-Ave-94010/unit-402/home/21967646,,,N,Y,37.5790026,-122.3546679
PAST SALE,May-5-2017,Single Family Residential,2615 Summit Dr,HILLSBOROUGH,CA,94010,3250000,3,2.5,HILLSBOROUGH,2410,25265,1973,270,1349,,Sold,,,http://www.redfin.com/CA/Hillsborough/2615-Summit-Dr-94010/home/2053127,MLSListings,ML81643905,Y,Y,37.5742045,-122.3833701
PAST SALE,October-21-2016,Single Family Residential,407 Hillcrest Rd,SAN MATEO,CA,94402,2625000,4,2.5,SAN MATEO,2800,8400,1937,466,938,,Sold,,,http://www.redfin.com/CA/San-Mateo/407-Hillcrest-Rd-94402/home/2053140,MLSListings,ML81613542,N,Y,37.5631787,-122.3502464
PAST SALE,November-15-2017,Single Family Residential,755 Clydesdale Dr,HILLSBOROUGH,CA,94010,3390000,4,2.5,HILLSBOROUGH,2680,21750,1971,76,1265,,Sold,,,http://www.redfin.com/CA/Hillsborough/755-Clydesdale-Dr-94010/home/2016701,MLSListings,ML81684901,N,Y,37.5471255,-122.331589
PAST SALE,November-15-2017,Single Family Residential,771 Chateau Dr,HILLSBOROUGH,CA,94010,2330000,3,2.5,HILLSBOROUGH,2350,23400,1965,76,991,,Sold,,,http://www.redfin.com/CA/Hillsborough/771-Chateau-Dr-94010/home/1740187,MLSListings,ML81679700,N,Y,37.5559078,-122.3757915
PAST SALE,August-10-2017,Condo/Co-op,1457 Bellevue Ave #8,BURLINGAME,CA,94010,1318889,2,2.5,BURLINGAME,1880,,1984,173,702,550,Sold,,,http://www.redfin.com/CA/Burlingame/1457-Bellevue-Ave-94010/unit-8/home/1085200,MLSListings,ML81668137,N,Y,37.5778982,-122.3517376
PAST SALE,November-15-2017,Single Family Residential,1500 Tartan Trail Rd,HILLSBOROUGH,CA,94010,2500000,4,2.5,HILLSBOROUGH,2553,24220,1961,76,979,,Sold,,,http://www.redfin.com/CA/Hillsborough/1500-Tartan-Trail-Rd-94010/home/1598745,MLSListings,ML81679444,Y,Y,37.5438326,-122.3603715
PAST SALE,April-28-2017,Single Family Residential,745 Chateau Dr,HILLSBOROUGH,CA,94010,2230000,3,2.5,HILLSBOROUGH,2430,23750,1965,277,918,,Sold,,,http://www.redfin.com/CA/Hillsborough/745-Chateau-Dr-94010/home/1532425,MLSListings,ML81638996,Y,Y,37.5567725,-122.374393
PAST SALE,September-26-2017,Single Family Residential,30 Calaveras Ct,HILLSBOROUGH,CA,94010,3040000,4,2.5,HILLSBOROUGH,2400,30056,1976,126,1267,,Sold,,,http://www.redfin.com/CA/Hillsborough/30-Calaveras-Ct-94010/home/735092,MLSListings,ML81674819,Y,Y,37.5322229,-122.3565035
PAST SALE,,Single Family Residential,721 Tulane Ct,San Mateo,CA,94402,860000,4,4.0,,2310,9044,1938,,372,,,,,http://www.redfin.com/CA/San-Mateo/721-Tulane-Ct-94402/home/2019419,,,N,Y,37.55338,-122.3377096
PAST SALE,November-22-2017,Single Family Residential,43 Ericson Rd,SAN MATEO,CA,94402,2875000,3,2.5,SAN MATEO,2230,9300,1950,69,1289,,Sold,,,http://www.redfin.com/CA/San-Mateo/43-Ericson-Rd-94402/home/1647796,MLSListings,ML81681670,N,Y,37.5673713,-122.3348382
PAST SALE,April-5-2017,Single Family Residential,1812 Sanchez Ave,BURLINGAME,CA,94010,2184500,3,2.5,BURLINGAME,2362,5600,1920,300,925,,Sold,,,http://www.redfin.com/CA/Burlingame/1812-Sanchez-Ave-94010/home/2036590,MLSListings,ML81640838,Y,Y,37.5799476,-122.3653801
PAST SALE,September-28-2017,Single Family Residential,12 Belvedere Ct,BURLINGAME,CA,94010,2880000,4,2.5,BURLINGAME,2480,17250,1961,124,1161,,Sold,,,http://www.redfin.com/CA/Burlingame/12-Belvedere-Ct-94010/home/1908208,MLSListings,ML81678211,N,Y,37.5761654,-122.3819145
PAST SALE,February-24-2017,Single Family Residential,1850 Ralston Ave,HILLSBOROUGH,CA,94010,3300000,3,2.5,HILLSBOROUGH,2380,23250,1959,340,1387,,Sold,,,http://www.redfin.com/CA/Hillsborough/1850-Ralston-Ave-94010/home/1800417,MLSListings,ML81637711,N,Y,37.572637,-122.353798
PAST SALE,June-13-2017,Single Family Residential,340 Occidental Ave,BURLINGAME,CA,94010,2778000,3,2.5,BURLINGAME,2620,6156,1925,231,1060,,Sold,,,http://www.redfin.com/CA/Burlingame/340-Occidental-Ave-94010/home/1514027,MLSListings,ML81651150,Y,Y,37.5754248,-122.3514229
PAST SALE,December-4-2016,Single Family Residential,889 Parrott Dr,SAN MATEO,CA,94402,1675000,3,2.5,SAN MATEO,1890,11199,1953,422,886,,Sold,,,http://www.redfin.com/CA/San-Mateo/889-Parrott-Dr-94402/home/1468928,MLSListings,ML81629458,N,Y,37.5477613,-122.3379485
PAST SALE,December-8-2016,Single Family Residential,2100 Roosevelt Ave,BURLINGAME,CA,94010,1751000,3,2.5,BURLINGAME,1770,4904,1928,418,989,,Sold,,,http://www.redfin.com/CA/Burlingame/2100-Roosevelt-Ave-94010/home/681583,MLSListings,ML81630800,N,Y,37.5793462,-122.3687688
PAST SALE,January-9-2018,Single Family Residential,141 Glen Aulin Ln,BURLINGAME,CA,94010,2098000,3,2.5,BURLINGAME,1840,20037,1960,21,1140,,Sold,,,http://www.redfin.com/CA/Burlingame/141-Glen-Aulin-Ln-94010/home/1707975,MLSListings,ML81685027,N,Y,37.5705469,-122.3888595
PAST SALE,August-26-2016,Single Family Residential,818 Barneson Ave,SAN MATEO,CA,94402,2100000,3,2.5,SAN MATEO,2316,6499,1949,522,907,,Sold,,,http://www.redfin.com/CA/San-Mateo/818-Barneson-Ave-94402/home/714797,MLSListings,ML81611789,N,Y,37.5436304,-122.3311404
PAST SALE,March-24-2017,Condo/Co-op,747 El Camino Real #7,BURLINGAME,CA,94010,1000000,2,2.5,BURLINGAME,1389,9226,1981,312,720,300,Sold,,,http://www.redfin.com/CA/Burlingame/747-El-Camino-Real-94010/unit-7/home/1374338,MLSListings,ML81637861,N,Y,37.5788122,-122.3573911
PAST SALE,December-4-2017,Single Family Residential,2535 Summit Dr,HILLSBOROUGH,CA,94010,3150000,3,2.5,HILLSBOROUGH,3130,27600,1973,57,1006,,Sold,,,http://www.redfin.com/CA/Burlingame/2535-Summit-Dr-94010/home/685608,MLSListings,ML81683704,N,Y,37.5740179,-122.380836
PAST SALE,March-8-2016,Single Family Residential,124 Pepper Ave,BURLINGAME,CA,94010,2750000,3,2.5,BURLINGAME,2110,11900,1932,693,1303,,Sold,,,http://www.redfin.com/CA/Burlingame/124-Pepper-Ave-94010/home/1890609,MLSListings,ML81550337,N,Y,37.5715011,-122.3509597
PAST SALE,,Single Family Residential,30 Country Club Dr,Hillsborough,CA,94010,3086500,3,3.0,,2910,25500,1956,,1061,,,,,http://www.redfin.com/CA/Hillsborough/30-Country-Club-Dr-94010/home/1589967,,,N,Y,37.5725236,-122.3547252
PAST SALE,November-16-2016,Single Family Residential,971 Baileyana Rd,HILLSBOROUGH,CA,94010,3150000,3,3.0,HILLSBOROUGH,3530,10798,1928,440,892,,Sold,,,http://www.redfin.com/CA/Hillsborough/971-Baileyana-Rd-94010/home/687108,MLSListings,ML81613073,N,Y,37.5769111,-122.377322
PAST SALE,,Single Family Residential,2595 Butternut Dr,Hillsborough,CA,94010,2450000,4,3.0,,4240,60750,1978,,578,,,,,http://www.redfin.com/CA/Hillsborough/2595-Butternut-Dr-94010/home/2053129,,,N,Y,37.563536,-122.3832093
PAST SALE,May-18-2016,Single Family Residential,3640 Ralston Ave,HILLSBOROUGH,CA,94010,3500000,4,3.0,HILLSBOROUGH,3270,21353,1955,622,1070,,Sold,,,http://www.redfin.com/CA/Hillsborough/3640-Ralston-Ave-94010/home/2056145,MLSListings,ML81577887,N,Y,37.5547294,-122.3700881
PAST SALE,February-5-2016,Single Family Residential,430 Moseley Rd,HILLSBOROUGH,CA,94010,3705000,4,3.0,HILLSBOROUGH,3392,30056,1963,725,1092,,Sold,,,http://www.redfin.com/CA/Hillsborough/430-Moseley-Rd-94010/home/1622917,MLSListings,ML81549027,N,Y,37.5543521,-122.3663089
PAST SALE,May-27-2016,Single Family Residential,1385 Hayne Rd,HILLSBOROUGH,CA,94010,2300000,5,3.0,HILLSBOROUGH,2400,20037,1959,613,958,,Sold,,,http://www.redfin.com/CA/Hillsborough/1385-Hayne-Rd-94010/home/1034650,MLSListings,ML81577119,Y,Y,37.5526133,-122.3650666
PAST SALE,,Single Family Residential,1435 Oak Rim Dr,Hillsborough,CA,94010,3200000,4,3.0,,3080,22216,1971,,1039,,,,,http://www.redfin.com/CA/Hillsborough/1435-Oak-Rim-Dr-94010/home/1946590,,,N,Y,37.5344966,-122.3595827
PAST SALE,,Single Family Residential,306 Ascot Rd,Hillsborough,CA,94010,3600000,4,3.0,,2790,19620,1936,,1290,,,,,http://www.redfin.com/CA/Hillsborough/306-Ascot-Rd-94010/home/1978730,,,N,Y,37.5586978,-122.3455289
PAST SALE,June-27-2016,Single Family Residential,709 Nevada Ave,SAN MATEO,CA,94402,2195000,4,3.0,SAN MATEO,2330,5998,1948,582,942,,Sold,,,http://www.redfin.com/CA/San-Mateo/709-Nevada-Ave-94402/home/2001590,MLSListings,ML81581741,N,Y,37.5508798,-122.3338027
PAST SALE,April-5-2016,Single Family Residential,710 Hillsborough Blvd,HILLSBOROUGH,CA,94010,4000000,4,3.0,HILLSBOROUGH,3270,22176,1963,665,1223,,Sold,,,http://www.redfin.com/CA/Hillsborough/710-Hillsborough-Blvd-94010/home/695325,MLSListings,ML81548662,N,Y,37.5676002,-122.3546603
PAST SALE,,Single Family Residential,735 Hillsborough Blvd,Hillsborough,CA,94010,4400000,4,3.0,,3040,30875,1953,,1447,,,,,http://www.redfin.com/CA/Hillsborough/735-Hillsborough-Blvd-94010/home/694390,,,N,Y,37.5680755,-122.3556584
PAST SALE,,Single Family Residential,1225 Jackling Dr,Hillsborough,CA,94010,2000000,4,2.0,,2292,17859,1955,,873,,,,,http://www.redfin.com/CA/Hillsborough/1225-Jackling-Dr-94010/home/685759,,,N,Y,37.580478,-122.3721951
PAST SALE,March-21-2016,Single Family Residential,451 Cornell Ave,SAN MATEO,CA,94402,2715000,4,3.0,SAN MATEO,2700,7021,1937,680,1006,,Sold,,,http://www.redfin.com/CA/San-Mateo/451-Cornell-Ave-94402/home/1991250,MLSListings,ML81565232,N,Y,37.556395,-122.3343314
PAST SALE,June-6-2016,Single Family Residential,1302 Ashwood Ct,SAN MATEO,CA,94402,3100000,4,3.0,SAN MATEO,2898,9400,1959,603,1070,,Sold,,,http://www.redfin.com/CA/San-Mateo/1302-Ashwood-Ct-94402/home/1211029,MLSListings,ML81585216,N,Y,37.5462851,-122.3307123
PAST SALE,,Single Family Residential,735 Clydesdale Dr,Hillsborough,CA,94010,555000,5,3.0,,3240,21750,1974,,171,,,,,http://www.redfin.com/CA/Hillsborough/735-Clydesdale-Dr-94010/home/1238394,,,N,Y,37.5474665,-122.3306362
PAST SALE,August-5-2016,Single Family Residential,1610 Chapin Ave,BURLINGAME,CA,94010,4212500,5,3.0,BURLINGAME,3790,9121,1907,543,1111,,Sold,,,http://www.redfin.com/CA/Burlingame/1610-Chapin-Ave-94010/home/1023898,MLSListings,ML81592410,N,Y,37.5752527,-122.3523158
PAST SALE,November-23-2016,Single Family Residential,814 Oregon Ave,SAN MATEO,CA,94402,1550000,2,3.0,SAN MATEO,1590,5998,1952,433,975,,Sold,,,http://www.redfin.com/CA/San-Mateo/814-Oregon-Ave-94402/home/709998,MLSListings,ML81630142,N,Y,37.5493345,-122.3350041
PAST SALE,November-29-2016,Single Family Residential,2150 Edgecourt Dr,HILLSBOROUGH,CA,94010,3550000,3,3.0,HILLSBOROUGH,2435,18033,1951,427,1458,,Sold,,,http://www.redfin.com/CA/Hillsborough/2150-Edgecourt-Dr-94010/home/1683546,MLSListings,ML81629583,N,Y,37.5737052,-122.3684349
PAST SALE,,Single Family Residential,1250 Lakeview Dr,Hillsborough,CA,94010,2819000,4,2.0,,2980,22650,1978,,946,,,,,http://www.redfin.com/CA/Hillsborough/1250-Lakeview-Dr-94010/home/736166,,,N,Y,37.5345102,-122.3554572
PAST SALE,March-27-2017,Single Family Residential,50 W Avondale Rd,HILLSBOROUGH,CA,94010,2800000,4,3.0,HILLSBOROUGH,2860,22651,1973,309,979,,Sold,,,http://www.redfin.com/CA/Hillsborough/50-Avondale-Rd-94010/home/1734171,MLSListings,ML81630337,N,Y,37.5457132,-122.3592152
PAST SALE,June-30-2017,Single Family Residential,25 Tea Tree Ct,HILLSBOROUGH,CA,94010,2775000,4,3.0,HILLSBOROUGH,2440,26125,1975,214,1137,,Sold,,,http://www.redfin.com/CA/Hillsborough/25-Tea-Tree-Ct-94010/home/1733488,MLSListings,ML81651996,N,Y,37.556609,-122.3788184
PAST SALE,July-25-2017,Single Family Residential,1555 Hayne Rd,HILLSBOROUGH,CA,94010,3000000,3,3.0,HILLSBOROUGH,2750,23430,1955,189,1091,,Sold,,,http://www.redfin.com/CA/Hillsborough/1555-Hayne-Rd-94010/home/690426,MLSListings,ML81668598,N,Y,37.5496987,-122.3692389
PAST SALE,September-13-2017,Single Family Residential,1221 Southdown Rd,HILLSBOROUGH,CA,94010,3200000,4,3.0,HILLSBOROUGH,3335,24970,1954,139,960,,Sold,,,http://www.redfin.com/CA/Hillsborough/1221-Southdown-Rd-94010/home/1902887,MLSListings,ML81667444,N,Y,37.5481414,-122.353922
PAST SALE,October-27-2017,Single Family Residential,380 Alberta Way,HILLSBOROUGH,CA,94010,2900000,3,3.0,HILLSBOROUGH,2610,22344,1954,95,1111,,Sold,,,http://www.redfin.com/CA/Hillsborough/380-Alberta-Way-94010/home/1476296,MLSListings,ML81678315,N,Y,37.5512855,-122.3667813
PAST SALE,,Single Family Residential,1060 Vista Rd,Hillsborough,CA,94010,1060000,4,3.0,,3100,25004,1955,,342,,,,,http://www.redfin.com/CA/Hillsborough/1060-Vista-Rd-94010/home/1494883,,,N,Y,37.5527478,-122.3500182
PAST SALE,,Single Family Residential,1120 Bromfield Rd,Hillsborough,CA,94010,3000000,4,3.0,,3210,15660,1930,,935,,,,,http://www.redfin.com/CA/Hillsborough/1120-Bromfield-Rd-94010/home/1057751,,,N,Y,37.5629117,-122.3563294
PAST SALE,,Single Family Residential,2185 Parkside Ave,Hillsborough,CA,94010,6900000,4,3.0,,4700,24840,1924,,1468,,,,,http://www.redfin.com/CA/Hillsborough/2185-Parkside-Ave-94010/home/1956044,,,N,Y,37.5690383,-122.3585252
PAST SALE,April-4-2017,Single Family Residential,1765 Willow Rd,HILLSBOROUGH,CA,94010,4200000,3,3.0,HILLSBOROUGH,3260,21240,1948,301,1288,,Sold,,,http://www.redfin.com/CA/Hillsborough/1765-Willow-Rd-94010/home/1658187,MLSListings,ML81645345,N,Y,37.5771194,-122.3607092
PAST SALE,,Single Family Residential,110 Country Club Dr,Hillsborough,CA,94010,4175000,4,3.0,,3340,23800,1956,,1250,,,,,http://www.redfin.com/CA/Hillsborough/110-Country-Club-Dr-94010/home/2047379,,,N,Y,37.5749153,-122.3559094
PAST SALE,March-31-2017,Single Family Residential,443 Fulton Rd,SAN MATEO,CA,94402,3450000,5,3.0,SAN MATEO,3190,11470,1930,305,1082,,Sold,,,http://www.redfin.com/CA/San-Mateo/443-Fulton-Rd-94402/home/1532447,MLSListings,ML81641777,N,Y,37.5634209,-122.353305
PAST SALE,December-15-2017,Single Family Residential,415 El Centro Rd,HILLSBOROUGH,CA,94010,3450000,4,3.0,HILLSBOROUGH,2498,13560,1937,46,1381,,Sold,,,http://www.redfin.com/CA/Hillsborough/415-El-Centro-Rd-94010/home/2024293,MLSListings,ML81685724,N,Y,37.5597874,-122.3549168
PAST SALE,July-5-2016,Single Family Residential,133 W Poplar Ave,SAN MATEO,CA,94402,3800000,4,3.0,SAN MATEO,3834,21374,1975,574,991,,Sold,,,http://www.redfin.com/CA/San-Mateo/133-W-Poplar-Ave-94402/home/1693169,MLSListings,ML81577875,N,Y,37.5678486,-122.3390181
PAST SALE,,Single Family Residential,525 Cornell Ave,San Mateo,CA,94402,3150000,4,3.0,,2900,7380,1937,,1086,,,,,http://www.redfin.com/CA/San-Mateo/525-Cornell-Ave-94402/home/1716103,,,N,Y,37.5554694,-122.3353443
PAST SALE,October-16-2017,Single Family Residential,320 Crystal Springs Rd,HILLSBOROUGH,CA,94010,3230000,3,3.0,HILLSBOROUGH,2540,24940,1960,106,1272,,Sold,,,http://www.redfin.com/CA/Hillsborough/320-Crystal-Springs-Rd-94010/home/2047418,MLSListings,ML81676756,N,Y,37.5588388,-122.3330602
PAST SALE,November-17-2017,Single Family Residential,515 Colgate Way,SAN MATEO,CA,94402,2000000,3,3.0,SAN MATEO,1690,6000,1947,74,1183,,Sold,,,http://www.redfin.com/CA/San-Mateo/515-Colgate-Way-94402/home/708370,MLSListings,ML81683157,N,Y,37.5518168,-122.3340868
PAST SALE,,Single Family Residential,322 Ascot Rd,Hillsborough,CA,94010,3000000,4,3.0,,3010,9483,1930,,997,,,,,http://www.redfin.com/CA/Hillsborough/322-Ascot-Rd-94010/home/1606840,,,N,Y,37.559947,-122.3456076
PAST SALE,July-6-2017,Single Family Residential,745 Endfield Way,HILLSBOROUGH,CA,94010,2900000,4,3.0,HILLSBOROUGH,3030,42253,1946,208,957,,Sold,,,http://www.redfin.com/CA/Hillsborough/745-Endfield-Way-94010/home/697552,MLSListings,ML81653294,N,Y,37.5536574,-122.3410301
PAST SALE,July-24-2017,Single Family Residential,121 W Poplar Ave,SAN MATEO,CA,94402,3265000,5,3.0,SAN MATEO,3100,18850,1929,190,1053,,Sold,,,http://www.redfin.com/CA/San-Mateo/121-W-Poplar-Ave-94402/home/2029274,MLSListings,ML81655325,N,Y,37.5680555,-122.3385245
PAST SALE,September-7-2017,Single Family Residential,885 Longview Rd,HILLSBOROUGH,CA,94010,3700000,4,3.0,HILLSBOROUGH,3240,16988,1948,145,1142,,Sold,,,http://www.redfin.com/CA/Hillsborough/885-Longview-Rd-94010/home/2040604,MLSListings,ML81673836,N,Y,37.5534027,-122.344502
PAST SALE,,Single Family Residential,200 W Santa Inez Ave,Hillsborough,CA,94010,9500000,3,3.0,,4170,35560,1924,,2278,,,,,http://www.redfin.com/CA/Hillsborough/200-W-Santa-Inez-Ave-94010/home/1902948,,,N,Y,37.5671894,-122.3380233
PAST SALE,September-27-2016,Single Family Residential,160 Gramercy Dr,SAN MATEO,CA,94402,1950000,3,3.0,SAN MATEO,2690,8340,1958,490,725,,Sold,,,http://www.redfin.com/CA/San-Mateo/160-Gramercy-Dr-94402/home/700125,MLSListings,ML81599730,N,Y,37.5667367,-122.3337623
PAST SALE,June-20-2017,Single Family Residential,1810 Forest View Ave,HILLSBOROUGH,CA,94010,3560000,3,3.0,HILLSBOROUGH,2000,17820,1949,224,1780,,Sold,,,http://www.redfin.com/CA/Hillsborough/1810-Forest-View-Ave-94010/home/2045986,MLSListings,ML81652542,N,Y,37.5783778,-122.3646814
PAST SALE,November-9-2017,Single Family Residential,63 Berryessa Way,HILLSBOROUGH,CA,94010,2450000,2,3.0,HILLSBOROUGH,3040,77537,1978,82,806,,Sold,,,http://www.redfin.com/CA/Hillsborough/63-Berryessa-Way-94010/home/1951812,MLSListings,ML81679756,N,Y,37.5315279,-122.3594635
PAST SALE,December-6-2016,Single Family Residential,307 Ranelagh Rd,HILLSBOROUGH,CA,94010,3600000,4,3.0,HILLSBOROUGH,3475,7360,1921,420,1036,,Sold,,,http://www.redfin.com/CA/Hillsborough/307-Ranelagh-Rd-94010/home/1978747,MLSListings,ML81630114,N,Y,37.5652382,-122.3343547
PAST SALE,September-6-2016,Condo/Co-op,530 El Camino Real #104,BURLINGAME,CA,94010,1227000,3,3.0,BURLINGAME,1550,42608,2000,511,792,333,Sold,,,http://www.redfin.com/CA/Burlingame/530-El-Camino-Real-94010/unit-104/home/1977549,MLSListings,ML81597612,N,Y,37.5778647,-122.3539293
PAST SALE,June-20-2017,Single Family Residential,1335 Enchanted Way,SAN MATEO,CA,94402,1575000,3,3.0,SAN MATEO,1470,9840,1959,224,1071,,Sold,,,http://www.redfin.com/CA/San-Mateo/1335-Enchanted-Way-94402/home/2008775,MLSListings,ML81651273,N,Y,37.5340124,-122.3457105
PAST SALE,March-22-2017,Condo/Co-op,530 El Camino Real #307,BURLINGAME,CA,94010,1309888,3,3.0,BURLINGAME,1536,42608,2000,314,853,333,Sold,,,http://www.redfin.com/CA/Burlingame/530-El-Camino-Real-94010/unit-307/home/1245776,MLSListings,ML81637874,N,Y,37.5778647,-122.3539293
PAST SALE,June-5-2017,Single Family Residential,1609 Sanchez Ave,BURLINGAME,CA,94010,2700000,4,3.0,BURLINGAME,2160,7050,1910,239,1250,,Sold,,,http://www.redfin.com/CA/Burlingame/1609-Sanchez-Ave-94010/home/1862659,MLSListings,ML81648204,Y,Y,37.5807505,-122.3628471
PAST SALE,,Single Family Residential,1328 Columbus Ave,Burlingame,CA,94010,2750000,3,3.0,,2450,6000,1927,,1122,,,,,http://www.redfin.com/CA/Burlingame/1328-Columbus-Ave-94010/home/1057497,,,N,Y,37.5811349,-122.3748057
PAST SALE,April-4-2017,Single Family Residential,717 Acacia Dr,BURLINGAME,CA,94010,2350000,4,3.0,BURLINGAME,2660,6600,1922,301,883,,Sold,,,http://www.redfin.com/CA/Burlingame/717-Acacia-Dr-94010/home/1468168,MLSListings,ML81639249,Y,Y,37.5800795,-122.3555259
PAST SALE,June-14-2017,Single Family Residential,90 Bates,HILLSBOROUGH,CA,94010,2750000,5,3.0,HILLSBOROUGH,2410,32322,1963,230,1141,,Sold,,,http://www.redfin.com/CA/Hillsborough/90-Bates-Rd-94010/home/2008601,MLSListings,ML81647932,N,Y,37.5543065,-122.3532818
PAST SALE,December-12-2017,Single Family Residential,901 Bromfield Rd,SAN MATEO,CA,94402,3050000,4,3.0,SAN MATEO,3340,8990,1930,49,913,,Sold,,,http://www.redfin.com/CA/San-Mateo/901-Bromfield-Rd-94402/home/2038834,MLSListings,ML81678776,N,Y,37.5637994,-122.3537687
PAST SALE,,Single Family Residential,130 Fallen Leaf Dr,Hillsborough,CA,94010,1000000,7,3.0,,4850,25760,1949,,206,,,,,http://www.redfin.com/CA/Hillsborough/130-Fallen-Leaf-Dr-94010/home/1283254,,,N,Y,37.5602085,-122.3354189
PAST SALE,July-18-2017,Single Family Residential,400 W Santa Inez Ave,HILLSBOROUGH,CA,94010,3700000,4,3.0,HILLSBOROUGH,3280,16146,1977,196,1128,,Sold,,,http://www.redfin.com/CA/Hillsborough/400-W-Santa-Inez-Ave-94010/home/1693092,MLSListings,ML81656307,N,Y,37.563333,-122.3438249
PAST SALE,July-21-2017,Single Family Residential,242 Amherst Ave,SAN MATEO,CA,94402,2550000,3,3.0,SAN MATEO,1960,9450,1950,193,1301,,Sold,,,http://www.redfin.com/CA/San-Mateo/242-Amherst-Ave-94402/home/1504382,MLSListings,ML81667086,N,Y,37.5576937,-122.331771
PAST SALE,June-12-2017,Single Family Residential,831 Columbia Dr,SAN MATEO,CA,94402,2520000,4,3.0,SAN MATEO,2301,8241,1939,232,1095,,Sold,,,http://www.redfin.com/CA/San-Mateo/831-Columbia-Dr-94402/home/716497,MLSListings,ML81653096,N,Y,37.5512939,-122.3380758
PAST SALE,June-23-2017,Single Family Residential,1110 Marlborough Rd,HILLSBOROUGH,CA,94010,3410000,4,3.0,HILLSBOROUGH,3230,23523,1972,221,1056,,Sold,,,http://www.redfin.com/CA/Hillsborough/1110-Marlborough-Rd-94010/home/1266154,MLSListings,ML81653114,N,Y,37.5509524,-122.3529284
PAST SALE,,Single Family Residential,1026 Lancaster Rd,Hillsborough,CA,94010,2000000,4,3.0,,1900,17550,1952,,1053,,,,,http://www.redfin.com/CA/Hillsborough/1026-Lancaster-Rd-94010/home/1581763,,,N,Y,37.5514051,-122.3498114
PAST SALE,,Single Family Residential,160 Denise Dr,Hillsborough,CA,94010,3000000,3,2.0,,2360,22022,1955,,1271,,,,,http://www.redfin.com/CA/Hillsborough/160-Denise-Dr-94010/home/696222,,,N,Y,37.5475168,-122.3638751
PAST SALE,,Single Family Residential,25 Patton Pl,Hillsborough,CA,94010,3400000,4,3.0,,2800,21750,1957,,1214,,,,,http://www.redfin.com/CA/Hillsborough/25-Patton-Pl-94010/home/687065,,,N,Y,37.5705666,-122.3841528
PAST SALE,April-17-2017,Single Family Residential,2817 Hillside Dr,BURLINGAME,CA,94010,2960000,4,3.0,BURLINGAME,3145,10088,1928,288,941,,Sold,,,http://www.redfin.com/CA/Burlingame/2817-Hillside-Dr-94010/home/1265866,MLSListings,ML81641387,N,Y,37.5786307,-122.3821932
PAST SALE,February-14-2017,Single Family Residential,36 Belford Way,SAN MATEO,CA,94402,2250000,4,3.0,SAN MATEO,2940,7245,1949,350,765,,Sold,,,http://www.redfin.com/CA/San-Mateo/36-Belford-Way-94402/home/1724630,MLSListings,ML81635517,N,Y,37.5650854,-122.3305372
PAST SALE,August-11-2017,Single Family Residential,85 El Cerrito Ave,HILLSBOROUGH,CA,94010,3450000,3,3.0,HILLSBOROUGH,2140,17500,1951,172,1612,,Sold,,,http://www.redfin.com/CA/Hillsborough/85-El-Cerrito-Ave-94010/home/704079,MLSListings,ML81668754,N,Y,37.5649039,-122.3327961
PAST SALE,November-7-2017,Single Family Residential,2555 Summit Dr,HILLSBOROUGH,CA,94010,3600000,4,3.0,HILLSBOROUGH,3570,40761,1968,84,1008,,Sold,,,http://www.redfin.com/CA/Hillsborough/2555-Summit-Dr-94010/home/1292738,MLSListings,ML81676670,N,Y,37.5740059,-122.3816206
PAST SALE,July-14-2017,Single Family Residential,407 Occidental Ave,BURLINGAME,CA,94010,2575000,5,3.0,BURLINGAME,2550,5400,1920,200,1010,,Sold,,,http://www.redfin.com/CA/Burlingame/407-Occidental-Ave-94010/home/1658205,MLSListings,ML81651954,Y,Y,37.5759204,-122.3523848
PAST SALE,May-16-2016,Single Family Residential,35 Via Delizia,HILLSBOROUGH,CA,94010,3128000,5,3.0,HILLSBOROUGH,2730,31798,1958,624,1146,,Sold,,,http://www.redfin.com/CA/Hillsborough/35-Via-Delizia-94010/home/694738,MLSListings,ML81579248,N,Y,37.5508463,-122.3441738
PAST SALE,,Single Family Residential,350 Eucalyptus Ave,Hillsborough,CA,94010,6800000,5,4.0,,4821,23380,1968,,1410,,,,,http://www.redfin.com/CA/Hillsborough/350-Eucalyptus-Ave-94010/home/1740242,,,N,Y,37.5660847,-122.3580291
PAST SALE,March-15-2016,Single Family Residential,1365 Lakeview Dr,HILLSBOROUGH,CA,94010,2600000,4,3.0,HILLSBOROUGH,2770,24394,1974,686,939,,Sold,,,http://www.redfin.com/CA/Hillsborough/1365-Lakeview-Dr-94010/home/1247936,MLSListings,ML81485626,N,Y,37.5324413,-122.3586395
PAST SALE,June-29-2016,Single Family Residential,525 El Arroyo Rd,HILLSBOROUGH,CA,94010,2585000,4,3.0,HILLSBOROUGH,3270,14375,1952,580,791,,Sold,,,http://www.redfin.com/CA/Hillsborough/525-El-Arroyo-Rd-94010/home/692099,MLSListings,ML81561652,N,Y,37.5625361,-122.3578332
PAST SALE,August-12-2016,Single Family Residential,136 Gramercy Dr,SAN MATEO,CA,94402,2300000,4,3.0,SAN MATEO,2310,7801,1954,536,996,,Sold,,,http://www.redfin.com/CA/San-Mateo/136-Gramercy-Dr-94402/home/2021387,MLSListings,ML81595438,N,Y,37.5661594,-122.3333857
PAST SALE,June-30-2016,Single Family Residential,560 Remillard Dr,HILLSBOROUGH,CA,94010,3290000,5,3.0,HILLSBOROUGH,3116,21418,1954,579,1056,,Sold,,,http://www.redfin.com/CA/Hillsborough/560-Remillard-Dr-94010/home/1386454,MLSListings,ML81589069,N,Y,37.5546048,-122.3708862
PAST SALE,September-30-2016,Single Family Residential,660 Nevada Ave,SAN MATEO,CA,94402,1756000,3,3.0,SAN MATEO,2210,5998,1952,487,795,,Sold,,,http://www.redfin.com/CA/San-Mateo/660-Nevada-Ave-94402/home/1068621,MLSListings,ML81595708,N,Y,37.5515587,-122.3336941
PAST SALE,May-12-2016,Single Family Residential,2969 Churchill Dr,HILLSBOROUGH,CA,94010,2600000,4,3.0,HILLSBOROUGH,3160,22651,1978,628,823,,Sold,,,http://www.redfin.com/CA/Hillsborough/2969-Churchill-Dr-94010/home/1875317,MLSListings,ML81563450,N,Y,37.5641616,-122.3860545
PAST SALE,March-17-2016,Single Family Residential,1313 De Soto Ave,BURLINGAME,CA,94010,2601000,4,3.0,BURLINGAME,2680,5000,2002,684,971,,Sold,,,http://www.redfin.com/CA/Burlingame/1313-De-Soto-Ave-94010/home/2001430,MLSListings,ML81561420,Y,Y,37.5810198,-122.3736026
PAST SALE,March-30-2017,Single Family Residential,35 Trophy Ct,HILLSBOROUGH,CA,94010,3625000,5,3.5,HILLSBOROUGH,3220,29185,1969,306,1126,,Sold,,,http://www.redfin.com/CA/Hillsborough/35-Trophy-Ct-94010/home/1631721,MLSListings,ML81640008,N,Y,37.5488788,-122.3340696
PAST SALE,April-26-2017,Single Family Residential,219 Bridge Rd,HILLSBOROUGH,CA,94010,5000000,6,3.5,HILLSBOROUGH,4380,38333,1950,279,1142,,Sold,,,http://www.redfin.com/CA/Hillsborough/219-Bridge-Rd-94010/home/1170716,MLSListings,ML81648556,N,Y,37.5606167,-122.337277
PAST SALE,May-5-2017,Single Family Residential,304 Brentwood Rd,HILLSBOROUGH,CA,94010,3700000,5,3.5,HILLSBOROUGH,3620,13939,1924,270,1022,,Sold,,,http://www.redfin.com/CA/Hillsborough/304-Brentwood-Rd-94010/home/2033705,MLSListings,ML81643007,N,Y,37.5598816,-122.3444585
PAST SALE,May-8-2017,Single Family Residential,565 El Cerrito Ave,HILLSBOROUGH,CA,94010,3525000,4,3.5,HILLSBOROUGH,3330,20038,1976,267,1059,,Sold,,,http://www.redfin.com/CA/Hillsborough/565-El-Cerrito-Ave-94010/home/1358416,MLSListings,ML81644719,N,Y,37.5590593,-122.3423496
PAST SALE,August-11-2017,Single Family Residential,444 El Centro Rd,HILLSBOROUGH,CA,94010,2700000,4,3.5,HILLSBOROUGH,3100,17152,1928,172,871,,Sold,,,http://www.redfin.com/CA/Hillsborough/444-El-Centro-Rd-94010/home/692040,MLSListings,ML81668513,N,Y,37.5611931,-122.3550701
PAST SALE,December-28-2017,Single Family Residential,970 Tournament Dr,HILLSBOROUGH,CA,94010,3830000,5,3.5,HILLSBOROUGH,4051,21750,1974,33,945,,Sold,,,http://www.redfin.com/CA/Hillsborough/970-Tournament-Dr-94010/home/1724981,MLSListings,ML81684439,Y,Y,37.5434044,-122.3406723
PAST SALE,September-19-2016,Single Family Residential,1245 Armsby Dr,HILLSBOROUGH,CA,94010,3900000,4,3.5,HILLSBOROUGH,3341,22442,1967,498,1167,,Sold,,,http://www.redfin.com/CA/Hillsborough/1245-Armsby-Dr-94010/home/1292761,MLSListings,ML81599022,N,Y,37.5790788,-122.3702621
PAST SALE,September-8-2017,Single Family Residential,56 Eugenia Way,HILLSBOROUGH,CA,94010,3950000,4,3.5,HILLSBOROUGH,4200,34577,1986,144,940,,Sold,,,http://www.redfin.com/CA/Hillsborough/56-Eugenia-Way-94010/home/1733506,MLSListings,ML81629123,N,Y,37.5670265,-122.3808012
PAST SALE,December-18-2017,Single Family Residential,223 Amherst Ave,SAN MATEO,CA,94402,3420000,4,3.5,SAN MATEO,2530,6960,1936,43,1352,,Sold,,,http://www.redfin.com/CA/San-Mateo/223-Amherst-Ave-94402/home/1724691,MLSListings,ML81684641,N,Y,37.558274,-122.3322496
PAST SALE,December-15-2017,Single Family Residential,190 Eucalyptus Ave,HILLSBOROUGH,CA,94010,6000000,4,3.5,HILLSBOROUGH,4700,26550,1976,46,1277,,Sold,,,http://www.redfin.com/CA/Hillsborough/190-Eucalyptus-Ave-94010/home/697703,MLSListings,ML81687200,N,Y,37.562412,-122.3584307
PAST SALE,December-12-2017,Single Family Residential,1020 Lakeview Dr,HILLSBOROUGH,CA,94010,3500000,4,3.5,HILLSBOROUGH,4420,51836,1989,49,792,,Sold,,,http://www.redfin.com/CA/Hillsborough/1020-Lakeview-Dr-94010/home/735618,MLSListings,ML81675399,Y,Y,37.5361253,-122.3510345
PAST SALE,November-28-2016,Single Family Residential,2630 Skyfarm Dr,HILLSBOROUGH,CA,94010,4398000,4,3.5,HILLSBOROUGH,4590,48600,1977,428,958,,Sold,,,http://www.redfin.com/CA/Hillsborough/2630-Skyfarm-Dr-94010/home/1983034,MLSListings,ML81579669,N,Y,37.5588105,-122.3776517
PAST SALE,August-4-2017,Single Family Residential,50 Falkirk Ln,HILLSBOROUGH,CA,94010,3300000,4,3.5,HILLSBOROUGH,2910,24875,1977,179,1134,,Sold,,,http://www.redfin.com/CA/Hillsborough/50-Falkirk-Ln-94010/home/730670,MLSListings,ML81667442,N,Y,37.5434598,-122.3550105
PAST SALE,July-15-2016,Single Family Residential,412 Hurlingham Ave,SAN MATEO,CA,94402,2628000,6,3.5,SAN MATEO,4522,18120,1922,564,581,,Sold,,,http://www.redfin.com/CA/San-Mateo/412-Hurlingham-Ave-94402/home/699544,MLSListings,ML81581157,N,Y,37.569322,-122.338195
PAST SALE,June-23-2017,Single Family Residential,942 Baileyana Rd,HILLSBOROUGH,CA,94010,4250000,5,3.5,HILLSBOROUGH,3420,17500,1929,221,1243,,Sold,,,http://www.redfin.com/CA/Hillsborough/942-Baileyana-Rd-94010/home/687142,MLSListings,ML81653269,N,Y,37.5759813,-122.3763327
PAST SALE,June-29-2017,Single Family Residential,25 Woodgate Ct,HILLSBOROUGH,CA,94010,3888000,4,3.5,HILLSBOROUGH,3220,29185,1949,215,1207,,Sold,,,http://www.redfin.com/CA/Hillsborough/25-Woodgate-Ct-94010/home/1358230,MLSListings,ML81651244,N,Y,37.5693073,-122.3861018
PAST SALE,June-16-2017,Single Family Residential,772 Walnut Ave,BURLINGAME,CA,94010,2850000,4,3.5,BURLINGAME,2855,9050,1906,228,998,,Sold,,,http://www.redfin.com/CA/Burlingame/772-Walnut-Ave-94010/home/1862670,MLSListings,ML81653257,Y,Y,37.5786871,-122.3584376
PAST SALE,March-30-2016,Single Family Residential,35 Bel Aire Ct,HILLSBOROUGH,CA,94010,2850000,4,3.5,HILLSBOROUGH,4181,22475,1978,671,682,,Sold,,,http://www.redfin.com/CA/Hillsborough/35-Bel-Aire-Ct-94010/home/1925607,MLSListings,ML81483871,N,Y,37.5363151,-122.3419318
PAST SALE,August-3-2017,Single Family Residential,1950 Willow Rd,HILLSBOROUGH,CA,94010,4650000,3,3.5,HILLSBOROUGH,3360,21280,1956,180,1384,,Sold,,,http://www.redfin.com/CA/Hillsborough/1950-Willow-Rd-94010/home/1141891,MLSListings,ML81667438,N,Y,37.5746984,-122.3646753
PAST SALE,November-4-2016,Single Family Residential,512 Warren Rd,SAN MATEO,CA,94402,3075000,4,3.5,SAN MATEO,3247,8123,1920,452,947,,Sold,,,http://www.redfin.com/CA/San-Mateo/512-Warren-Rd-94402/home/2046061,MLSListings,ML81625706,N,Y,37.5685104,-122.3495248
PAST SALE,February-14-2017,Single Family Residential,413 Hillsborough Blvd,HILLSBOROUGH,CA,94010,4800000,5,3.5,HILLSBOROUGH,3260,15400,1953,350,1472,,Sold,,,http://www.redfin.com/CA/Hillsborough/413-Hillsborough-Blvd-94010/home/1331048,MLSListings,ML81637119,N,Y,37.5614166,-122.353448
PAST SALE,August-25-2017,Single Family Residential,330 Eucalyptus Ave,HILLSBOROUGH,CA,94010,5600000,5,3.5,HILLSBOROUGH,4028,21783,1970,158,1390,,Sold,,,http://www.redfin.com/CA/Hillsborough/330-Eucalyptus-Ave-94010/home/1998670,MLSListings,ML81655364,N,Y,37.565777,-122.357723
PAST SALE,July-10-2017,Single Family Residential,945 Baileyana Rd,HILLSBOROUGH,CA,94010,2685000,5,3.5,HILLSBOROUGH,3230,11040,1963,204,831,,Sold,,,http://www.redfin.com/CA/Hillsborough/945-Baileyana-Rd-94010/home/687118,MLSListings,ML81652284,N,Y,37.5760431,-122.3768693
PAST SALE,April-7-2017,Single Family Residential,2280 Skyfarm Dr,HILLSBOROUGH,CA,94010,3150000,4,3.5,HILLSBOROUGH,3470,31845,1974,298,908,,Sold,,,http://www.redfin.com/CA/Hillsborough/2280-Skyfarm-Dr-94010/home/686078,MLSListings,ML81640213,N,Y,37.5702775,-122.37106
PAST SALE,November-20-2017,Single Family Residential,533 Warren Rd,SAN MATEO,CA,94402,3825000,5,3.5,SAN MATEO,3040,11000,1924,71,1258,,Sold,,,http://www.redfin.com/CA/San-Mateo/533-Warren-Rd-94402/home/1962808,MLSListings,ML81680137,Y,Y,37.5670561,-122.3494295
PAST SALE,September-22-2017,Single Family Residential,1915 Broadway,BURLINGAME,CA,94010,2895000,6,3.5,BURLINGAME,3750,6000,1993,130,772,,Sold,,,http://www.redfin.com/CA/Burlingame/1915-Broadway-94010/home/1869605,MLSListings,ML81672193,Y,Y,37.5808904,-122.3689384
PAST SALE,,Single Family Residential,639 Woodstock Rd,Hillsborough,CA,94010,5100000,5,4.0,,3220,22651,1937,,1584,,,,,http://www.redfin.com/CA/Hillsborough/639-Woodstock-Rd-94010/home/1460198,,,N,Y,37.5617459,-122.3486986
PAST SALE,October-31-2017,Single Family Residential,737 Jacaranda Cir,HILLSBOROUGH,CA,94010,4850000,4,3.5,HILLSBOROUGH,4000,32100,1978,91,1213,,Sold,,,http://www.redfin.com/CA/Hillsborough/737-Jacaranda-Cir-94010/home/688219,MLSListings,ML81680443,N,Y,37.5628755,-122.3721121
PAST SALE,,Single Family Residential,720 Chateau Dr,Hillsborough,CA,94010,2951818,4,3.0,,4140,43429,1997,,713,,,,,http://www.redfin.com/CA/Hillsborough/720-Chateau-Dr-94010/home/1869718,,,N,Y,37.5581409,-122.3740072
PAST SALE,August-26-2016,Single Family Residential,55 Glenbrook Dr,HILLSBOROUGH,CA,94010,2650000,3,3.5,HILLSBOROUGH,2900,64468,1953,522,914,,Sold,,,http://www.redfin.com/CA/Hillsborough/55-Glenbrook-Dr-94010/home/1266787,MLSListings,ML81589715,N,Y,37.5448716,-122.3442091
PAST SALE,September-8-2016,Single Family Residential,1145 Tournament Dr,HILLSBOROUGH,CA,94010,3750000,5,3.5,HILLSBOROUGH,4960,24776,1979,509,756,,Sold,,,http://www.redfin.com/CA/Hillsborough/1145-Tournament-Dr-94010/home/735226,MLSListings,ML81592241,N,Y,37.5382757,-122.3442314
PAST SALE,September-16-2016,Single Family Residential,644 Woodstock Rd,HILLSBOROUGH,CA,94010,4250000,5,3.5,HILLSBOROUGH,3737,15002,1936,501,1137,,Sold,,,http://www.redfin.com/CA/Hillsborough/644-Woodstock-Rd-94010/home/1422722,MLSListings,ML81590229,N,Y,37.5619716,-122.3498075
PAST SALE,December-20-2017,Single Family Residential,2300 Skyfarm Dr,Hillsborough,CA,94010,3850000,5,3.5,San Mateo County,5120,26389,1976,41,752,,Sold,,,http://www.redfin.com/CA/Hillsborough/2300-Skyfarm-Dr-94010/home/686571,BAREIS,21721461,N,Y,37.5696108,-122.3716388
PAST SALE,December-12-2017,Single Family Residential,1216 Vancouver Ave,BURLINGAME,CA,94010,3285000,4,3.5,BURLINGAME,2908,6000,1926,49,1130,,Sold,,,http://www.redfin.com/CA/Burlingame/1216-Vancouver-Ave-94010/home/1386175,MLSListings,ML81677593,Y,Y,37.580684,-122.370329
PAST SALE,,Single Family Residential,215 Pinehill Rd,Hillsborough,CA,94010,3200000,4,2.0,,2970,87991,1956,,1077,,,,,http://www.redfin.com/CA/Hillsborough/215-Pinehill-Rd-94010/home/1890690,,,N,Y,37.5582033,-122.3656704
PAST SALE,October-28-2016,Single Family Residential,1318 Ashwood Ct,SAN MATEO,CA,94402,2301318,5,3.5,SAN MATEO,2710,7021,1955,459,849,,Sold,,,http://www.redfin.com/CA/San-Mateo/1318-Ashwood-Ct-94402/home/1829354,MLSListings,ML81625559,N,Y,37.5460789,-122.3296464
PAST SALE,October-12-2016,Single Family Residential,989 Jackling Dr,HILLSBOROUGH,CA,94010,3675000,4,3.5,HILLSBOROUGH,3107,13960,1952,475,1183,,Sold,,,http://www.redfin.com/CA/Hillsborough/989-Jackling-Dr-94010/home/1422467,MLSListings,ML81627619,N,Y,37.577163,-122.3755492
PAST SALE,May-23-2016,Single Family Residential,1760 Manor Dr,HILLSBOROUGH,CA,94010,6100000,4,3.5,HILLSBOROUGH,4500,37262,1940,617,1356,,Sold,,,http://www.redfin.com/CA/Hillsborough/1760-Manor-Dr-94010/home/113839323,MLSListings,ML81587064,N,Y,37.5785646,-122.3627575
PAST SALE,,Single Family Residential,1000 Hayne Rd,Hillsborough,CA,94010,2350000,5,3.0,,3530,23354,1963,,666,,,,,http://www.redfin.com/CA/Hillsborough/1000-Hayne-Rd-94010/home/1521896,,,N,Y,37.5553494,-122.3542599
PAST SALE,,Single Family Residential,23 Annescourt Pl,Hillsborough,CA,94010,3650000,5,3.5,,3200,22215,1956,,1141,,,,,http://www.redfin.com/CA/Hillsborough/23-Annescourt-Pl-94010/home/1855317,,,N,Y,37.573169,-122.3743763
PAST SALE,November-21-2016,Single Family Residential,125 Stonehedge Rd,HILLSBOROUGH,CA,94010,3600000,4,3.5,HILLSBOROUGH,3305,17550,1947,435,1089,,Sold,,,http://www.redfin.com/CA/Hillsborough/8-Saint-Francis-Rd-94010/home/1983174,MLSListings,ML81630137,N,Y,37.560799,-122.334385
PAST SALE,March-18-2016,Single Family Residential,12 Kenmar Way,Burlingame,CA,94010,2625000,4,3.5,Burlingame,3688,10960,1954,683,712,,Sold,,,http://www.redfin.com/CA/Burlingame/12-Kenmar-Way-94010/home/1848784,San Francisco MLS,441812,Y,Y,37.5762059,-122.3841972
PAST SALE,August-7-2017,Single Family Residential,112 Ericson Rd,HILLSBOROUGH,CA,94010,2738000,5,3.5,HILLSBOROUGH,2610,12900,1952,176,1049,,Sold,,,http://www.redfin.com/CA/Hillsborough/112-Ericson-Rd-94010/home/702520,MLSListings,ML81668909,N,Y,37.566597,-122.3360638
PAST SALE,April-21-2016,Single Family Residential,465 Cornell Ave,San Mateo,CA,94402,2601000,3,3.5,San Mateo,2450,6825,1933,649,1062,,Sold,,,http://www.redfin.com/CA/San-Mateo/465-Cornell-Ave-94402/home/716608,San Francisco MLS,442435,N,Y,37.5561197,-122.3346744
PAST SALE,May-16-2016,Single Family Residential,735 Endfield Way,HILLSBOROUGH,CA,94010,3800000,5,3.5,HILLSBOROUGH,3120,23522,1948,624,1218,,Sold,,,http://www.redfin.com/CA/Hillsborough/735-Endfield-Way-94010/home/694818,MLSListings,ML81577694,N,Y,37.5536688,-122.3416312
PAST SALE,March-2-2016,Single Family Residential,638 Oregon Ave,SAN MATEO,CA,94402,2850000,4,3.5,SAN MATEO,2512,6000,1948,699,1135,,Sold,,,http://www.redfin.com/CA/San-Mateo/638-Oregon-Ave-94402/home/2051193,MLSListings,ML81547651,N,Y,37.5507531,-122.3334028
PAST SALE,June-27-2016,Single Family Residential,1103 Southdown Rd,HILLSBOROUGH,CA,94010,2775000,3,3.5,HILLSBOROUGH,2855,25134,1950,582,972,,Sold,,,http://www.redfin.com/CA/Hillsborough/1103-Southdown-Rd-94010/home/1442386,MLSListings,ML81585529,N,Y,37.5501336,-122.3517881
PAST SALE,,Single Family Residential,190 Woodridge Rd,Hillsborough,CA,94010,3200000,4,4.0,,3245,56279,1978,,986,,,,,http://www.redfin.com/CA/Hillsborough/190-Woodridge-Rd-94010/home/1834905,,,N,Y,37.5479651,-122.3490798
PAST SALE,April-5-2016,Single Family Residential,20 Tevis Pl,HILLSBOROUGH,CA,94010,3388000,5,3.5,HILLSBOROUGH,3540,22651,1975,665,957,,Sold,,,http://www.redfin.com/CA/Hillsborough/20-Tevis-Pl-94010/home/697640,MLSListings,ML81518030,N,Y,37.5676313,-122.3605856
PAST SALE,March-10-2017,Single Family Residential,1305 Avondale Rd,HILLSBOROUGH,CA,94010,2800000,5,3.5,HILLSBOROUGH,3320,44561,1967,326,843,,Sold,,,http://www.redfin.com/CA/Hillsborough/1305-Avondale-Rd-94010/home/1647705,MLSListings,ML81613067,N,Y,37.5500861,-122.3550806
PAST SALE,December-19-2017,Single Family Residential,616 Fairway Cir,HILLSBOROUGH,CA,94010,4570000,4,3.5,HILLSBOROUGH,2880,17500,1950,42,1587,,Sold,,,http://www.redfin.com/CA/Hillsborough/616-Fairway-Cir-94010/home/1265938,MLSListings,ML81680693,N,Y,37.576595,-122.3569894
PAST SALE,July-15-2016,Single Family Residential,430 Hillsborough Blvd,SAN MATEO,CA,94402,2800000,3,3.5,SAN MATEO,2830,13050,1954,564,989,,Sold,,,http://www.redfin.com/CA/San-Mateo/430-Hillsborough-Blvd-94402/home/696408,MLSListings,ML81585229,N,Y,37.5627371,-122.3535776
PAST SALE,April-26-2017,Single Family Residential,1738 Manor Dr,HILLSBOROUGH,CA,94010,7500000,4,3.5,HILLSBOROUGH,4500,36590,1940,279,1667,,Sold,,,http://www.redfin.com/CA/Hillsborough/1738-Manor-Dr-94010/home/1875219,MLSListings,ML81648555,N,Y,37.578693,-122.362686
PAST SALE,June-2-2017,Single Family Residential,731 El Cerrito Ave,HILLSBOROUGH,CA,94010,2950000,4,3.5,HILLSBOROUGH,3260,42400,1958,242,905,,Sold,,,http://www.redfin.com/CA/Hillsborough/731-El-Cerrito-Ave-94010/home/1890777,MLSListings,ML81645059,N,Y,37.556069,-122.339382
PAST SALE,November-10-2016,Single Family Residential,475 Pepper Ave,HILLSBOROUGH,CA,94010,4250000,5,3.5,HILLSBOROUGH,3296,21842,1958,446,1289,,Sold,,,http://www.redfin.com/CA/Hillsborough/475-Pepper-Ave-94010/home/1791253,MLSListings,ML81627837,N,Y,37.5751428,-122.3551271
PAST SALE,August-15-2016,Single Family Residential,10 Sheldon Way,HILLSBOROUGH,CA,94010,4500000,3,3.5,HILLSBOROUGH,4242,21780,1969,533,1061,,Sold,,,http://www.redfin.com/CA/Hillsborough/10-Sheldon-Way-94010/home/1622809,MLSListings,ML81549713,N,Y,37.5786625,-122.373296
PAST SALE,April-5-2016,Single Family Residential,35 Knightwood Ln,HILLSBOROUGH,CA,94010,5150000,4,3.5,HILLSBOROUGH,3645,21627,1956,665,1413,,Sold,,,http://www.redfin.com/CA/Hillsborough/35-Knightwood-Ln-94010/home/1012358,MLSListings,ML81564791,N,Y,37.5734139,-122.3740212
PAST SALE,November-30-2017,Single Family Residential,1465 SW LAKEVIEW DRIVE Dr,HILLSBOROUGH,CA,94010,3380000,5,3.5,HILLSBOROUGH,2980,21780,1970,61,1134,,Sold,,,http://www.redfin.com/CA/Hillsborough/1465-Lakeview-Dr-94010/home/735017,MLSListings,ML81682431,N,Y,37.5353358,-122.3608785
PAST SALE,September-29-2016,Single Family Residential,10 Victor Park Ln,HILLSBOROUGH,CA,94010,4480000,6,3.5,HILLSBOROUGH,4170,21780,1961,488,1074,,Sold,,,http://www.redfin.com/CA/Hillsborough/10-Victor-Park-Ln-94010/home/1034676,MLSListings,ML81613398,N,Y,37.55744,-122.3519611
PAST SALE,,Single Family Residential,4 Sherwood Ct,Hillsborough,CA,94010,5380000,4,3.0,,4320,17396,1941,,1245,,,,,http://www.redfin.com/CA/Hillsborough/4-Sherwood-Ct-94010/home/1751398,,,N,Y,37.5647857,-122.3319323
PAST SALE,September-27-2016,Single Family Residential,3550 Ralston Ave,HILLSBOROUGH,CA,94010,3725000,4,3.5,HILLSBOROUGH,3445,23087,1950,490,1081,,Sold,,,http://www.redfin.com/CA/Hillsborough/3550-Ralston-Ave-94010/home/1751312,MLSListings,ML81599685,N,Y,37.5559783,-122.3694198
PAST SALE,June-5-2017,Single Family Residential,10 Joyce Rd,HILLSBOROUGH,CA,94010,4175000,5,3.5,HILLSBOROUGH,3849,23240,1979,239,1085,,Sold,,,http://www.redfin.com/CA/Hillsborough/10-Joyce-Rd-94010/home/1925616,MLSListings,ML81654578,N,Y,37.5358344,-122.3552238
PAST SALE,October-23-2017,Single Family Residential,640 Pullman Rd,HILLSBOROUGH,CA,94010,3880000,4,3.5,HILLSBOROUGH,4389,22344,2005,99,884,,Sold,,,http://www.redfin.com/CA/Hillsborough/640-Pullman-Rd-94010/home/2046060,MLSListings,ML81668915,Y,Y,37.5560225,-122.3744606
PAST SALE,August-31-2017,Single Family Residential,1701 Black Mountain Rd,HILLSBOROUGH,CA,94010,2800000,4,3.5,HILLSBOROUGH,3925,37897,1948,152,713,,Sold,,,http://www.redfin.com/CA/Hillsborough/1701-Black-Mountain-Rd-94010/home/1855932,MLSListings,ML81643710,N,Y,37.54416,-122.364108
PAST SALE,November-15-2016,Single Family Residential,419 Hillsborough Blvd,HILLSBOROUGH,CA,94010,3800000,5,3.5,HILLSBOROUGH,3530,13599,1941,441,1076,,Sold,,,http://www.redfin.com/CA/Hillsborough/419-Hillsborough-Blvd-94010/home/1476256,MLSListings,ML81627616,N,Y,37.561687,-122.3535731
PAST SALE,September-22-2017,Single Family Residential,570 Edgewood Rd,SAN MATEO,CA,94402,3725000,3,3.5,SAN MATEO,3100,12600,1927,130,1202,,Sold,,,http://www.redfin.com/CA/San-Mateo/570-Edgewood-Rd-94402/home/694465,MLSListings,ML81673504,Y,Y,37.5667264,-122.3493767
PAST SALE,August-8-2017,Single Family Residential,1025 Merner Rd,HILLSBOROUGH,CA,94010,2930000,4,3.5,HILLSBOROUGH,2990,34251,1937,175,980,,Sold,,,http://www.redfin.com/CA/Hillsborough/1025-Merner-Rd-94010/home/1972991,MLSListings,ML81669414,N,Y,37.5499341,-122.3446477
PAST SALE,August-9-2016,Single Family Residential,90 W Avondale Rd,HILLSBOROUGH,CA,94010,2800000,4,3.5,HILLSBOROUGH,2810,15494,1960,539,996,,Sold,,,http://www.redfin.com/CA/Hillsborough/90-Avondale-Rd-94010/home/732173,MLSListings,ML81584421,N,Y,37.5457662,-122.3604763
PAST SALE,July-1-2016,Single Family Residential,1880 Black Mountain Rd,HILLSBOROUGH,CA,94010,2895000,4,3.5,HILLSBOROUGH,3015,22350,1953,578,960,,Sold,,,http://www.redfin.com/CA/Hillsborough/1880-Black-Mountain-Rd-94010/home/1057698,MLSListings,ML81586837,N,Y,37.5483157,-122.3698537
PAST SALE,May-12-2016,Single Family Residential,775 Bowhill Rd,HILLSBOROUGH,CA,94010,2660000,4,3.5,HILLSBOROUGH,3360,31200,1958,628,792,,Sold,,,http://www.redfin.com/CA/Hillsborough/775-Bowhill-Rd-94010/home/1665504,MLSListings,ML81548803,N,Y,37.553572,-122.340092
PAST SALE,June-13-2016,Single Family Residential,590 Remillard Dr,HILLSBOROUGH,CA,94010,3300000,3,3.5,HILLSBOROUGH,3100,21605,1957,596,1065,,Sold,,,http://www.redfin.com/CA/Hillsborough/590-Remillard-Dr-94010/home/1581758,MLSListings,ML81548628,N,Y,37.5554359,-122.3697146
PAST SALE,August-31-2016,Single Family Residential,2780 Churchill Dr,HILLSBOROUGH,CA,94010,2850000,5,3.5,HILLSBOROUGH,3680,33048,1986,517,774,,Sold,,,http://www.redfin.com/CA/Hillsborough/2780-Churchill-Dr-94010/home/2054990,MLSListings,ML81595688,N,Y,37.5690625,-122.3829369
PAST SALE,June-22-2016,Single Family Residential,5 Tiara Ct,BURLINGAME,CA,94010,2150000,4,3.5,BURLINGAME,3780,16060,1979,587,569,,Sold,,,http://www.redfin.com/CA/Burlingame/5-Tiara-Ct-94010/home/684617,MLSListings,ML81563907,N,Y,37.5729174,-122.3876292
PAST SALE,May-1-2017,Single Family Residential,254 W 3rd Ave,SAN MATEO,CA,94402,2700000,5,3.5,SAN MATEO,4630,8010,1929,274,583,,Sold,,,http://www.redfin.com/CA/San-Mateo/254-W-3rd-Ave-94402/home/1522034,MLSListings,ML81643765,N,Y,37.5597252,-122.330765
PAST SALE,July-5-2016,Single Family Residential,35 Tiptoe Ln,HILLSBOROUGH,CA,94010,2475000,4,3.5,HILLSBOROUGH,3160,24049,1965,574,783,,Sold,,,http://www.redfin.com/CA/Hillsborough/35-Tiptoe-Ln-94010/home/1998606,MLSListings,ML81580291,N,Y,37.568646,-122.3900502
PAST SALE,,Single Family Residential,553 Ravenscourt Rd,Hillsborough,CA,94010,2179500,4,4.0,,4730,24000,1929,,461,,,,,http://www.redfin.com/CA/Hillsborough/553-Ravenscourt-Rd-94010/home/2049320,,,N,Y,37.5624461,-122.3476274
PAST SALE,,Single Family Residential,638 Woodstock Rd,Hillsborough,CA,94010,4300000,5,4.0,,3297,15000,1928,,1304,,,,,http://www.redfin.com/CA/Hillsborough/638-Woodstock-Rd-94010/home/699056,,,N,Y,37.5621217,-122.3495126
PAST SALE,August-25-2017,Single Family Residential,2298 Forest View Ave,HILLSBOROUGH,CA,94010,3225000,4,4.0,HILLSBOROUGH,3700,22216,1978,158,872,,Sold,,,http://www.redfin.com/CA/Hillsborough/2298-Forest-View-Ave-94010/home/1087049,MLSListings,ML81648864,N,Y,37.5731701,-122.3775481
PAST SALE,,Single Family Residential,1750 Crockett Ln,Hillsborough,CA,94010,4725000,4,3.0,,2980,30492,1950,,1586,,,,,http://www.redfin.com/CA/Hillsborough/1750-Crockett-Ln-94010/home/1941193,,,N,Y,37.5790926,-122.3656618
PAST SALE,March-31-2016,Single Family Residential,244 Roblar Ave,HILLSBOROUGH,CA,94010,3150000,4,4.0,HILLSBOROUGH,2235,13503,1948,670,1409,,Sold,,,http://www.redfin.com/CA/Hillsborough/244-Roblar-Ave-94010/home/1590251,MLSListings,ML81562651,N,Y,37.5653504,-122.3385535
PAST SALE,February-3-2017,Single Family Residential,810 Lombardi Ln,HILLSBOROUGH,CA,94010,4950000,4,4.0,HILLSBOROUGH,4260,34848,1930,361,1162,,Sold,,,http://www.redfin.com/CA/Hillsborough/810-Lombardi-Ln-94010/home/2055004,MLSListings,ML81636204,N,Y,37.5559031,-122.348831
PAST SALE,,Single Family Residential,1124 Barroilhet Ave,Hillsborough,CA,94010,4325000,4,4.0,,5050,22651,1972,,856,,,,,http://www.redfin.com/CA/Hillsborough/1124-Barroilhet-Ave-94010/home/1807106,,,N,Y,37.5669187,-122.3605227
PAST SALE,,Single Family Residential,610 Sharon Ave,Hillsborough,CA,94010,750000,4,4.0,,3980,17700,1951,,188,,,,,http://www.redfin.com/CA/Hillsborough/610-Sharon-Ave-94010/home/1532212,,,N,Y,37.5753263,-122.3590143
PAST SALE,,Single Family Residential,2160 Geri Ln,Hillsborough,CA,94010,1052000,6,4.0,,5190,43560,1946,,203,,,,,http://www.redfin.com/CA/Hillsborough/2160-Geri-Ln-94010/home/2024220,,,N,Y,37.5726477,-122.3700566
PAST SALE,November-13-2017,Single Family Residential,2257 Oakdale Rd,HILLSBOROUGH,CA,94010,4160000,4,4.0,HILLSBOROUGH,3110,15655,1948,78,1338,,Sold,,,http://www.redfin.com/CA/Hillsborough/2257-Oakdale-Rd-94010/home/1210518,MLSListings,ML81680038,N,Y,37.5750573,-122.3742065
PAST SALE,July-7-2017,Single Family Residential,518 Parrott Dr,SAN MATEO,CA,94402,3388000,4,4.0,SAN MATEO,2780,8280,1933,207,1219,,Sold,,,http://www.redfin.com/CA/San-Mateo/518-Parrott-Dr-94402/home/1013243,MLSListings,ML81655265,N,Y,37.5548889,-122.3341029
PAST SALE,,Single Family Residential,2135 Geri Ln,Hillsborough,CA,94010,1523000,4,3.0,,2937,21450,1950,,519,,,,,http://www.redfin.com/CA/Hillsborough/2135-Geri-Ln-94010/home/683507,,,N,Y,37.5738549,-122.3688468
PAST SALE,May-27-2016,Single Family Residential,3990 Ralston Ave,HILLSBOROUGH,CA,94010,3850000,4,4.0,HILLSBOROUGH,3750,22398,1951,613,1027,,Sold,,,http://www.redfin.com/CA/Hillsborough/3990-Ralston-Ave-94010/home/1956115,MLSListings,ML81581341,N,Y,37.5511434,-122.3731831
PAST SALE,April-12-2017,Single Family Residential,25 Saint Francis Rd,HILLSBOROUGH,CA,94010,4600000,5,4.0,HILLSBOROUGH,3950,23087,1959,293,1165,,Sold,,,http://www.redfin.com/CA/Hillsborough/25-Saint-Francis-Rd-94010/home/1606871,MLSListings,ML81646565,N,Y,37.5599075,-122.3345193
PAST SALE,,Single Family Residential,2725 Ralston Ave,Hillsborough,CA,94010,3850000,5,4.0,,4290,34848,1979,,897,,,,,http://www.redfin.com/CA/Hillsborough/2725-Ralston-Ave-94010/home/697740,,,N,Y,37.563886,-122.363994
PAST SALE,,Single Family Residential,2656 Summit Dr,Hillsborough,CA,94010,2390000,4,4.0,,3060,39509,1969,,781,,,,,http://www.redfin.com/CA/Hillsborough/2656-Summit-Dr-94010/home/1971647,,,N,Y,37.5751666,-122.384289
PAST SALE,November-1-2017,Single Family Residential,391 El Portal,SAN MATEO,CA,94402,2800000,5,4.0,SAN MATEO,3040,9804,1925,90,921,,Sold,,,http://www.redfin.com/CA/San-Mateo/391-El-Portal-Ave-94402/home/698198,MLSListings,ML81677159,N,Y,37.5641913,-122.3466486
PAST SALE,November-17-2017,Single Family Residential,105 Glengarry Way,HILLSBOROUGH,CA,94010,2850000,5,4.0,HILLSBOROUGH,4270,23958,1978,74,667,,Sold,,,http://www.redfin.com/CA/Hillsborough/105-Glengar-Way-94010/home/735566,MLSListings,ML81673530,N,Y,37.5393287,-122.3571075
PAST SALE,,Single Family Residential,35 Genevra Rd,Hillsborough,CA,94010,4280000,4,4.0,,3105,21750,1956,,1378,,,,,http://www.redfin.com/CA/Hillsborough/35-Genevra-Rd-94010/home/2053123,,,N,Y,37.5738261,-122.3561911
PAST SALE,,Single Family Residential,2125 Parkside Ave,Hillsborough,CA,94010,985000,5,4.0,,3630,20140,1938,,271,,,,,http://www.redfin.com/CA/Hillsborough/2125-Parkside-Ave-94010/home/1998590,,,N,Y,37.5685702,-122.3560937
PAST SALE,,Single Family Residential,1 Homs Ct,Hillsborough,CA,94010,7700000,7,7.0,,9480,61855,1904,,812,,,,,http://www.redfin.com/CA/Hillsborough/1-Homs-Ct-94010/home/704073,,,N,Y,37.5639525,-122.3353089
PAST SALE,April-12-2016,Single Family Residential,340 Barbara Way,HILLSBOROUGH,CA,94010,3750000,4,4.0,HILLSBOROUGH,3164,22498,1953,658,1185,,Sold,,,http://www.redfin.com/CA/Hillsborough/340-Barbara-Way-94010/home/690497,MLSListings,ML81563757,N,Y,37.5484016,-122.3662285
PAST SALE,October-3-2016,Single Family Residential,210 Robin Rd,HILLSBOROUGH,CA,94010,4700000,4,4.0,HILLSBOROUGH,3636,87120,1963,484,1293,,Sold,,,http://www.redfin.com/CA/Hillsborough/210-Robin-Rd-94010/home/1781437,MLSListings,ML81597363,N,Y,37.5567432,-122.3619537
PAST SALE,,Single Family Residential,869 Culebra Rd,Hillsborough,CA,94010,13250000,6,6.0,,8065,97680,1931,,1643,,,,,http://www.redfin.com/CA/Hillsborough/869-Culebra-Rd-94010/home/1108088,,,N,Y,37.5544935,-122.3452054
PAST SALE,March-10-2017,Single Family Residential,259 W 3rd Ave,SAN MATEO,CA,94402,3175000,5,4.0,SAN MATEO,3300,8380,1931,326,962,,Sold,,,http://www.redfin.com/CA/San-Mateo/259-W-3rd-Ave-94402/home/1822403,MLSListings,ML81614806,N,Y,37.5591924,-122.3309246
PAST SALE,February-23-2016,Single Family Residential,250 Bridge Rd,HILLSBOROUGH,CA,94010,6300000,5,4.0,HILLSBOROUGH,4379,16988,2016,707,1439,,Sold,,,http://www.redfin.com/CA/Hillsborough/250-Bridge-Rd-94010/home/1107403,MLSListings,ML81550066,N,Y,37.5603562,-122.3389451
PAST SALE,April-18-2016,Single Family Residential,80 Fagan Dr,HILLSBOROUGH,CA,94010,3925000,4,4.0,HILLSBOROUGH,3630,24829,1973,652,1081,,Sold,,,http://www.redfin.com/CA/Hillsborough/80-Fagan-Dr-94010/home/2004885,MLSListings,ML81580838,N,Y,37.5775593,-122.3749334
PAST SALE,July-7-2016,Single Family Residential,20 Madrone Pl,HILLSBOROUGH,CA,94010,4400000,6,4.0,HILLSBOROUGH,3660,21344,1961,572,1202,,Sold,,,http://www.redfin.com/CA/Hillsborough/20-Madrone-Pl-94010/home/683680,MLSListings,ML81483867,N,Y,37.5728351,-122.3610407
PAST SALE,,Single Family Residential,839 Seabury Rd,Hillsborough,CA,94010,14000000,4,4.0,,5600,50091,2008,,2500,,,,,http://www.redfin.com/CA/Hillsborough/839-Seabury-Rd-94010/home/1304607,,,N,Y,37.5669626,-122.3537121
PAST SALE,October-18-2016,Single Family Residential,515 Warren Rd,SAN MATEO,CA,94402,2800000,5,4.0,SAN MATEO,3390,8398,1939,469,826,,Sold,,,http://www.redfin.com/CA/San-Mateo/515-Warren-Rd-94402/home/694475,MLSListings,ML81613261,N,Y,37.567996,-122.3492681
PAST SALE,March-15-2016,Single Family Residential,1520 Oak Rim Dr,HILLSBOROUGH,CA,94010,2950000,4,4.0,HILLSBOROUGH,3012,19166,1956,686,979,,Sold,,,http://www.redfin.com/CA/Hillsborough/1520-Oak-Rim-Dr-94010/home/1024773,MLSListings,ML81547069,N,Y,37.5381738,-122.3595556
PAST SALE,June-24-2016,Single Family Residential,428 Roblar Ave,HILLSBOROUGH,CA,94010,5637500,4,4.0,HILLSBOROUGH,5950,19950,1937,585,947,,Sold,,,http://www.redfin.com/CA/Hillsborough/428-Roblar-Ave-94010/home/1765209,MLSListings,ML81550343,N,Y,37.5633324,-122.3421488
PAST SALE,September-15-2016,Single Family Residential,670 Edgewood Rd,SAN MATEO,CA,94402,2925000,4,4.0,SAN MATEO,3080,7980,1927,502,950,,Sold,,,http://www.redfin.com/CA/San-Mateo/670-Edgewood-Rd-94402/home/1565145,MLSListings,ML81595589,N,Y,37.567997,-122.349833
PAST SALE,,Single Family Residential,25 Aster Ave,Hillsborough,CA,94010,7700000,5,6.0,,6300,26968,1987,,1222,,,,,http://www.redfin.com/CA/Hillsborough/25-Aster-Ave-94010/home/1181013,,,N,Y,37.5702834,-122.3549816
