SALE TYPE,SOLD DATE,PROPERTY TYPE,ADDRESS,CITY,STATE,ZIP,PRICE,BEDS,BATHS,LOCATION,SQUARE FEET,LOT SIZE,YEAR BUILT,DAYS ON MARKET,$/SQUARE FEET,HOA/MONTH,STATUS,NEXT OPEN HOUSE START TIME,NEXT OPEN HOUSE END TIME,URL (SEE http://www.redfin.com/buy-a-home/comparative-market-analysis FOR INFO ON PRICING),SOURCE,MLS#,FAVORITE,INTERESTED,LATITUDE,LONGITUDE
PAST SALE,January-12-2018,Multi-Family (2-4 Unit),641 65Th St,Oakland,CA,94609,1620000,6,3.0,Oakland,2757,4800,1923,26,588,,Sold,,,http://www.redfin.com/CA/Oakland/641-65th-St-94609/home/531372,EBRD/CCAR/Bay East,40804715,N,Y,37.8503947,-122.2639903
PAST SALE,November-16-2016,Single Family Residential,475 INDIAN HILL Pl,Fremont,CA,94539,1450000,5,2.5,Weibel,2356,8236,1975,448,615,,Sold,,,http://www.redfin.com/CA/Fremont/475-Indian-Hill-Pl-94539/home/1266375,EBRD/CCAR/Bay East,40756793,N,Y,37.5031216,-121.9242907
PAST SALE,November-22-2017,Single Family Residential,5515 Civic Terrace Ave,Newark,CA,94560,790000,3,3.0,Newark,1455,2700,1987,77,543,119,Sold,,,http://www.redfin.com/CA/Newark/5515-Civic-Terrace-Ave-94560/home/2046403,EBRD/CCAR/Bay East,40800848,N,Y,37.541277,-122.025207
PAST SALE,September-6-2017,Townhouse,44 Glashaus Loop,Emeryville,CA,94608,716888,2,2.5,Emeryville,1121,,2007,154,640,210,Sold,,,http://www.redfin.com/CA/Emeryville/44-Glashaus-Loop-94608/home/17185729,EBRD/CCAR/Bay East,40785663,N,Y,37.846639,-122.290397
PAST SALE,July-19-2017,Single Family Residential,33159 8Th St,Union City,CA,94587,635000,3,2.0,Union City,1139,5000,1951,203,558,,Sold,,,http://www.redfin.com/CA/Union-City/33159-8th-St-94587/home/1601508,EBRD/CCAR/Bay East,40784232,N,Y,37.6041122,-122.0266376
PAST SALE,August-30-2017,Single Family Residential,1076 Aileen St,Oakland,CA,94608,755000,3,1.5,Oakland,1392,3808,1917,161,542,,Sold,,,http://www.redfin.com/CA/Oakland/1076-Aileen-St-94608/home/1764153,EBRD/CCAR/Bay East,40787925,N,Y,37.839973,-122.28156
PAST SALE,March-22-2016,Condo/Co-op,7145 Dublin Meadows St Unit C,Dublin,CA,94568,545000,3,2.0,Alamo Creek,1215,,1992,687,449,293,Sold,,,http://www.redfin.com/CA/Dublin/7145-Dublin-Meadows-St-94568/unit-C/home/802945,EBRD/CCAR/Bay East,40729492,N,Y,37.717137,-121.91327
PAST SALE,July-28-2017,Single Family Residential,5794 Saint Matthew Dr,Newark,CA,94560,855000,4,2.5,Newark,1812,7686,1974,194,472,,Sold,,,http://www.redfin.com/CA/Newark/5794-Saint-Matthew-Dr-94560/home/1941079,EBRD/CCAR/Bay East,40786214,N,Y,37.537628,-122.024869
PAST SALE,March-29-2016,Single Family Residential,7897 SHOREHAVEN Ave,Newark,CA,94560,740000,3,2.0,Newark,1482,8520,1969,680,499,,Sold,,,http://www.redfin.com/CA/Newark/7897-Shorehaven-Ave-94560/home/1256361,EBRD/CCAR/Bay East,40729114,N,Y,37.5341123,-122.0517848
PAST SALE,July-28-2017,Single Family Residential,1839 63Rd St,Berkeley,CA,94703,860000,2,1.0,Santa Fe,1092,4455,1907,194,788,,Sold,,,http://www.redfin.com/CA/Berkeley/1839-63rd-St-94703/home/1309093,EBRD/CCAR/Bay East,40787457,N,Y,37.848338,-122.269522
PAST SALE,June-7-2016,Condo/Co-op,4279 Fitzwilliam St,Dublin,CA,94568,693000,3,2.5,Dublin Ranch,2176,,2005,610,318,245,Sold,,,http://www.redfin.com/CA/Dublin/4279-Fitzwilliam-St-94568/home/2112881,EBRD/CCAR/Bay East,40734413,N,Y,37.707128,-121.862226
PAST SALE,December-15-2017,Multi-Family (2-4 Unit),2127 E 21St St,Oakland,CA,94606,639000,4,2.0,Oakland,1500,1850,1906,54,426,,Sold,,,http://www.redfin.com/CA/Oakland/2127-E-21st-St-94606/home/1476727,EBRD/CCAR/Bay East,40787388,N,Y,37.789672,-122.233703
PAST SALE,October-28-2016,Single Family Residential,15702 VIA PUNTA,San Lorenzo,CA,94580,525000,3,1.0,S Lorenzo Vil,986,11088,1944,467,532,8,Sold,,,http://www.redfin.com/CA/San-Lorenzo/15702-Via-Punta-94580/home/1311671,EBRD/CCAR/Bay East,40753119,N,Y,37.684196,-122.1356155
PAST SALE,November-30-2017,Single Family Residential,6155 Bridgestone Cir,Dublin,CA,94568,945000,3,2.5,Dublin Ranch,1862,3083,2000,69,508,120,Sold,,,http://www.redfin.com/CA/Dublin/6155-Bridgestone-Cir-94568/home/1538227,EBRD/CCAR/Bay East,40801163,N,Y,37.724569,-121.870951
PAST SALE,April-13-2017,Single Family Residential,5618 Dover St,Oakland,CA,94609,900000,3,2.0,Nobe,1176,4400,1910,300,765,,Sold,,,http://www.redfin.com/CA/Oakland/5618-Dover-St-94609/home/2040178,EBRD/CCAR/Bay East,40768867,N,Y,37.8414267,-122.2672224
PAST SALE,November-30-2017,Townhouse,800 Old Oak Ln #4,Hayward,CA,94541,586000,3,2.5,Hayward,1303,1201,2011,69,450,211,Sold,,,http://www.redfin.com/CA/Hayward/800-Old-Oak-Ln-94541/unit-4/home/22682694,EBRD/CCAR/Bay East,40801289,N,Y,37.6650673,-122.0989584
PAST SALE,October-31-2017,Single Family Residential,38393 Amaryllis Pl,Newark,CA,94560,1257000,4,3.0,Newark,2708,6016,2003,99,464,,Sold,,,http://www.redfin.com/CA/Newark/38393-Amaryllis-Pl-94560/home/1227636,EBRD/CCAR/Bay East,40794202,N,Y,37.5320188,-122.0105244
PAST SALE,May-24-2017,Multi-Family (2-4 Unit),37069 Olive St,Newark,CA,94560,790000,5,3.0,Newark,1542,7500,1960,259,512,,Sold,,,http://www.redfin.com/CA/Newark/37069-Olive-St-94560/home/1552474,EBRD/CCAR/Bay East,40774110,N,Y,37.5300563,-122.0342115
PAST SALE,March-1-2017,Condo/Co-op,1201 Pine St #118,Oakland,CA,94607,468000,1,1.0,Central Station-Pacific Cannery,843,,2009,343,555,289,Sold,,,http://www.redfin.com/CA/Oakland/1201-Pine-St-94607/unit-118/home/22961823,EBRD/CCAR/Bay East,40767460,N,Y,37.8128311,-122.3005557
PAST SALE,March-29-2017,Single Family Residential,27962 Dobbel Ave,Hayward,CA,94542,750000,3,2.5,Hayward Hills,1808,9168,1978,315,415,,Sold,,,http://www.redfin.com/CA/Hayward/27962-Dobbel-Ave-94542/home/1422174,EBRD/CCAR/Bay East,40772456,N,Y,37.6510995,-122.0396806
PAST SALE,June-30-2017,Single Family Residential,4706 Westwood Ct,Dublin,CA,94568,1335000,5,4.0,Summerglen,3790,7032,2000,222,352,45,Sold,,,http://www.redfin.com/CA/Dublin/4706-Westwood-Ct-94568/home/1797163,EBRD/CCAR/Bay East,40783639,N,Y,37.7099063,-121.8812346
PAST SALE,April-14-2017,Single Family Residential,1616 67Th Ave,Oakland,CA,94621,455000,3,2.0,Havenscourt,1430,3000,1924,299,318,,Sold,,,http://www.redfin.com/CA/Oakland/1616-67th-Ave-94621/home/1758062,EBRD/CCAR/Bay East,40767789,N,Y,37.7634246,-122.1892842
PAST SALE,April-13-2016,Single Family Residential,36241 INDIAN WELLS Dr,Newark,CA,94560,775000,3,2.0,Newark,1464,7965,1963,665,529,,Sold,,,http://www.redfin.com/CA/Newark/36241-Indian-Wells-Dr-94560/home/1660556,EBRD/CCAR/Bay East,40729923,N,Y,37.5363051,-122.0496018
PAST SALE,August-10-2016,Condo/Co-op,77 FAIRMOUNT Ave #304,Oakland,CA,94611,625000,2,2.0,Adams Point,1054,,1970,546,593,320,Sold,,,http://www.redfin.com/CA/Oakland/77-Fairmount-Ave-94611/unit-304/home/2113369,EBRD/CCAR/Bay East,40748006,N,Y,37.8158963,-122.2603859
PAST SALE,October-24-2017,Townhouse,18 Starview Dr,Oakland,CA,94618,1300000,2,3.0,Hiller Highlands,2252,2464,1994,106,577,186,Sold,,,http://www.redfin.com/CA/Oakland/18-Starview-Dr-94618/home/626561,EBRD/CCAR/Bay East,40797820,N,Y,37.852148,-122.2282263
PAST SALE,December-18-2017,Single Family Residential,6923 Bristol Dr,Berkeley,CA,94705,1120000,4,3.5,Claremont Hills,3601,6922,1995,51,311,,Sold,,,http://www.redfin.com/CA/Berkeley/6923-Bristol-Dr-94705/home/632760,EBRD/CCAR/Bay East,40801225,N,Y,37.8575478,-122.2237068
PAST SALE,September-5-2017,Single Family Residential,4009 Malcolm Ave,Oakland,CA,94605,740000,3,2.5,Chabot Park,1948,9086,1960,155,380,,Sold,,,http://www.redfin.com/CA/Oakland/4009-Malcolm-Ave-94605/home/1993133,EBRD/CCAR/Bay East,40787391,N,Y,37.7508175,-122.1349989
PAST SALE,December-6-2016,Condo/Co-op,3399 Smoketree Commons Dr,Pleasanton,CA,94566,455000,2,2.0,Downtown Area,938,,1988,428,485,419,Sold,,,http://www.redfin.com/CA/Pleasanton/3399-Smoketree-Commons-Dr-94566/unit-144/home/803590,EBRD/CCAR/Bay East,40755275,N,Y,37.6644689,-121.85562
PAST SALE,January-24-2017,Townhouse,27740 Hummingbird Ct,Hayward,CA,94545,395000,2,1.5,Glen Eden,988,817,1971,379,400,268,Sold,,,http://www.redfin.com/CA/Hayward/27740-Hummingbird-Ct-94545/home/1013197,EBRD/CCAR/Bay East,40765774,N,Y,37.625572,-122.098198
PAST SALE,October-31-2017,Single Family Residential,6808 Syrah Dr,Dublin,CA,94568,1210000,4,3.0,Dublin,2716,4226,2015,99,446,103,Sold,,,http://www.redfin.com/CA/Dublin/6808-Syrah-Dr-94568/home/40628139,EBRD/CCAR/Bay East,40797909,N,Y,37.7344065,-121.8653907
PAST SALE,July-19-2016,Condo/Co-op,6159 THORNTON Ave Unit B,Newark,CA,94560,553000,3,2.5,Foxwood,1383,29479,1987,568,400,330,Sold,,,http://www.redfin.com/CA/Newark/6159-Thornton-Ave-94560/unit-B/home/870047,EBRD/CCAR/Bay East,40746042,N,Y,37.536382,-122.033808
PAST SALE,September-29-2017,Townhouse,22801 Paseo Pl,Hayward,CA,94541,562000,3,3.0,Hayward,1595,,2004,131,352,320,Sold,,,http://www.redfin.com/CA/Hayward/22801-Paseo-Pl-94541/home/1442983,EBRD/CCAR/Bay East,40795059,N,Y,37.6684107,-122.0837251
PAST SALE,May-31-2017,Condo/Co-op,1327 Webster St Unit B201,Alameda,CA,94501,445000,2,1.0,Park Webster,843,36939,1970,252,528,439,Sold,,,http://www.redfin.com/CA/Alameda/1327-Webster-St-94501/unit-B201/home/928810,EBRD/CCAR/Bay East,40776914,N,Y,37.7702455,-122.2778844
PAST SALE,June-9-2017,Single Family Residential,16659 Kildare Rd,San Leandro,CA,94578,775000,3,2.5,San Leandro,1659,5500,1966,243,467,,Sold,,,http://www.redfin.com/CA/San-Leandro/16659-Kildare-Rd-94578/home/823033,EBRD/CCAR/Bay East,40779171,N,Y,37.7011269,-122.0981779
PAST SALE,October-31-2017,Single Family Residential,5481 Cumberland Park Ct,Fremont,CA,94538,1050000,4,2.0,Fremont,1736,7920,1962,99,605,,Sold,,,http://www.redfin.com/CA/Fremont/5481-Cumberland-Park-Ct-94538/home/1115904,EBRD/CCAR/Bay East,40796660,N,Y,37.515874,-121.9718001
PAST SALE,September-6-2017,Townhouse,5589 Azalea Way,Newark,CA,94560,849000,4,3.5,Newark,2026,,2016,154,419,198,Sold,,,http://www.redfin.com/CA/Newark/5589-Azalea-Way-94560/home/142995699,EBRD/CCAR/Bay East,40790781,N,Y,37.5356772,-122.0149812
PAST SALE,June-16-2017,Condo/Co-op,1409 Oxford #6,Berkeley,CA,94709-1457,850000,3,2.0,Berkeley,1146,,1962,236,742,320,Sold,,,http://www.redfin.com/CA/Berkeley/1409-Oxford-St-94709/unit-6/home/1291896,EBRD/CCAR/Bay East,40779990,N,Y,37.8820149,-122.2668806
PAST SALE,December-5-2017,Single Family Residential,1206 41St Ave,Oakland,CA,94601,425000,2,1.0,Fruitvale,871,2775,1912,64,488,,Sold,,,http://www.redfin.com/CA/Oakland/1206-41st-Ave-94601/home/1196211,EBRD/CCAR/Bay East,40802935,N,Y,37.7724663,-122.2177188
PAST SALE,October-28-2016,Single Family Residential,494 PAGODA Ter,Fremont,CA,94539,1035000,4,3.0,Warm Springs,2003,,2008,467,517,80,Sold,,,http://www.redfin.com/CA/Fremont/494-Pagoda-Ter-94539/home/21928369,EBRD/CCAR/Bay East,40752032,N,Y,37.4624744,-121.9167399
PAST SALE,September-8-2016,Single Family Residential,1371 Martha St,Livermore,CA,94550,665000,3,2.0,Livermore,1651,6000,1963,517,403,,Sold,,,http://www.redfin.com/CA/Livermore/1371-Martha-St-94550/home/915565,EBRD/CCAR/Bay East,40751034,N,Y,37.6824549,-121.7286358
PAST SALE,August-25-2016,Single Family Residential,1105 HIGH Ct,Berkeley,CA,94708,1200000,3,2.5,N Berkeley,2924,4802,1938,531,410,,Sold,,,http://www.redfin.com/CA/Berkeley/1105-High-Ct-94708/home/1621004,EBRD/CCAR/Bay East,40745159,N,Y,37.8886791,-122.263981
PAST SALE,December-22-2016,Single Family Residential,3819 Buell St,Oakland,CA,94619,630000,3,2.5,Upper Laurel,1628,,2003,412,387,75,Sold,,,http://www.redfin.com/CA/Oakland/3819-Buell-St-94619/home/1231777,EBRD/CCAR/Bay East,40761539,N,Y,37.786385,-122.186625
PAST SALE,May-12-2016,Townhouse,65 HARVEY Ter,Fremont,CA,94536,630000,2,2.5,Niles,1213,1500,1984,636,519,375,Sold,,,http://www.redfin.com/CA/Fremont/65-Harvey-Ter-94536/home/1068674,EBRD/CCAR/Bay East,40735163,N,Y,37.581292,-121.99261
PAST SALE,August-14-2017,Single Family Residential,6427 Almaden Way,Livermore,CA,94551,726000,3,2.0,Creekside,1630,5062,2001,177,445,,Sold,,,http://www.redfin.com/CA/Livermore/6427-Almaden-Way-94551/home/1478223,EBRD/CCAR/Bay East,40786354,N,Y,37.7124905,-121.7186194
PAST SALE,March-22-2017,Single Family Residential,542 Selby Ln,Livermore,CA,94551,832500,3,2.5,Montage,2021,2759,2013,322,412,149,Sold,,,http://www.redfin.com/CA/Livermore/542-Selby-Ln-94551/home/22652027,EBRD/CCAR/Bay East,40770341,N,Y,37.7091304,-121.7984188
PAST SALE,May-22-2017,Condo/Co-op,180 Caldecott #115,Oakland,CA,94618-2401,435000,1,1.0,Parkwoods,773,,1995,261,563,426,Sold,,,http://www.redfin.com/CA/Oakland/180-Caldecott-Ln-94618/unit-115/home/1533926,EBRD/CCAR/Bay East,40779943,N,Y,37.8557192,-122.2202777
PAST SALE,September-20-2017,Single Family Residential,2716 Wallace St,Berkeley,CA,94702,804000,2,1.0,San Pablo Park,1185,3850,1929,140,678,,Sold,,,http://www.redfin.com/CA/Berkeley/2716-Wallace-St-94702/home/663722,EBRD/CCAR/Bay East,40791919,N,Y,37.8563749,-122.2871232
PAST SALE,December-23-2016,Single Family Residential,6959 NORFOLK Rd,Berkeley,CA,94705,1225000,4,3.5,Claremont Hills,2939,8698,1995,411,417,,Sold,,,http://www.redfin.com/CA/Berkeley/6959-Norfolk-Rd-94705/home/1619669,EBRD/CCAR/Bay East,40759820,N,Y,37.859209469,-122.2250143
PAST SALE,June-30-2016,Condo/Co-op,4605 RIMINI Ct #32,Dublin,CA,94568,840000,3,2.5,Dublin Ranch,2163,,2007,587,388,373,Sold,,,http://www.redfin.com/CA/Dublin/4605-Rimini-Ct-94568/unit-32/home/17183191,EBRD/CCAR/Bay East,40737331,N,Y,37.7103334,-121.8677889
PAST SALE,April-8-2016,Single Family Residential,34348 TORREY PINE Ln,Union City,CA,94587,980000,5,3.5,Ashford Place,2671,6359,2000,670,367,63,Sold,,,http://www.redfin.com/CA/Union-City/34348-Torrey-Pine-Ln-94587/home/1208595,EBRD/CCAR/Bay East,40732383,N,Y,37.593919,-122.010273
PAST SALE,November-15-2017,Townhouse,3760 39Th Ave Unit H,Oakland,CA,94619,575000,2,2.5,Laurel Heights,1094,,1993,84,526,310,Sold,,,http://www.redfin.com/CA/Oakland/3760-39th-Ave-94619/unit-H/home/1250374,EBRD/CCAR/Bay East,40798718,N,Y,37.79078,-122.194564
PAST SALE,October-9-2017,Single Family Residential,57 Tunnel Rd,Berkeley,CA,94705,1490000,3,2.5,Claremont,1780,5560,1930,121,837,,Sold,,,http://www.redfin.com/CA/Berkeley/57-Tunnel-Rd-94705/home/1270962,EBRD/CCAR/Bay East,40795748,N,Y,37.8570176,-122.2413433
PAST SALE,May-5-2017,Single Family Residential,7932 Cranford Ln,Dublin,CA,94568,790000,3,2.0,Village Parkway,1116,6600,1962,278,708,,Sold,,,http://www.redfin.com/CA/Dublin/7932-Cranford-Ln-94568/home/1247707,EBRD/CCAR/Bay East,40775344,N,Y,37.7175273,-121.9284339
PAST SALE,May-8-2017,Single Family Residential,777 Ridgeview Ter,Fremont,CA,94536,931000,4,3.0,The Orchards,1527,3325,1988,275,610,85,Sold,,,http://www.redfin.com/CA/Fremont/777-Ridgeview-Ter-94536/home/1768522,EBRD/CCAR/Bay East,40775946,N,Y,37.5642627,-121.9719102
PAST SALE,June-23-2017,Single Family Residential,3524 Suter St,Oakland,CA,94619,502000,2,2.0,Allendale,750,3886,1922,229,669,,Sold,,,http://www.redfin.com/CA/Oakland/3524-Suter-St-94619/home/1376582,EBRD/CCAR/Bay East,40783338,N,Y,37.7911307,-122.2039062
PAST SALE,January-19-2017,Townhouse,22542 Amador St #1,Hayward,CA,94541,565000,3,2.5,Hayward,1527,1285,2010,384,370,211,Sold,,,http://www.redfin.com/CA/Hayward/22542-Amador-St-94541/unit-1/home/22671238,EBRD/CCAR/Bay East,40765768,N,Y,37.6658262,-122.100284
PAST SALE,July-20-2017,Single Family Residential,4265 Remora Dr,Union City,CA,94587,1060000,5,3.0,Union City,2356,4868,1993,202,450,16,Sold,,,http://www.redfin.com/CA/Union-City/4265-Remora-Dr-94587/home/1029178,EBRD/CCAR/Bay East,40786213,N,Y,37.5940129,-122.08288
PAST SALE,June-29-2016,Condo/Co-op,7445 BRIGADOON Way,Dublin,CA,94568,675000,3,2.5,Highlands,1520,,1996,588,444,325,Sold,,,http://www.redfin.com/CA/Dublin/7445-Brigadoon-Way-94568/unit-227/home/1185009,EBRD/CCAR/Bay East,40741322,N,Y,37.701146,-121.958005
PAST SALE,April-27-2016,Condo/Co-op,3674 Aviano Way,Dublin,CA,94568,865000,3,3.0,Dublin Ranch,2322,,2013,651,373,347,Sold,,,http://www.redfin.com/CA/Dublin/3674-Aviano-Way-94568/home/40087491,EBRD/CCAR/Bay East,40731936,N,Y,37.7112501,-121.8671734
PAST SALE,January-11-2017,Single Family Residential,484 Maud Ave,San Leandro,CA,94577,670000,2,1.0,Assumption Parsh,1352,6149,1941,392,496,,Sold,,,http://www.redfin.com/CA/San-Leandro/484-Maud-Ave-94577/home/1955149,EBRD/CCAR/Bay East,40765619,N,Y,37.7231789,-122.1487125
PAST SALE,December-19-2017,Single Family Residential,2100 109Th Ave,Oakland,CA,94603,550000,4,2.0,Durant Manor,1328,3737,1941,50,414,,Sold,,,http://www.redfin.com/CA/Oakland/2100-109th-Ave-94603/home/1458917,EBRD/CCAR/Bay East,40803330,N,Y,37.7390311,-122.1571958
PAST SALE,August-31-2017,Townhouse,34134 Chamberlain Ter,Fremont,CA,94555,555000,2,1.5,Fremont,988,780,1970,160,562,270,Sold,,,http://www.redfin.com/CA/Fremont/34134-Chamberlain-Ter-94555/home/1817652,EBRD/CCAR/Bay East,40791641,N,Y,37.577037,-122.038121
PAST SALE,October-25-2016,Single Family Residential,3826 MARKET St,Oakland,CA,94608,810000,3,3.0,North Oakland,1864,3100,1912,470,435,,Sold,,,http://www.redfin.com/CA/Oakland/3826-Market-St-94608/home/527567,EBRD/CCAR/Bay East,40754901,N,Y,37.828667,-122.2741421
PAST SALE,December-28-2016,Single Family Residential,131 RED CEDAR Ln,Union City,CA,94587,977000,5,3.0,Ashford Place,2604,4786,2000,406,375,,Sold,,,http://www.redfin.com/CA/Union-City/131-Red-Cedar-Ln-94587/home/1973859,EBRD/CCAR/Bay East,40759541,N,Y,37.5963872,-122.0120531
PAST SALE,December-29-2017,Single Family Residential,1145 Tiegen Dr,Hayward,CA,94542,530000,2,1.0,Hayward,846,5670,1948,40,626,,Sold,,,http://www.redfin.com/CA/Hayward/1145-Tiegen-Dr-94542/home/1641617,EBRD/CCAR/Bay East,40803716,N,Y,37.6662467,-122.0726949
PAST SALE,July-31-2017,Single Family Residential,4450 Tarcento Ln,Dublin,CA,94568,997000,3,3.5,Dublin Ranch,2407,2923,2013,191,414,215,Sold,,,http://www.redfin.com/CA/Dublin/4450-Tarcento-Ln-94568/home/50264293,EBRD/CCAR/Bay East,40788209,N,Y,37.7099685,-121.8600729
PAST SALE,December-22-2017,Single Family Residential,1779 Serenidad St,Livermore,CA,94550,775000,3,2.0,Livermore,1488,6000,1967,47,521,,Sold,,,http://www.redfin.com/CA/Livermore/1779-Serenidad-St-94550/home/902344,EBRD/CCAR/Bay East,40804689,N,Y,37.6616985,-121.7877906
PAST SALE,October-27-2017,Townhouse,17 Ealing Ln,Oakland,CA,94608,650000,2,1.5,West Clawson,1135,716,2005,103,573,175,Sold,,,http://www.redfin.com/CA/Oakland/17-Ealing-Ln-94608/home/17187243,EBRD/CCAR/Bay East,40796023,N,Y,37.8221234,-122.2878036
PAST SALE,April-12-2017,Single Family Residential,15680 Elko Ct,San Leandro,CA,94579,624000,3,2.0,Washington Manor,1293,6161,1956,301,483,,Sold,,,http://www.redfin.com/CA/San-Leandro/15680-Elko-Ct-94579/home/1805423,EBRD/CCAR/Bay East,40771078,N,Y,37.6780074,-122.1507588
PAST SALE,August-4-2017,Single Family Residential,16576 Russell Ct,San Leandro,CA,94578,664980,5,3.0,San Leandro Hlls,2020,4268,1951,187,329,,Sold,,,http://www.redfin.com/CA/San-Leandro/16576-Russell-Ct-94578/home/1195944,EBRD/CCAR/Bay East,40783233,N,Y,37.698521,-122.102567
PAST SALE,December-15-2017,Condo/Co-op,692 Macabee Way,Hayward,CA,94541,668000,3,3.0,Hayward,1516,,2011,54,441,223,Sold,,,http://www.redfin.com/CA/Hayward/692-Macabee-Way-94541/home/40087039,EBRD/CCAR/Bay East,40804460,N,Y,37.662464,-122.091361
PAST SALE,December-7-2017,Single Family Residential,3237 San Marco Way,Union City,CA,94587,865000,4,2.0,Union City,1675,5500,1969,62,516,,Sold,,,http://www.redfin.com/CA/Union-City/3237-San-Marco-Way-94587/home/1403203,EBRD/CCAR/Bay East,40801612,N,Y,37.5949869,-122.0681339
PAST SALE,November-6-2017,Single Family Residential,5519 Rainflower Dr,Livermore,CA,94551,790000,3,2.5,Springtown,1924,5010,1990,93,411,,Sold,,,http://www.redfin.com/CA/Livermore/5519-Rainflower-Dr-94551/home/914164,EBRD/CCAR/Bay East,40798637,N,Y,37.7084884,-121.7300344
PAST SALE,June-27-2017,Single Family Residential,184 Via San Carlos,San Lorenzo,CA,94580,615000,3,2.0,San Lorenzo Vilg,1021,7636,1946,225,602,10,Sold,,,http://www.redfin.com/CA/San-Lorenzo/184-Via-San-Carlos-94580/home/2046849,EBRD/CCAR/Bay East,40779227,N,Y,37.6827061,-122.1226316
PAST SALE,September-25-2017,Single Family Residential,37915 Essanay Pl,Fremont,CA,94536,716000,2,2.0,Niles,891,3169,1981,135,804,,Sold,,,http://www.redfin.com/CA/Fremont/37915-Essanay-Pl-94536/home/1721427,EBRD/CCAR/Bay East,40793360,N,Y,37.576013,-121.974019
PAST SALE,August-11-2017,Condo/Co-op,1321 Webster St Unit D218,Alameda,CA,94501,445000,2,1.0,Park Webster,846,35258,1970,180,526,439,Sold,,,http://www.redfin.com/CA/Alameda/1321-Webster-St-94501/unit-D218/home/743170,EBRD/CCAR/Bay East,40787921,N,Y,37.76988938,-122.2782248
PAST SALE,November-17-2017,Single Family Residential,7841 Surrey Ln,Oakland,CA,94605,823000,4,3.0,Sequoyah,2442,8400,1970,82,337,,Sold,,,http://www.redfin.com/CA/Oakland/7841-Surrey-Ln-94605/home/592451,EBRD/CCAR/Bay East,40790031,N,Y,37.7764951,-122.1385678
PAST SALE,October-25-2017,Single Family Residential,2268 E 17Th St,Oakland,CA,94606,711000,3,2.0,San Antonio,1425,5550,1908,105,499,,Sold,,,http://www.redfin.com/CA/Oakland/2268-E-17th-St-94606/home/532553,EBRD/CCAR/Bay East,40798172,N,Y,37.7865611,-122.2340568
PAST SALE,November-17-2017,Single Family Residential,35333 Lancero St,FREMONT,CA,94536,1248000,5,4.0,FREMONT,2090,9202,1965,82,597,,Sold,,,http://www.redfin.com/CA/Fremont/35333-Lancero-St-94536/home/1318856,MLSListings,ML81680587,N,Y,37.5646615,-122.0325892
PAST SALE,May-5-2016,Single Family Residential,976 COLLIER Dr,San Leandro,CA,94577,690000,3,2.0,San Leandro,1833,8680,1940,643,376,,Sold,,,http://www.redfin.com/CA/San-Leandro/976-Collier-Dr-94577/home/757611,EBRD/CCAR/Bay East,40733984,N,Y,37.731081,-122.140699
PAST SALE,July-14-2016,Townhouse,4111 AMBERWOOD Cir,Pleasanton,CA,94588,535000,2,2.0,Oak Hill,1118,1260,1985,573,479,311,Sold,,,http://www.redfin.com/CA/Pleasanton/4111-Amberwood-Cir-94588/home/1639014,EBRD/CCAR/Bay East,40745247,N,Y,37.675122,-121.913363
PAST SALE,July-26-2016,Single Family Residential,11354 BLOOMINGTON Way,Dublin,CA,94568,1015000,5,3.0,Dublin Hills,2405,23049,1987,561,422,,Sold,,,http://www.redfin.com/CA/Dublin/11354-Bloomington-Way-94568/home/1954483,EBRD/CCAR/Bay East,40745280,N,Y,37.7186643,-121.9521056
PAST SALE,September-29-2017,Single Family Residential,1251 Seminary Ave,Oakland,CA,94621,415000,3,2.0,Eastlawn,1086,4000,1924,131,382,,Sold,,,http://www.redfin.com/CA/Oakland/1251-Seminary-Ave-94621/home/578207,EBRD/CCAR/Bay East,40796026,N,Y,37.7636596,-122.2019971
PAST SALE,October-31-2016,Multi-Family (2-4 Unit),1080 61st St,Oakland,CA,94608,1110000,8,4.0,Oakland,3704,6000,1963,464,300,,Sold,,,http://www.redfin.com/CA/Oakland/1080-61st-St-94608/home/531540,EBRD/CCAR/Bay East,40754843,N,Y,37.8443033,-122.2830835
PAST SALE,June-3-2016,Single Family Residential,7463 Starward Dr,Dublin,CA,94568,775000,3,2.5,Starward,1611,4598,2007,614,481,,Sold,,,http://www.redfin.com/CA/Dublin/7463-Starward-Dr-94568/home/12115987,EBRD/CCAR/Bay East,40738289,N,Y,37.7080034,-121.935579
PAST SALE,May-20-2016,Single Family Residential,2216 SANDPIPER Ct,San Leandro,CA,94579,626800,3,2.5,Heron Bay,1471,,1999,628,426,128,Sold,,,http://www.redfin.com/CA/San-Leandro/2216-Sandpiper-Ct-94579/home/807322,EBRD/CCAR/Bay East,40735881,N,Y,37.680686,-122.160413
PAST SALE,May-13-2016,Townhouse,3531 DAYTON Cmn,Fremont,CA,94538,805000,3,2.5,Liberty Commons,1430,1136,1999,635,563,200,Sold,,,http://www.redfin.com/CA/Fremont/3531-Dayton-Cmn-94538/home/1788014,EBRD/CCAR/Bay East,40734931,N,Y,37.546686,-121.975979
PAST SALE,March-31-2017,Single Family Residential,5264 Lilac Ave,Livermore,CA,94551,635000,4,2.0,Springtown,1196,6173,1971,313,531,28,Sold,,,http://www.redfin.com/CA/Livermore/5264-Lilac-Ave-94551/home/892770,EBRD/CCAR/Bay East,40771074,N,Y,37.7150211,-121.7378749
PAST SALE,August-29-2017,Condo/Co-op,4171 CLARINBRIDGE Cir,Dublin,CA,94568,628000,2,2.0,Dublin Ranch Vlg,1420,,2004,162,442,283,Sold,,,http://www.redfin.com/CA/Dublin/4171-Clarinbridge-Cir-94568/home/2111193,EBRD/CCAR/Bay East,40791112,N,Y,37.707289,-121.868286
PAST SALE,May-4-2017,Single Family Residential,564 Firenza St,Livermore,CA,94551,1100000,5,3.0,Monticello,2713,7794,1994,279,405,,Sold,,,http://www.redfin.com/CA/Livermore/564-Firenza-St-94551/home/1295558,EBRD/CCAR/Bay East,40775088,N,Y,37.6865356,-121.7932977
PAST SALE,August-12-2016,Townhouse,6253 JOAQUIN MURIETA Ave Unit G,Newark,CA,94560,620000,3,2.5,New Park Village,1456,1016,1981,544,426,395,Sold,,,http://www.redfin.com/CA/Newark/6253-Joaquin-Murieta-Ave-94560/unit-G/home/1247449,EBRD/CCAR/Bay East,40747690,N,Y,37.519519,-122.000345
PAST SALE,November-3-2016,Single Family Residential,5290 Scenic Ave,Livermore,CA,94551,555000,3,2.0,Springtown,1178,8311,1985,461,471,,Sold,,,http://www.redfin.com/CA/Livermore/5290-Scenic-Ave-94551/home/1907307,EBRD/CCAR/Bay East,40758894,N,Y,37.717265,-121.7335707
PAST SALE,June-27-2016,Single Family Residential,3129 Market St,Oakland,CA,94608-4333,525000,2,1.0,West Oakland,863,2000,1896,590,608,,Sold,,,http://www.redfin.com/CA/Oakland/3129-Market-St-94608/home/2016903,EBRD/CCAR/Bay East,40741489,N,Y,37.8221203,-122.2763337
PAST SALE,July-17-2017,Condo/Co-op,1 Kelton Ct Unit 3H,Oakland,CA,94611,449000,1,1.0,Kelton Court,720,49845,1974,205,624,414,Sold,,,http://www.redfin.com/CA/Oakland/1-Kelton-Ct-94611/unit-3H/home/1641160,EBRD/CCAR/Bay East,40781678,N,Y,37.8243896,-122.2508859
PAST SALE,August-31-2017,Condo/Co-op,2917 Macarthur Blvd Unit 1C,Oakland,CA,94602,399000,2,1.5,Diamond District,1088,,1984,160,367,447,Sold,,,http://www.redfin.com/CA/Oakland/2917-MacArthur-Blvd-94602/unit-1C/home/540515,EBRD/CCAR/Bay East,40788252,N,Y,37.7977041,-122.2063841
PAST SALE,September-28-2017,Condo/Co-op,607 Centre Ct,Alameda,CA,94502,805000,2,2.5,Harbor Bay,1720,,1985,132,468,550,Sold,,,http://www.redfin.com/CA/Alameda/607-Centre-Ct-94502/home/1100807,EBRD/CCAR/Bay East,40793635,N,Y,37.7457884,-122.2372447
PAST SALE,December-30-2016,Condo/Co-op,3566 Capoterra Way,Dublin,CA,94568,900000,4,3.0,Dublin,2693,,2007,404,334,373,Sold,,,http://www.redfin.com/CA/Dublin/3566-Capoterra-Way-94568/unit-5/home/17185343,EBRD/CCAR/Bay East,40762155,N,Y,37.710597,-121.8661
PAST SALE,June-21-2016,Condo/Co-op,1001 46TH St #210,Emeryville,CA,94608,515000,2,1.0,Emeryville Bordr,1100,,2008,596,468,365,Sold,,,http://www.redfin.com/CA/Emeryville/1001-46th-St-94608/unit-210/home/144483130,EBRD/CCAR/Bay East,40734756,N,Y,37.835349,-122.276275
PAST SALE,September-14-2016,Condo/Co-op,4334 Fitzwilliam St,Dublin,CA,94568,578500,2,2.0,Dublin Ranch Vlg,1519,,2005,511,381,245,Sold,,,http://www.redfin.com/CA/Dublin/4334-Fitzwilliam-St-94568/home/2112869,EBRD/CCAR/Bay East,40751261,N,Y,37.707256,-121.863139
PAST SALE,November-4-2016,Single Family Residential,972 55TH St,Oakland,CA,94608,725000,4,3.0,Oakland,2067,2720,1911,460,351,,Sold,,,http://www.redfin.com/CA/Oakland/972-55th-St-94608/home/1880507,EBRD/CCAR/Bay East,40753858,N,Y,37.8392918,-122.2772785
PAST SALE,January-19-2017,Single Family Residential,4341 Santee Rd,Fremont,CA,94555,945000,4,2.0,Northgate,1402,5800,1973,384,674,,Sold,,,http://www.redfin.com/CA/Fremont/4341-Santee-Rd-94555/home/1115119,EBRD/CCAR/Bay East,40765767,N,Y,37.5689938,-122.0388477
PAST SALE,March-30-2016,Townhouse,7387 STONEDALE Dr,Pleasanton,CA,94588,701000,2,2.5,The Gables,1502,1460,1988,679,467,325,Sold,,,http://www.redfin.com/CA/Pleasanton/7387-Stonedale-Dr-94588/home/615306,EBRD/CCAR/Bay East,40730122,N,Y,37.689495,-121.920274
PAST SALE,October-6-2017,Single Family Residential,229 Wild Flower Ct,Pleasanton,CA,94566,890000,3,2.0,Heritage Gardens,1421,3833,1991,124,626,80,Sold,,,http://www.redfin.com/CA/Pleasanton/229-Wild-Flower-Ct-94566/home/1866718,EBRD/CCAR/Bay East,40795281,N,Y,37.6635762,-121.8600328
PAST SALE,August-28-2017,Condo/Co-op,1121 40Th St #2207,Emeryville,CA,94608,545000,2,2.0,Emeryville,1146,,2005,163,476,536,Sold,,,http://www.redfin.com/CA/Emeryville/1121-40th-St-94608/unit-2207/home/2112022,EBRD/CCAR/Bay East,40786443,N,Y,37.8309242,-122.2793573
PAST SALE,September-7-2017,Condo/Co-op,1511 Jefferson St #307,Oakland,CA,94612,772500,2,2.0,Downtown,1230,,2007,153,628,458,Sold,,,http://www.redfin.com/CA/Oakland/1511-Jefferson-St-94612/unit-307/home/12115854,EBRD/CCAR/Bay East,40789883,N,Y,37.8068727,-122.2744844
PAST SALE,July-31-2017,Condo/Co-op,407 Orange #302,Oakland,CA,94610,530000,1,1.0,Adams Point,980,,1970,191,541,479,Sold,,,http://www.redfin.com/CA/Oakland/407-Orange-St-94610/unit-302/home/525774,EBRD/CCAR/Bay East,40785470,N,Y,37.8172922,-122.2548817
PAST SALE,October-23-2017,Single Family Residential,11532 Bay Laurel St,Dublin,CA,94568,1300000,5,4.5,Hansen Hill,3317,9863,1996,107,392,77,Sold,,,http://www.redfin.com/CA/Dublin/11532-Bay-Laurel-St-94568/home/1268709,EBRD/CCAR/Bay East,40797052,N,Y,37.7044784,-121.9473234
PAST SALE,October-20-2017,Condo/Co-op,6706 S Mariposa Ln,Dublin,CA,94568,735000,3,2.5,Dublin,1727,,2013,110,426,235,Sold,,,http://www.redfin.com/CA/Dublin/6706-S-Mariposa-Ln-94568/home/50262198,EBRD/CCAR/Bay East,40797034,N,Y,37.713298,-121.911953
PAST SALE,January-30-2018,Single Family Residential,36194 Silverado Pl,Newark,CA,94560,1320000,4,3.0,Mayhew Landing,2317,4864,1998,8,570,55,Sold,,,http://www.redfin.com/CA/Newark/36194-Silverado-Pl-94560/home/1984655,EBRD/CCAR/Bay East,40806346,N,Y,37.5343823,-122.0596512
PAST SALE,August-1-2016,Single Family Residential,25307 BELHAVEN St,Hayward,CA,94545,580000,3,2.0,Southgate,1359,5656,1959,555,427,,Sold,,,http://www.redfin.com/CA/Hayward/25307-Belhaven-St-94545/home/1315488,EBRD/CCAR/Bay East,40740674,N,Y,37.6443962,-122.1002561
PAST SALE,May-26-2017,Single Family Residential,624 Lorren Way,Livermore,CA,94550,720000,4,2.0,Livermore,1212,5780,1971,257,594,,Sold,,,http://www.redfin.com/CA/Livermore/624-Lorren-Way-94550/home/904053,EBRD/CCAR/Bay East,40778826,N,Y,37.6740967,-121.7916203
PAST SALE,July-27-2016,Condo/Co-op,535 PIERCE St #5113,Albany,CA,94706,460000,2,2.0,Albany,1170,,1988,560,393,540,Sold,,,http://www.redfin.com/CA/Albany/535-Pierce-St-94706/unit-5113/home/1976538,EBRD/CCAR/Bay East,40740769,N,Y,37.897219,-122.307458
PAST SALE,May-5-2016,Condo/Co-op,132 SELBY Ln #5,Livermore,CA,94551,600000,2,2.5,Montage,1501,,2013,643,400,276,Sold,,,http://www.redfin.com/CA/Livermore/132-Selby-Ln-94551/unit-5/home/50264241,EBRD/CCAR/Bay East,40732677,N,Y,37.7087042,-121.8032504
PAST SALE,October-27-2017,Single Family Residential,4751 Dunkirk Ave,Oakland,CA,94605,810000,3,2.0,Grass Valley,1524,6912,1956,103,531,,Sold,,,http://www.redfin.com/CA/Oakland/4751-Dunkirk-Ave-94605/home/661538,EBRD/CCAR/Bay East,40797923,N,Y,37.753454,-122.1243789
PAST SALE,July-19-2016,Single Family Residential,19398 STANTON Ave,Castro Valley,CA,94546,579000,2,2.0,Castro Valley,1118,16740,1941,568,518,,Sold,,,http://www.redfin.com/CA/Castro-Valley/19398-Stanton-Ave-94546/home/822502,EBRD/CCAR/Bay East,40740673,N,Y,37.702629,-122.095145
PAST SALE,May-22-2017,Single Family Residential,33545 5Th St,Union City,CA,94587,730000,4,3.5,Decoto,1524,5000,1962,261,479,,Sold,,,http://www.redfin.com/CA/Union-City/33545-5th-St-94587/home/22962677,EBRD/CCAR/Bay East,40781134,N,Y,37.6020696,-122.0205398
PAST SALE,April-14-2017,Single Family Residential,7560 Hansom Dr,Oakland,CA,94605-3803,870000,3,3.0,Sequoyah Hills,1956,12874,1967,299,445,,Sold,,,http://www.redfin.com/CA/Oakland/7560-Hansom-Dr-94605/home/843353,EBRD/CCAR/Bay East,40772213,N,Y,37.7804506,-122.1435497
PAST SALE,September-21-2017,Single Family Residential,695 Rand Ave,Oakland,CA,94610,1075000,4,1.0,Grand Lake,2502,4056,1912,139,430,,Sold,,,http://www.redfin.com/CA/Oakland/695-Rand-Ave-94610/home/1815990,EBRD/CCAR/Bay East,40792644,N,Y,37.8107526,-122.2464194
PAST SALE,December-13-2016,Single Family Residential,1514 MINTURN St,Alameda,CA,94501,1150000,3,4.0,Central Alameda,2217,2609,1885,421,519,,Sold,,,http://www.redfin.com/CA/Alameda/1514-Minturn-St-94501/home/1811316,EBRD/CCAR/Bay East,40759322,N,Y,37.7715774,-122.2547498
PAST SALE,July-4-2016,Single Family Residential,747 44TH St,Oakland,CA,94609,792000,2,1.0,N Oakland,1083,4000,1910,583,731,,Sold,,,http://www.redfin.com/CA/Oakland/747-44th-St-94609/home/528269,EBRD/CCAR/Bay East,40745150,N,Y,37.8330325,-122.2697144
PAST SALE,June-13-2016,Single Family Residential,4012 Tryon Pl,Dublin,CA,94568,890000,3,2.5,Tassajara Creek,1886,1886,2003,604,472,196,Sold,,,http://www.redfin.com/CA/Dublin/4012-Tryon-Pl-94568/home/1781384,EBRD/CCAR/Bay East,40739238,N,Y,37.7161068,-121.8727249
PAST SALE,December-20-2016,Townhouse,1221 George Cir,Hayward,CA,94541,605000,3,2.5,Hayward,1809,,2013,414,334,205,Sold,,,http://www.redfin.com/CA/Hayward/1221-George-Cir-94544/home/57179868,EBRD/CCAR/Bay East,40763222,N,Y,37.660865,-122.091127
PAST SALE,October-4-2016,Single Family Residential,3240 62ND Ave,Oakland,CA,94605,530000,2,1.0,Millsmont Area,1024,4440,1928,491,518,,Sold,,,http://www.redfin.com/CA/Oakland/3240-62nd-Ave-94605/home/1925170,EBRD/CCAR/Bay East,40754913,N,Y,37.7745949,-122.1815529
PAST SALE,August-19-2016,Townhouse,34171 VIA LUCCA,Fremont,CA,94555,865000,3,3.5,Ardenwood,1617,,2013,537,535,216,Sold,,,http://www.redfin.com/CA/Fremont/34171-Via-Lucca-94555/home/17183535,EBRD/CCAR/Bay East,40751765,N,Y,37.5598609,-122.0618951
PAST SALE,December-6-2017,Single Family Residential,1344 99Th Ave,Oakland,CA,94603,449000,3,2.0,East Oakland,1352,3666,1946,63,332,,Sold,,,http://www.redfin.com/CA/Oakland/1344-99th-Ave-94603/home/1330379,EBRD/CCAR/Bay East,40799358,N,Y,37.743134,-122.1705571
PAST SALE,August-17-2017,Condo/Co-op,3813 Milton Ter,Fremont,CA,94555,520000,2,2.0,Parkside Place,985,63340,1986,174,528,315,Sold,,,http://www.redfin.com/CA/Fremont/3813-Milton-Ter-94555/home/905553,EBRD/CCAR/Bay East,40788962,N,Y,37.578711,-122.043266
PAST SALE,November-10-2016,Townhouse,716 CITY WALK Pl #2,Hayward,CA,94541,489000,2,2.5,Hayward,1361,,2001,454,359,245,Sold,,,http://www.redfin.com/CA/Hayward/716-City-Walk-Pl-94541/unit-2/home/1523752,EBRD/CCAR/Bay East,40759834,N,Y,37.670178,-122.085396
PAST SALE,February-23-2017,Single Family Residential,3927 Canon Ave,Oakland,CA,94602,770000,2,1.0,Oakland,1136,4712,1941,349,678,,Sold,,,http://www.redfin.com/CA/Oakland/3927-Canon-Ave-94602/home/1508679,EBRD/CCAR/Bay East,40767776,N,Y,37.8036669,-122.2176672
PAST SALE,March-8-2017,Single Family Residential,4121 Webster St,Oakland,CA,94609,730000,2,1.0,Temescal,760,2000,1915,336,961,,Sold,,,http://www.redfin.com/CA/Oakland/4121-Webster-St-94609/home/879481,EBRD/CCAR/Bay East,40769551,N,Y,37.8299732,-122.2606799
PAST SALE,August-16-2016,Condo/Co-op,180 CALDECOTT Ln #110,Oakland,CA,94618,506000,2,2.0,Parkwoods,1095,,1995,540,462,466,Sold,,,http://www.redfin.com/CA/Oakland/180-Caldecott-Ln-94618/unit-110/home/628634,EBRD/CCAR/Bay East,40743160,N,Y,37.8557192,-122.2202777
PAST SALE,October-3-2016,Townhouse,7816 Gate Way,Dublin,CA,94568,579000,3,2.5,Coral Gate,1482,1424,1988,492,391,420,Sold,,,http://www.redfin.com/CA/Dublin/7816-Gate-Way-94568/home/1166199,EBRD/CCAR/Bay East,40754835,N,Y,37.722876,-121.938311
PAST SALE,September-20-2016,Townhouse,3731 BOSWELL Ter,Fremont,CA,94536,530000,3,1.5,Parkmont Vil Grn,1168,838,1976,505,454,279,Sold,,,http://www.redfin.com/CA/Fremont/3731-Boswell-Ter-94536/home/1711394,EBRD/CCAR/Bay East,40751767,N,Y,37.5547166,-121.9954696
PAST SALE,December-4-2017,Condo/Co-op,23139 Canyon Terrace Dr,Castro Valley,CA,94552,685000,4,2.5,Wildwood,1463,,1996,65,468,419,Sold,,,http://www.redfin.com/CA/Castro-Valley/23139-Canyon-Terrace-Dr-94552/unit-9-02/home/1337890,EBRD/CCAR/Bay East,40800104,N,Y,37.689303,-122.040171
PAST SALE,November-13-2017,Single Family Residential,963 Helen Ave,San Leandro,CA,94577,685000,3,2.0,Broadmoor/Dutton,1397,6970,1927,86,490,,Sold,,,http://www.redfin.com/CA/San-Leandro/963-Helen-Ave-94577/home/757677,EBRD/CCAR/Bay East,40796686,N,Y,37.737115,-122.146195
PAST SALE,April-13-2017,Single Family Residential,1014 Barry Way,Fremont,CA,94536,1050000,4,3.0,Parkmont Area,2170,6500,1964,300,484,,Sold,,,http://www.redfin.com/CA/Fremont/1014-Barry-Way-94536/home/1697359,EBRD/CCAR/Bay East,40771741,N,Y,37.5639428,-121.9763738
PAST SALE,July-29-2016,Condo/Co-op,3860 YORKSHIRE St,San Leandro,CA,94578,380000,2,2.0,Washington Manor,918,918,1987,558,414,396,Sold,,,http://www.redfin.com/CA/San-Leandro/3860-Yorkshire-St-94578/unit-21/home/777761,EBRD/CCAR/Bay East,40744407,N,Y,37.6988999,-122.143815
PAST SALE,October-30-2017,Single Family Residential,1310 Cedar St,Berkeley,CA,94702,1380000,4,2.0,N Berkeley,1776,5000,1964,100,777,,Sold,,,http://www.redfin.com/CA/Berkeley/1310-Cedar-St-94702/home/1630388,EBRD/CCAR/Bay East,40798850,N,Y,37.8757968,-122.2879413
PAST SALE,October-11-2017,Condo/Co-op,222 Broadway #604,Oakland,CA,94607,900000,2,2.0,Jack London Sq,1028,,2009,119,875,724,Sold,,,http://www.redfin.com/CA/Oakland/222-Broadway-94607/unit-604/home/28696669,EBRD/CCAR/Bay East,40797822,N,Y,37.7963329,-122.2756801
PAST SALE,February-28-2017,Single Family Residential,316 Selby Ln,Livermore,CA,94551,730000,3,3.0,Livermore,1603,1815,2014,344,455,150,Sold,,,http://www.redfin.com/CA/Livermore/316-Selby-Ln-94551/home/22656760,EBRD/CCAR/Bay East,40768381,N,Y,37.7089493,-121.8009365
PAST SALE,November-13-2017,Condo/Co-op,191 Loma Verde Dr,San Lorenzo,CA,94580,440000,2,1.5,Loma Verde,1056,,1985,86,417,288,Sold,,,http://www.redfin.com/CA/San-Lorenzo/191-Loma-Verde-Dr-94580/home/946082,EBRD/CCAR/Bay East,40798382,N,Y,37.685602,-122.118188
PAST SALE,March-24-2017,Single Family Residential,1921 Gaspar Dr,Oakland,CA,94611,1048888,3,2.0,Montclair,1898,6431,1969,320,553,,Sold,,,http://www.redfin.com/CA/Oakland/1921-Gaspar-Dr-94611/home/619391,EBRD/CCAR/Bay East,40769669,N,Y,37.83021,-122.209462
PAST SALE,June-1-2017,Single Family Residential,16280 Calypso Ct,San Leandro,CA,94578,665000,4,2.5,Ashland,1626,4460,1994,251,409,,Sold,,,http://www.redfin.com/CA/San-Leandro/16280-Calypso-Ct-94578/home/715353,EBRD/CCAR/Bay East,40778570,N,Y,37.6993987,-122.112391
PAST SALE,June-7-2016,Single Family Residential,3543 REDWOOD Rd,Oakland,CA,94619,815000,2,1.0,Redwood Heights,1218,4000,1929,610,669,,Sold,,,http://www.redfin.com/CA/Oakland/3543-Redwood-Rd-94619/home/1412197,EBRD/CCAR/Bay East,40738140,N,Y,37.7987278,-122.1910267
PAST SALE,June-9-2017,Single Family Residential,28169 Riggs Ct,Hayward,CA,94542,710000,3,2.5,Skyview,1647,3759,1986,243,431,90,Sold,,,http://www.redfin.com/CA/Hayward/28169-Riggs-Ct-94542/home/1450227,EBRD/CCAR/Bay East,40780934,N,Y,37.6468669,-122.0349304
PAST SALE,,Single Family Residential,1769 Elm St,Livermore,CA,94551,560000,2,1.0,,1082,5000,1943,,518,,,,,http://www.redfin.com/CA/Livermore/1769-Elm-St-94551/home/879492,,,N,Y,37.6875386,-121.7774889
PAST SALE,March-27-2017,Single Family Residential,34857 Skylark Dr,Union City,CA,94587,743000,3,2.0,Union City,1167,4546,1977,317,637,,Sold,,,http://www.redfin.com/CA/Union-City/34857-Skylark-Dr-94587/home/684786,EBRD/CCAR/Bay East,40771168,N,Y,37.5840731,-122.0160114
PAST SALE,June-30-2017,Condo/Co-op,34654 Tabu Ter,Fremont,CA,94555,680000,3,2.0,The Crossings,1064,138956,1987,222,639,335,Sold,,,http://www.redfin.com/CA/Fremont/34654-Tabu-Ter-94555/home/534477,EBRD/CCAR/Bay East,40781711,N,Y,37.5635665,-122.0484675
PAST SALE,July-24-2017,Townhouse,761 Pine St,Livermore,CA,94551,507500,3,1.5,Northside,1182,1426,1970,198,429,258,Sold,,,http://www.redfin.com/CA/Livermore/761-Pine-St-94551/home/1549735,EBRD/CCAR/Bay East,40785476,N,Y,37.688144,-121.789717
PAST SALE,June-1-2017,Condo/Co-op,3520 Palermo Way,Dublin,CA,94568,680000,2,2.5,Dublin Ranch,1493,,2007,251,455,385,Sold,,,http://www.redfin.com/CA/Dublin/3520-Palermo-Way-94568/home/17183892,EBRD/CCAR/Bay East,40778034,N,Y,37.711954,-121.864375
PAST SALE,May-17-2017,Townhouse,25429 Huntwood Ave,Hayward,CA,94544,595000,3,3.0,Hayward,1765,,2007,266,337,235,Sold,,,http://www.redfin.com/CA/Hayward/25429-Huntwood-Ave-94544/home/17184277,EBRD/CCAR/Bay East,40777350,N,Y,37.649484,-122.081498
PAST SALE,June-27-2017,Condo/Co-op,3326 Giovanni Way,Dublin,CA,94568,880000,4,3.5,Dublin Ranch,2441,,2014,225,361,300,Sold,,,http://www.redfin.com/CA/Dublin/3326-Giovanni-Way-94568/home/57180432,EBRD/CCAR/Bay East,40781934,N,Y,37.7091819,-121.861754
PAST SALE,March-3-2016,Condo/Co-op,35088 Lido Blvd Unit H,Newark,CA,94560,459888,2,2.0,Bridgeway Place,,1076,1984,706,,325,Sold,,,http://www.redfin.com/CA/Newark/35088-Lido-Blvd-94560/unit-H/home/1522396,EBRD/CCAR/Bay East,40729128,N,Y,37.547218,-122.04845
PAST SALE,November-9-2017,Single Family Residential,570 Firenza St,Livermore,CA,94551,1035000,5,3.0,Monticello,2748,7560,1994,90,377,,Sold,,,http://www.redfin.com/CA/Livermore/570-Firenza-St-94551/home/890655,EBRD/CCAR/Bay East,40797668,N,Y,37.6865277,-121.7930546
PAST SALE,April-14-2017,Single Family Residential,2408 Mosley Ave,Alameda,CA,94501,1348000,4,3.0,West Alameda,3220,4160,2007,299,419,145,Sold,,,http://www.redfin.com/CA/Alameda/2408-Mosley-Ave-94501/home/17187227,EBRD/CCAR/Bay East,40769899,N,Y,37.7839867,-122.2879782
PAST SALE,January-20-2017,Townhouse,36981 Newark Blvd Unit A,Newark,CA,94560,537500,3,2.5,Foxwood,1330,122839,1987,383,404,335,Sold,,,http://www.redfin.com/CA/Newark/36981-Newark-Blvd-94560/unit-A/home/1552804,EBRD/CCAR/Bay East,40765766,N,Y,37.536625,-122.031821
PAST SALE,June-9-2017,Single Family Residential,8009 Earl St,Oakland,CA,94605,685000,3,2.0,Eastmont Hills,1573,4500,1937,243,435,,Sold,,,http://www.redfin.com/CA/Oakland/8009-Earl-St-94605/home/579005,EBRD/CCAR/Bay East,40779794,N,Y,37.7696034,-122.156195
PAST SALE,June-9-2017,Single Family Residential,550 25Th St,Oakland,CA,94612,900000,4,2.5,Downtown,1989,3300,2010,243,452,,Sold,,,http://www.redfin.com/CA/Oakland/550-25th-St-94612/home/22805693,EBRD/CCAR/Bay East,40778725,N,Y,37.8148309,-122.2699604
PAST SALE,October-27-2017,Single Family Residential,1523 Carleton St,Berkeley,CA,94703,1250000,3,2.0,South Berkeley,1406,4389,1927,103,889,,Sold,,,http://www.redfin.com/CA/Berkeley/1523-Carleton-St-94703/home/1120320,EBRD/CCAR/Bay East,40798017,N,Y,37.8599425,-122.2793342
PAST SALE,April-18-2017,Single Family Residential,1834 63Rd St,Berkeley,CA,94703,940000,2,1.5,Le Conte,1325,5400,1906,295,709,,Sold,,,http://www.redfin.com/CA/Berkeley/1834-63rd-St-94703/home/651697,EBRD/CCAR/Bay East,40771117,N,Y,37.8478248,-122.2697732
PAST SALE,August-25-2017,Single Family Residential,2503 Bradford Ave,Hayward,CA,94545,665000,3,2.0,Hayward,1148,5238,1958,166,579,,Sold,,,http://www.redfin.com/CA/Hayward/2503-Bradford-Ave-94545/home/1823473,EBRD/CCAR/Bay East,40790783,N,Y,37.6358441,-122.1084026
PAST SALE,May-31-2017,Single Family Residential,567 Amberwood Way,Livermore,CA,94551,951000,4,3.0,Amber Ridge,2615,8064,1993,252,364,,Sold,,,http://www.redfin.com/CA/Livermore/567-Amberwood-Way-94551/home/736814,EBRD/CCAR/Bay East,40776855,N,Y,37.6951788,-121.7547659
PAST SALE,February-28-2017,Single Family Residential,1467 Chaparral Way,Livermore,CA,94551,865000,5,3.0,Livermore,2140,6000,1998,344,404,,Sold,,,http://www.redfin.com/CA/Livermore/1467-Chaparral-Way-94551/home/1550477,EBRD/CCAR/Bay East,40769030,N,Y,37.7212872,-121.7124891
PAST SALE,May-26-2016,Single Family Residential,1320 SKELTON Ave,Fremont,CA,94536,1400000,5,4.5,Parkmont,3311,12048,1983,622,423,,Sold,,,http://www.redfin.com/CA/Fremont/1320-Skelton-Ave-94536/home/897340,EBRD/CCAR/Bay East,40734932,N,Y,37.5631994,-121.9805046
PAST SALE,April-15-2016,Single Family Residential,3630 DUNBAR Ct,Fremont,CA,94536,940000,3,2.0,Brookvale,1453,4500,1976,663,647,,Sold,,,http://www.redfin.com/CA/Fremont/3630-Dunbar-Ct-94536/home/1932475,EBRD/CCAR/Bay East,40731547,N,Y,37.56339,-122.0114877
PAST SALE,September-5-2016,Townhouse,662 CONCORD Pl,Pleasanton,CA,94566,450000,2,1.5,Vintage Hills,1096,1223,1985,520,411,245,Sold,,,http://www.redfin.com/CA/Pleasanton/662-Concord-Pl-94566/home/1911529,EBRD/CCAR/Bay East,40751266,N,Y,37.6606389,-121.8550317
PAST SALE,February-26-2016,Single Family Residential,16105 CAROLYN St,San Leandro,CA,94578,640000,3,2.0,Fairlands Terrac,1277,6050,1949,712,501,,Sold,,,http://www.redfin.com/CA/San-Leandro/16105-Carolyn-St-94578/home/1537300,EBRD/CCAR/Bay East,40727062,N,Y,37.7037277,-122.1120593
PAST SALE,April-29-2016,Single Family Residential,5152 MONTIANO Ln,Dublin,CA,94568,1152000,5,4.0,Dublin Hills,3017,5296,2011,649,382,98,Sold,,,http://www.redfin.com/CA/Dublin/5152-Montiano-Ln-94568/home/28697675,EBRD/CCAR/Bay East,40729632,N,Y,37.7201741,-121.8493773
PAST SALE,July-1-2017,Single Family Residential,8301 Aster Ave,Oakland,CA,94605,760000,4,2.0,Oakland,2354,6962,1938,221,323,,Sold,,,http://www.redfin.com/CA/Oakland/8301-Aster-Ave-94605/home/1417868,EBRD/CCAR/Bay East,40781777,N,Y,37.7640087,-122.1605474
PAST SALE,June-29-2016,Single Family Residential,529 Humboldt Way,Livermore,CA,94551,642000,4,2.0,Summerset,1640,6000,1969,588,391,,Sold,,,http://www.redfin.com/CA/Livermore/529-Humboldt-Way-94551/home/1427791,EBRD/CCAR/Bay East,40739062,N,Y,37.695866,-121.7937196
PAST SALE,June-10-2016,Single Family Residential,5514 WILLKIE Pl,Fremont,CA,94538,795000,3,2.0,Twenty-Nine Palm,1256,5568,1966,607,633,,Sold,,,http://www.redfin.com/CA/Fremont/5514-Willkie-Pl-94538/home/1123388,EBRD/CCAR/Bay East,40736705,N,Y,37.5271127,-121.9910096
PAST SALE,April-22-2016,Single Family Residential,5888 BIDDLE Ave,Newark,CA,94560,660000,3,2.0,Newark,1127,6860,1954,656,586,,Sold,,,http://www.redfin.com/CA/Newark/5888-Biddle-Ave-94560/home/698772,EBRD/CCAR/Bay East,40733304,N,Y,37.5414026,-122.0335455
PAST SALE,March-15-2017,Condo/Co-op,687 Royston Ln #326,Hayward,CA,94544,305000,1,1.0,Hay Hills,643,,1988,329,474,330,Sold,,,http://www.redfin.com/CA/Hayward/687-Royston-Ln-94544/unit-326/home/2113812,EBRD/CCAR/Bay East,40766535,N,Y,37.6325657,-122.0445693
PAST SALE,October-11-2016,Single Family Residential,3091 FAZIO Ter,Dublin,CA,94568,989000,3,3.0,Dublin Ranch,2337,3945,2013,484,423,230,Sold,,,http://www.redfin.com/CA/Dublin/3091-Fazio-Ter-94568/home/50264304,EBRD/CCAR/Bay East,40754051,N,Y,37.7102646,-121.858529
PAST SALE,June-24-2016,Townhouse,40255 BONICA ROSE Ter,Fremont,CA,94538,665000,2,2.5,Rosewood,1176,,2009,593,565,300,Sold,,,http://www.redfin.com/CA/Fremont/40255-Bonica-Rose-Ter-94538/home/22962867,EBRD/CCAR/Bay East,40735873,N,Y,37.534429,-121.9742163
PAST SALE,August-5-2016,Single Family Residential,2691 Forino Ct,Dublin,CA,94568,1445000,5,4.5,Dublin Ranch,3673,7235,2014,551,393,83,Sold,,,http://www.redfin.com/CA/Dublin/2691-Forino-Dr-94568/home/22963183,EBRD/CCAR/Bay East,40743141,N,Y,37.7209451,-121.8519929
PAST SALE,September-9-2016,Townhouse,4917 IRIS Ter,Fremont,CA,94555,640000,2,2.5,Ardenwood,1102,331056,1987,516,581,280,Sold,,,http://www.redfin.com/CA/Fremont/4917-Iris-Ter-94555/home/1985119,EBRD/CCAR/Bay East,40750823,N,Y,37.562969,-122.045803
PAST SALE,May-23-2017,Single Family Residential,4811 Kimberley Cmn,Livermore,CA,94550,711000,3,2.5,Brookmeadow Park,1769,3188,1990,260,402,147,Sold,,,http://www.redfin.com/CA/Livermore/4811-Kimberley-Cmn-94550/home/1205524,EBRD/CCAR/Bay East,40776006,N,Y,37.690943,-121.73672
PAST SALE,August-10-2017,Single Family Residential,805 Turino St,Livermore,CA,94551,1020000,5,3.0,Monticello,2748,8294,1994,181,371,,Sold,,,http://www.redfin.com/CA/Livermore/805-Turino-St-94551/home/927592,EBRD/CCAR/Bay East,40786349,N,Y,37.6864935,-121.7923128
PAST SALE,May-26-2017,Condo/Co-op,49002 Cinnamon Fern Cmn #325,Fremont,CA,94539,670000,2,2.0,Warm Springs,1081,,2009,257,620,350,Sold,,,http://www.redfin.com/CA/Fremont/49002-Cinnamon-Fern-Cmn-94539/unit-325/home/22682865,EBRD/CCAR/Bay East,40774230,N,Y,37.4616746,-121.9141314
PAST SALE,June-2-2017,Townhouse,4323 Fitzwilliam St,Dublin,CA,94568,645000,3,2.5,Courtyard,1897,,2005,250,340,245,Sold,,,http://www.redfin.com/CA/Dublin/4323-Fitzwilliam-St-94568/home/2112840,EBRD/CCAR/Bay East,40779047,N,Y,37.707369,-121.86215
PAST SALE,September-29-2017,Single Family Residential,6981 Alamo Crk,Dublin,CA,94568,825000,3,2.5,Alamo Creek,1873,1531,2013,131,440,143,Sold,,,http://www.redfin.com/CA/Dublin/6981-Alamo-Creek-Trl-94568/home/50262235,EBRD/CCAR/Bay East,40796988,N,Y,37.7169725,-121.9112017
PAST SALE,August-29-2017,Single Family Residential,3713 Vine St,Pleasanton,CA,94566,867500,3,2.5,Heritage Gardens,1671,3760,1990,162,519,80,Sold,,,http://www.redfin.com/CA/Pleasanton/3713-Vine-St-94566/home/1190213,EBRD/CCAR/Bay East,40790260,N,Y,37.6642606,-121.8609788
PAST SALE,December-29-2017,Single Family Residential,3917 Market St,Oakland,CA,94608,997000,3,1.0,N Oakland,1333,3640,1940,40,748,,Sold,,,http://www.redfin.com/CA/Oakland/3917-Market-St-94608/home/1457399,EBRD/CCAR/Bay East,40804586,N,Y,37.8302232,-122.2743329
PAST SALE,April-24-2017,Single Family Residential,594 Meadowlark St,Livermore,CA,94551,671000,5,2.0,Northside,1482,6032,1962,289,453,,Sold,,,http://www.redfin.com/CA/Livermore/594-Meadowlark-St-94551/home/1410737,EBRD/CCAR/Bay East,40774917,N,Y,37.684997,-121.788794
PAST SALE,March-22-2016,Single Family Residential,955 LEONARDO Way,Hayward,CA,94541,515000,3,1.5,Hayward,1070,5000,1951,687,481,,Sold,,,http://www.redfin.com/CA/Hayward/955-Leonardo-Way-94541/home/1857009,EBRD/CCAR/Bay East,40726452,N,Y,37.6567206,-122.1111286
PAST SALE,October-27-2016,Single Family Residential,33553 UNIVERSITY Dr,Union City,CA,94587,760000,3,3.0,Union City,1786,7590,1960,468,426,,Sold,,,http://www.redfin.com/CA/Union-City/33553-University-Dr-94587/home/1047598,EBRD/CCAR/Bay East,40759838,N,Y,37.5968958,-122.0276487
PAST SALE,January-13-2017,Condo/Co-op,1500 Park Ave #120,Emeryville,CA,94608,575000,1,1.0,Emeryville,972,,1921,390,592,380,Sold,,,http://www.redfin.com/CA/Emeryville/1500-Park-Ave-94608/unit-120/home/1710241,EBRD/CCAR/Bay East,40763876,N,Y,37.830922,-122.2896093
PAST SALE,April-14-2016,Townhouse,5361 SAN SIMEON Pl,Castro Valley,CA,94552,550000,2,2.5,Castro Valley,1334,1557,1981,664,412,355,Sold,,,http://www.redfin.com/CA/Castro-Valley/5361-San-Simeon-Pl-94552/home/1176972,EBRD/CCAR/Bay East,40732386,N,Y,37.701093,-122.04609
PAST SALE,August-22-2017,Single Family Residential,17420 Via La Jolla,San Lorenzo,CA,94580,660000,3,2.0,San Lorenzo Vilg,1531,5408,1952,169,431,13,Sold,,,http://www.redfin.com/CA/San-Lorenzo/17420-Via-La-Jolla-94580/home/1411799,EBRD/CCAR/Bay East,40787828,N,Y,37.66435,-122.134635
PAST SALE,June-7-2017,Single Family Residential,4823 Shafter Ave,Oakland,CA,94609,903000,2,2.0,Temescal,1324,2773,1921,245,682,,Sold,,,http://www.redfin.com/CA/Oakland/4823-Shafter-Ave-94609/home/28697292,EBRD/CCAR/Bay East,40779785,N,Y,37.8347751,-122.259269
PAST SALE,March-28-2017,Condo/Co-op,3090 Kansas #2,Oakland,CA,94602-3352,431000,2,1.0,Upper Laurel,795,,1967,316,542,403,Sold,,,http://www.redfin.com/CA/Oakland/3090-Kansas-St-94602/unit-2/home/113006095,EBRD/CCAR/Bay East,40768945,N,Y,37.7973563,-122.2020365
PAST SALE,July-14-2017,Single Family Residential,3718 Nevil St,Oakland,CA,94601,670000,3,1.0,Allendale,1232,4142,1922,208,544,,Sold,,,http://www.redfin.com/CA/Oakland/3718-Nevil-St-94601/home/1727719,EBRD/CCAR/Bay East,40784877,N,Y,37.7855299,-122.2085242
PAST SALE,August-9-2016,Condo/Co-op,428 ALICE St #510,Oakland,CA,94607,653000,2,2.0,Jack London Sq,1101,,2006,547,593,464,Sold,,,http://www.redfin.com/CA/Oakland/428-Alice-St-94607/unit-510/home/12118281,EBRD/CCAR/Bay East,40749470,N,Y,37.7957976,-122.2704356
PAST SALE,August-1-2017,Townhouse,311 Centre Ct,Alameda,CA,94502,820000,2,2.5,Harbor Bay,1720,20560,1985,190,477,505,Sold,,,http://www.redfin.com/CA/Alameda/311-Centre-Ct-94502/home/744077,EBRD/CCAR/Bay East,40786791,N,Y,37.746668,-122.237939
PAST SALE,January-3-2018,Multi-Family (2-4 Unit),1206 Allston Way,Berkeley,CA,94702,997000,3,2.0,Berkeley,1678,4000,1929,35,594,,Sold,,,http://www.redfin.com/CA/Berkeley/1206-Allston-Way-94702/home/1098677,EBRD/CCAR/Bay East,40803122,N,Y,37.8665598,-122.2886463
PAST SALE,August-25-2017,Townhouse,1320 Mattox Rd,Hayward,CA,94541,500000,2,2.0,Hayward,1531,,2005,166,327,252,Sold,,,http://www.redfin.com/CA/Hayward/1320-Mattox-Rd-94541/home/949256,EBRD/CCAR/Bay East,40788801,N,Y,37.687562,-122.097163
PAST SALE,July-1-2016,Single Family Residential,2268 ARROWHEAD Dr,Oakland,CA,94611,1175000,3,4.5,Montclair,4351,6893,2005,586,270,,Sold,,,http://www.redfin.com/CA/Oakland/2268-Arrowhead-Dr-94611/home/1497539,EBRD/CCAR/Bay East,40730768,N,Y,37.836175,-122.189167
PAST SALE,November-21-2016,Single Family Residential,4436 FAULKNER Dr,Fremont,CA,94536,867750,3,2.0,Glenmoor,1812,8691,1964,443,479,12,Sold,,,http://www.redfin.com/CA/Fremont/4436-Faulkner-Dr-94536/home/1534067,EBRD/CCAR/Bay East,40760387,N,Y,37.5505751,-122.0058017
PAST SALE,May-18-2016,Single Family Residential,3716 VALLEY VIEW Way,Livermore,CA,94551,904415,4,2.5,Amber Ridge,2553,8852,1994,630,354,,Sold,,,http://www.redfin.com/CA/Livermore/3716-Valley-View-Way-94551/home/1152066,EBRD/CCAR/Bay East,40734205,N,Y,37.6966546,-121.7552975
PAST SALE,March-1-2017,Single Family Residential,754 Sequoia Dr,Livermore,CA,94551,800000,5,3.0,Northside,2153,6154,1962,343,372,,Sold,,,http://www.redfin.com/CA/Livermore/754-Sequoia-Dr-94551/home/699387,EBRD/CCAR/Bay East,40768334,N,Y,37.6851706,-121.7882006
PAST SALE,September-9-2016,Single Family Residential,3182 ESTERO Ter,Fremont,CA,94538,799500,3,2.5,Irvington Area,1712,1500,2012,516,467,132,Sold,,,http://www.redfin.com/CA/Fremont/3182-Estero-Ter-94538/home/40627675,EBRD/CCAR/Bay East,40753439,N,Y,37.5370958,-121.9547848
PAST SALE,December-20-2016,Townhouse,1895 Chantilly Ln,Hayward,CA,94541,468000,3,2.5,Hay Hills,1620,,1981,414,289,546,Sold,,,http://www.redfin.com/CA/Hayward/1895-Chantilly-Ln-94541/home/998035,EBRD/CCAR/Bay East,40761466,N,Y,37.6671483,-122.0651101
PAST SALE,June-22-2016,Condo/Co-op,4410 Fitzwilliam St,Dublin,CA,94568,655000,3,2.5,Dublin Ranch,1897,,2004,595,345,245,Sold,,,http://www.redfin.com/CA/Dublin/4410-Fitzwilliam-St-94568/home/1829728,EBRD/CCAR/Bay East,40742221,N,Y,37.7079809,-121.862863
PAST SALE,September-16-2016,Condo/Co-op,247 4TH St #306,Oakland,CA,94607,620000,1,1.0,Jack London Sq,1332,,1923,509,465,538,Sold,,,http://www.redfin.com/CA/Oakland/247-4th-St-94607/unit-306/home/11929935,EBRD/CCAR/Bay East,40747833,N,Y,37.795206,-122.2704964
PAST SALE,March-3-2017,Single Family Residential,4025 Patterson Ave,Oakland,CA,94619,835000,2,1.0,Redwood Heights,1097,4800,1937,341,761,,Sold,,,http://www.redfin.com/CA/Oakland/4025-Patterson-Ave-94619/home/1649097,EBRD/CCAR/Bay East,40769815,N,Y,37.7945851,-122.1926859
PAST SALE,July-8-2016,Single Family Residential,12560 BROOKPARK Rd,Oakland,CA,94619,881000,4,2.5,Parkridge Estate,1976,11692,1961,579,446,,Sold,,,http://www.redfin.com/CA/Oakland/12560-Brookpark-Rd-94619/home/932061,EBRD/CCAR/Bay East,40744501,N,Y,37.7953526,-122.1569631
PAST SALE,October-14-2016,Single Family Residential,1068 Harvest Cir,Pleasanton,CA,94566,1085000,4,2.5,Creeks Bend,2150,8193,1978,481,505,,Sold,,,http://www.redfin.com/CA/Pleasanton/1068-Harvest-Cir-94566/home/2044395,EBRD/CCAR/Bay East,40754856,N,Y,37.6662368,-121.8813267
PAST SALE,March-15-2017,Townhouse,25135 Angelina Ln #4,Hayward,CA,94544,455000,2,2.5,Berry Garden,1274,,2002,329,357,315,Sold,,,http://www.redfin.com/CA/Hayward/25135-Angelina-Ln-94544/home/1822835,EBRD/CCAR/Bay East,40770212,N,Y,37.6566961,-122.0742501
PAST SALE,December-4-2017,Single Family Residential,1945 Sherman Dr,Union City,CA,94587,829000,3,2.0,Union City,1349,6000,1968,65,615,,Sold,,,http://www.redfin.com/CA/Union-City/1945-Sherman-Dr-94587/home/1816145,EBRD/CCAR/Bay East,40802298,N,Y,37.5949713,-122.0311013
PAST SALE,June-5-2017,Single Family Residential,36150 San Pedro Dr,Fremont,CA,94536,925000,5,5.0,Cabrillo,2042,9010,1956,247,453,,Sold,,,http://www.redfin.com/CA/Fremont/36150-San-Pedro-Dr-94536/home/1491946,EBRD/CCAR/Bay East,40776786,N,Y,37.5550839,-122.0279851
PAST SALE,May-26-2017,Single Family Residential,5528 Picardy Dr S,Oakland,CA,94605-1174,850000,3,2.0,Normandy Gardens,1681,4500,1926,257,506,,Sold,,,http://www.redfin.com/CA/Oakland/5528-Picardy-Dr-S-94605/home/567257,EBRD/CCAR/Bay East,40777447,N,Y,37.7754724,-122.190626
PAST SALE,October-16-2017,Townhouse,91 City Limits Cir,Oakland,CA,94608,755000,2,2.5,Nobe,1151,,2005,114,656,246,Sold,,,http://www.redfin.com/CA/Oakland/91-City-Limits-Cir-94608/home/2111902,EBRD/CCAR/Bay East,40795772,N,Y,37.8491645,-122.2883154
PAST SALE,May-22-2017,Single Family Residential,3855 Campbell Pl,Fremont,CA,94536,988000,3,2.0,Fremont,1453,5608,1977,261,680,,Sold,,,http://www.redfin.com/CA/Fremont/3855-Campbell-Pl-94536/home/2004759,EBRD/CCAR/Bay East,40777339,N,Y,37.5630909,-122.0138598
PAST SALE,April-14-2017,Condo/Co-op,3663 Oakwood Ter #312,Fremont,CA,94536,360000,1,1.0,Meadowbrook,714,,1984,299,504,417,Sold,,,http://www.redfin.com/CA/Fremont/3663-Oakwood-Ter-94536/unit-312/home/1089869,EBRD/CCAR/Bay East,40771957,N,Y,37.5626959,-122.0076879
PAST SALE,December-7-2017,Single Family Residential,1040 Keith Ave,Berkeley,CA,94708,1382650,4,3.5,North Cragmont,2240,5757,1960,62,617,,Sold,,,http://www.redfin.com/CA/Berkeley/1040-Keith-Ave-94708/home/1729870,EBRD/CCAR/Bay East,40802129,N,Y,37.8891434,-122.2646362
PAST SALE,November-14-2017,Townhouse,7225 Cronin Cir,Dublin,CA,94568,535000,2,1.5,Kildara,906,906,1991,85,591,355,Sold,,,http://www.redfin.com/CA/Dublin/7225-Cronin-Cir-94568/unit-152/home/1991667,EBRD/CCAR/Bay East,40801121,N,Y,37.703689,-121.938419
PAST SALE,November-1-2017,Single Family Residential,562 Selby Ln,Livermore,CA,94551,755000,3,3.0,Montage,1600,1753,2012,98,472,149,Sold,,,http://www.redfin.com/CA/Livermore/562-Selby-Ln-94551/home/22652037,EBRD/CCAR/Bay East,40798522,N,Y,37.7092203,-121.797924
PAST SALE,March-28-2017,Single Family Residential,552 Selby Ln,Livermore,CA,94551,755000,3,3.0,Montage,1749,1815,2013,316,432,149,Sold,,,http://www.redfin.com/CA/Livermore/552-Selby-Ln-94551/home/22652023,EBRD/CCAR/Bay East,40771001,N,Y,37.7093035,-121.7981678
PAST SALE,July-31-2017,Condo/Co-op,3695 Stevenson Blvd Unit E306,Fremont,CA,94538,600100,2,2.0,Fremont,1040,,1991,191,577,335,Sold,,,http://www.redfin.com/CA/Fremont/3695-Stevenson-Blvd-94538/unit-E306/home/1978211,EBRD/CCAR/Bay East,40786607,N,Y,37.5438328,-121.9734482
PAST SALE,May-9-2017,Condo/Co-op,415 Cornell #201,Albany,CA,94706-1277,547500,2,2.0,Albany,1018,,1973,274,538,360,Sold,,,http://www.redfin.com/CA/Albany/415-Cornell-Ave-94706/unit-201/home/847308,EBRD/CCAR/Bay East,40774970,N,Y,37.897793,-122.298304
PAST SALE,November-2-2017,Single Family Residential,6764 Flanders Dr,Newark,CA,94560,750000,3,2.0,Lido Faire,1100,6650,1961,97,682,,Sold,,,http://www.redfin.com/CA/Newark/6764-Flanders-Dr-94560/home/1283332,EBRD/CCAR/Bay East,40798383,N,Y,37.5423259,-122.0527084
PAST SALE,November-17-2017,Single Family Residential,33276 Palomino Cmn,Fremont,CA,94555,1035000,4,2.5,Kensington Park,1988,4602,1993,82,521,100,Sold,,,http://www.redfin.com/CA/Fremont/33276-Palomino-Cmn-94555/home/1152610,EBRD/CCAR/Bay East,40796661,N,Y,37.5841746,-122.0515637
PAST SALE,May-25-2017,Single Family Residential,34179 Valle Dr,Union City,CA,94587,945000,4,2.5,Union City,2138,3080,2005,258,442,,Sold,,,http://www.redfin.com/CA/Union-City/34179-Valle-Dr-94587/home/2110797,EBRD/CCAR/Bay East,40778921,N,Y,37.5991027,-122.0143937
PAST SALE,November-3-2017,Single Family Residential,10665 Pearmain St,Oakland,CA,94603,440000,3,2.0,East Oakland,1088,3800,1920,96,404,,Sold,,,http://www.redfin.com/CA/Oakland/10665-Pearmain-St-94603/home/1761633,EBRD/CCAR/Bay East,40796790,N,Y,37.7332513,-122.1753588
PAST SALE,July-6-2017,Single Family Residential,3101 Partridge Ave,Oakland,CA,94605,675000,4,2.0,King Estates,1442,4564,1939,216,468,,Sold,,,http://www.redfin.com/CA/Oakland/3101-Partridge-Ave-94605/home/2040553,EBRD/CCAR/Bay East,40783448,N,Y,37.7653405,-122.1618771
PAST SALE,September-19-2017,Single Family Residential,5921 Hilton St,Oakland,CA,94605,480000,2,2.0,Seminary,1238,3780,1922,141,388,,Sold,,,http://www.redfin.com/CA/Oakland/5921-Hilton-St-94605/home/568204,EBRD/CCAR/Bay East,40793246,N,Y,37.7690682,-122.1930274
PAST SALE,January-31-2018,Single Family Residential,1230 Mattox Rd,Hayward,CA,94541,675000,4,3.0,Hayward,1967,22920,1941,7,343,,Sold,,,http://www.redfin.com/CA/Hayward/1230-Mattox-Rd-94541/home/1441011,EBRD/CCAR/Bay East,40795690,N,Y,37.6866997,-122.0982569
PAST SALE,December-14-2017,Condo/Co-op,1321 Webster St Unit D210,Alameda,CA,94501,420000,1,1.0,Park Webster,701,35258,1970,55,599,412,Sold,,,http://www.redfin.com/CA/Alameda/1321-Webster-St-94501/unit-D210/home/740860,EBRD/CCAR/Bay East,40801556,N,Y,37.7698809,-122.2777044
PAST SALE,September-12-2017,Single Family Residential,3055 Bantry Ave,Oakland,CA,94605,525000,2,1.0,Millmont,960,11832,1960,148,547,,Sold,,,http://www.redfin.com/CA/Oakland/3055-Bantry-Ave-94605/home/1161573,EBRD/CCAR/Bay East,40787922,N,Y,37.7720717,-122.1699934
PAST SALE,May-10-2017,Condo/Co-op,6144 Old Quarry Loop,Oakland,CA,94605,505000,2,2.0,East Oakl Hills,1079,,2007,273,468,282,Sold,,,http://www.redfin.com/CA/Oakland/6144-Old-Quarry-Loop-94605/home/21670339,EBRD/CCAR/Bay East,40775089,N,Y,37.778864,-122.165009
PAST SALE,February-27-2017,Single Family Residential,35423 Ardo Ct,FREMONT,CA,94536,880000,3,2.0,FREMONT,1232,5800,1966,345,714,,Sold,,,http://www.redfin.com/CA/Fremont/35423-Ardo-Ct-94536/home/1738226,MLSListings,ML81636054,N,Y,37.5652891,-122.030687
PAST SALE,October-14-2016,Single Family Residential,4516 Alhambra Dr,FREMONT,CA,94536,775000,3,2.0,FREMONT,1248,5601,1958,481,621,,Sold,,,http://www.redfin.com/CA/Fremont/4516-Alhambra-Dr-94536/home/1319970,MLSListings,ML81625791,N,Y,37.5590141,-122.0262582
PAST SALE,March-4-2016,Single Family Residential,2815 PIEDMONT Ave,Berkeley,CA,94705,1727000,3,2.5,Elmwood,1909,,1915,705,905,,Sold,,,http://www.redfin.com/CA/Berkeley/2815-Piedmont-Ave-94705/home/658840,EBRD/CCAR/Bay East,40727976,N,Y,37.8594899,-122.2509417
PAST SALE,June-20-2016,Single Family Residential,4540 Alhambra Dr,Fremont,CA,94536-5425,760000,3,2.0,Cabrillo,1148,5600,1957,597,662,,Sold,,,http://www.redfin.com/CA/Fremont/4540-Alhambra-Dr-94536/home/1658742,EBRD/CCAR/Bay East,40739313,N,Y,37.5592909,-122.0267575
PAST SALE,October-25-2016,Single Family Residential,36119 Perkins St,Fremont,CA,94536,1045000,4,2.0,Westridge Estate,1840,5900,1965,470,568,,Sold,,,http://www.redfin.com/CA/Fremont/36119-Perkins-St-94536/home/1816176,EBRD/CCAR/Bay East,40757150,N,Y,37.5631537,-122.0215888
PAST SALE,January-24-2017,Condo/Co-op,2515 ASHBY Ave #1,Berkeley,CA,94705,585000,1,1.0,Elmwood,860,,1923,379,680,177,Sold,,,http://www.redfin.com/CA/Berkeley/2515-Ashby-Ave-94705/unit-1/home/837702,EBRD/CCAR/Bay East,40764865,N,Y,37.8568889,-122.2560901
PAST SALE,,Single Family Residential,4137 David St,Castro Valley,CA,94546,645000,4,2.0,,1530,9075,1947,,422,,,,,http://www.redfin.com/CA/Castro-Valley/4137-David-St-94546/home/1391865,,,N,Y,37.6958571,-122.0643348
PAST SALE,July-22-2016,Single Family Residential,36201 Gibraltar Ct,FREMONT,CA,94536,1000000,4,2.0,FREMONT,1840,6825,1965,565,543,,Sold,,,http://www.redfin.com/CA/Fremont/36201-Gibraltar-Ct-94536/home/1350309,MLSListings,ML81588258,N,Y,37.5595525,-122.0234147
PAST SALE,November-16-2016,Single Family Residential,41098 BAIRO Ct,Fremont,CA,94539,1110000,3,2.0,Mission Area,1389,7197,1972,448,799,29,Sold,,,http://www.redfin.com/CA/Fremont/41098-Bairo-Ct-94539/home/1100597,EBRD/CCAR/Bay East,40759356,N,Y,37.5384309,-121.9511597
PAST SALE,June-30-2016,Single Family Residential,41725 Chadbourne Dr,FREMONT,CA,94539,1265000,3,2.0,FREMONT,1434,7122,1960,587,882,,Sold,,,http://www.redfin.com/CA/Fremont/41725-Chadbourne-Dr-94539/home/613414,MLSListings,ML81585145,N,Y,37.5384719,-121.944665
PAST SALE,February-17-2017,Single Family Residential,36182 Magellan Dr,Fremont,CA,94536,840000,4,2.0,Cabrillo,1882,5370,1954,355,446,,Sold,,,http://www.redfin.com/CA/Fremont/36182-Magellan-Dr-94536/home/1921409,EBRD/CCAR/Bay East,40766414,N,Y,37.5568839,-122.025827
PAST SALE,,Single Family Residential,5600 Oak Grove Ave,Oakland,CA,94618,1200000,4,2.0,,1560,5000,1914,,769,,,,,http://www.redfin.com/CA/Oakland/5600-Oak-Grove-Ave-94618/home/689756,,,N,Y,37.8442257,-122.2548789
PAST SALE,,Single Family Residential,41466 Erma Ave,Fremont,CA,94539,857000,3,2.0,,1099,6528,1956,,780,,,,,http://www.redfin.com/CA/Fremont/41466-Erma-Ave-94539/home/1215249,,,N,Y,37.5372779,-121.947594
PAST SALE,November-21-2016,Single Family Residential,2451 Corriea Way,FREMONT,CA,94539,1105000,3,2.0,FREMONT,1516,3985,1972,443,729,28,Sold,,,http://www.redfin.com/CA/Fremont/2451-Corriea-Way-94539/home/1887694,MLSListings,ML81611852,N,Y,37.5393739,-121.9517641
PAST SALE,April-19-2016,Townhouse,3267 Neal Ter,FREMONT,CA,94538,735000,3,2.5,FREMONT,1745,2461,1992,659,421,335,Sold,,,http://www.redfin.com/CA/Fremont/3267-Neal-Ter-94538/home/1900839,MLSListings,ML81563666,N,Y,37.536948,-121.956065
PAST SALE,May-10-2016,Single Family Residential,41071 ROSEWALK Ct,Fremont,CA,94539,1668000,5,3.0,Mission Area,2453,4114,2004,638,680,,Sold,,,http://www.redfin.com/CA/Fremont/41071-Rosewalk-Ct-94539/home/1226946,EBRD/CCAR/Bay East,40734265,N,Y,37.5363501,-121.9533294
PAST SALE,,Condo/Co-op,40425 Chapel Way Apt 104,Fremont,CA,94538,287000,2,2.0,,1052,,1983,,273,,,,,http://www.redfin.com/CA/Fremont/40425-Chapel-Way-94538/unit-104/home/606374,,,N,Y,37.538791,-121.958841
PAST SALE,September-9-2016,Single Family Residential,2855 Pinnacles Ter,Fremont,CA,94538,910000,4,3.5,Central Park,2093,2093,2013,516,435,132,Sold,,,http://www.redfin.com/CA/Fremont/2855-Pinnacles-Ter-94538/home/40627573,EBRD/CCAR/Bay East,40751603,N,Y,37.539001,-121.9554059
PAST SALE,September-27-2016,Single Family Residential,36695 MONTECITO Dr,Fremont,CA,94536,850000,3,2.0,Niles,1628,9000,1965,498,522,,Sold,,,http://www.redfin.com/CA/Fremont/36695-Montecito-Dr-94536/home/1073760,EBRD/CCAR/Bay East,40753093,N,Y,37.5739356,-121.9943436
PAST SALE,May-17-2016,Single Family Residential,35393 Terra Cotta Cir,FREMONT,CA,94536,1124000,4,2.5,FREMONT,2222,5224,1999,631,506,105,Sold,,,http://www.redfin.com/CA/Fremont/35393-Terra-Cotta-Cir-94536/home/1357157,MLSListings,ML81565753,N,Y,37.5847519,-122.0031879
PAST SALE,April-29-2016,Single Family Residential,333 Sunnyslope Dr,FREMONT,CA,94536,886000,3,2.5,FREMONT,1384,3624,1989,649,640,,Sold,,,http://www.redfin.com/CA/Fremont/333-Sunnyslope-Dr-94536/home/1182305,MLSListings,ML81566583,N,Y,37.584719,-121.9997438
PAST SALE,July-29-2016,Townhouse,273 VIVIAN Cmn,Fremont,CA,94536,612500,2,2.5,Niles,1213,1750,1983,558,505,375,Sold,,,http://www.redfin.com/CA/Fremont/273-Vivian-Cmn-94536/home/1070128,EBRD/CCAR/Bay East,40743906,N,Y,37.581762,-121.994142
PAST SALE,June-23-2016,Townhouse,372 SERRAMONTE Ter,Fremont,CA,94536,730000,3,2.0,Niles,1240,3066,1973,594,589,305,Sold,,,http://www.redfin.com/CA/Fremont/372-Serramonte-Ter-94536/home/1072550,EBRD/CCAR/Bay East,40740439,N,Y,37.5775379,-121.9920597
PAST SALE,December-23-2016,Townhouse,447 Vega Ter,Fremont,CA,94536,625000,2,1.5,The Trees,1140,1178,1973,411,548,305,Sold,,,http://www.redfin.com/CA/Fremont/447-Vega-Ter-94536/home/1071831,EBRD/CCAR/Bay East,40764063,N,Y,37.577881,-121.9936708
PAST SALE,December-6-2016,Single Family Residential,35138 DORCHESTER Ct,Newark,CA,94560,972000,4,2.5,The Lake,2073,6500,1969,428,469,,Sold,,,http://www.redfin.com/CA/Newark/35138-Dorchester-Ct-94560/home/716610,EBRD/CCAR/Bay East,40752882,N,Y,37.5579862,-122.0411225
PAST SALE,November-23-2016,Townhouse,40837 Ingersoll Ter,FREMONT,CA,94538,590000,3,2.0,FREMONT,1188,1412,1987,441,497,267,Sold,,,http://www.redfin.com/CA/Fremont/40837-Ingersoll-Ter-94538/home/1753970,MLSListings,ML81629736,N,Y,37.5395589,-121.956407
PAST SALE,October-24-2016,Single Family Residential,40730 Penn Ln,FREMONT,CA,94538,955000,4,2.0,FREMONT,1969,7191,1977,471,485,,Sold,,,http://www.redfin.com/CA/Fremont/40730-Penn-Ln-94538/home/1839458,MLSListings,ML81613183,N,Y,37.540732,-121.9570727
PAST SALE,July-29-2016,Single Family Residential,5117 XAVIER Cmn,Fremont,CA,94555,1150000,4,2.5,Ardenwood,1932,3150,1990,558,595,32,Sold,,,http://www.redfin.com/CA/Fremont/5117-Xavier-Cmn-94555/home/1151065,EBRD/CCAR/Bay East,40739479,N,Y,37.5640704,-122.0526376
PAST SALE,August-8-2016,Single Family Residential,5340 LOCKSLEY Ave,Oakland,CA,94618,1425000,3,2.0,Rockridge,1507,3500,1912,548,946,,Sold,,,http://www.redfin.com/CA/Oakland/5340-Locksley-Ave-94618/home/530152,EBRD/CCAR/Bay East,40749591,N,Y,37.840747,-122.2557969
PAST SALE,June-10-2016,Single Family Residential,5112 RAY Ave,Castro Valley,CA,94546,820000,3,3.0,Castro Valley,1802,7085,1954,607,455,,Sold,,,http://www.redfin.com/CA/Castro-Valley/5112-Ray-Ave-94546/home/1594321,EBRD/CCAR/Bay East,40738862,N,Y,37.7076159,-122.0609912
PAST SALE,August-9-2016,Single Family Residential,8473 VALENCIA St,Dublin,CA,94568,725000,3,2.0,Dublin,1179,6600,1960,547,615,,Sold,,,http://www.redfin.com/CA/Dublin/8473-Valencia-St-94568/home/1840406,EBRD/CCAR/Bay East,40747816,N,Y,37.7186785,-121.9391714
PAST SALE,August-21-2016,Single Family Residential,3003 MIRALOMA Way,Union City,CA,94587,976000,4,3.0,Meridian Court,2847,6970,1992,535,343,170,Sold,,,http://www.redfin.com/CA/Union-City/3003-Miraloma-Way-94587/home/1020541,EBRD/CCAR/Bay East,40741690,N,Y,37.603355,-122.0767081
PAST SALE,December-28-2016,Single Family Residential,30652 Tidewater Dr,UNION CITY,CA,94587,975000,4,3.0,UNION CITY,2821,12888,2002,406,346,,Sold,,,http://www.redfin.com/CA/Union-City/30652-Tidewater-Dr-94587/home/1216460,MLSListings,ML81612046,N,Y,37.6021847,-122.0801037
PAST SALE,May-9-2016,Condo/Co-op,4917 Conway Ter,Fremont,CA,94555,630000,2,2.0,Fremont,1069,,1989,639,589,310,Sold,,,http://www.redfin.com/CA/Fremont/4917-Conway-Ter-94555/unit-118/home/1991396,EBRD/CCAR/Bay East,40734010,N,Y,37.5642716,-122.0454277
PAST SALE,June-15-2016,Single Family Residential,3217 SAN LUCES Way,Union City,CA,94587,655200,4,2.0,Casa Verde,1675,5500,1969,602,391,,Sold,,,http://www.redfin.com/CA/Union-City/3217-San-Luces-Way-94587/home/1921225,EBRD/CCAR/Bay East,40734514,N,Y,37.596247,-122.06868
PAST SALE,May-13-2016,Single Family Residential,3323 SAN LUCES Way,Union City,CA,94587,825000,4,2.5,Union City,1887,6200,1977,635,437,,Sold,,,http://www.redfin.com/CA/Union-City/3323-San-Luces-Way-94587/home/1857577,EBRD/CCAR/Bay East,40738227,N,Y,37.5952016,-122.07172
PAST SALE,,Townhouse,2124 Eric Ct Apt 3,Union City,CA,94587,370000,2,1.0,,903,,1974,,410,,,,,http://www.redfin.com/CA/Union-City/2124-Eric-Ct-94587/unit-3/home/902134,,,N,Y,37.5941688,-122.0529924
PAST SALE,November-29-2016,Single Family Residential,588 55th St,Oakland,CA,94609,730000,4,2.0,Alameda County,1501,2710,1910,435,486,,Sold,,,http://www.redfin.com/CA/Oakland/588-55th-St-94609/home/1951937,BAREIS,21621837,N,Y,37.8405827,-122.2639625
PAST SALE,March-30-2016,Single Family Residential,2982 Mallorca Way,UNION CITY,CA,94587,978000,4,3.0,UNION CITY,2847,6432,1994,679,344,165,Sold,,,http://www.redfin.com/CA/Union-City/2982-Mallorca-Way-94587/home/1213104,MLSListings,ML81549265,N,Y,37.6011019,-122.0748568
PAST SALE,September-16-2016,Condo/Co-op,2912 Flint #117,Union City,CA,94587,448000,2,2.0,Sugar Springs,908,50529,1987,509,493,268,Sold,,,http://www.redfin.com/CA/Union-City/2912-Flint-St-94587/unit-117/home/1682416,EBRD/CCAR/Bay East,40751360,N,Y,37.60442,-122.069607
PAST SALE,June-7-2016,Single Family Residential,32658 Lake Chad St,FREMONT,CA,94555,998000,4,2.0,FREMONT,1496,7091,1985,610,667,,Sold,,,http://www.redfin.com/CA/Fremont/32658-Lake-Chad-St-94555/home/1851958,MLSListings,ML81581725,N,Y,37.589166,-122.0578083
PAST SALE,September-9-2016,Single Family Residential,2915 SORRENTO Way,Union City,CA,94587,870000,3,2.5,Meridian Court,1889,4647,1992,516,461,165,Sold,,,http://www.redfin.com/CA/Union-City/2915-Sorrento-Way-94587/home/1018690,EBRD/CCAR/Bay East,40746395,N,Y,37.6054338,-122.0728942
PAST SALE,May-13-2016,Single Family Residential,30935 Periwinkle Dr,UNION CITY,CA,94587,700000,3,2.5,UNION CITY,1335,5980,1978,635,524,,Sold,,,http://www.redfin.com/CA/Union-City/30935-Periwinkle-Dr-94587/home/1636304,MLSListings,ML81578964,N,Y,37.5970268,-122.0740388
PAST SALE,April-19-2016,Single Family Residential,32872 Bass Lake St,FREMONT,CA,94555,1035000,4,2.5,FREMONT,1871,6516,1976,659,553,,Sold,,,http://www.redfin.com/CA/Fremont/32872-Bass-Lake-St-94555/home/589305,MLSListings,ML81562417,N,Y,37.5869739,-122.0568982
PAST SALE,,Condo/Co-op,60 Arden Rd,Berkeley,CA,94704,1450000,2,2.0,,1123,,1952,,1291,,,,,http://www.redfin.com/CA/Berkeley/60-Arden-Rd-94704/home/664800,,,N,Y,37.869356,-122.247654
PAST SALE,March-15-2016,Condo/Co-op,26937 HAYWARD Blvd #224,Hayward,CA,94542,320000,2,2.0,Hayward Hills,1240,,1982,694,258,402,Sold,,,http://www.redfin.com/CA/Hayward/26937-Hayward-Blvd-94542/unit-224/home/1646963,EBRD/CCAR/Bay East,40724795,N,Y,37.6548337,-122.0469284
PAST SALE,September-9-2016,Single Family Residential,3529 Barnacle Ct,UNION CITY,CA,94587,758000,4,2.5,UNION CITY,1793,8376,1980,516,423,,Sold,,,http://www.redfin.com/CA/Union-City/3529-Barnacle-Ct-94587/home/1316101,MLSListings,ML81595380,N,Y,37.5998104,-122.0771998
PAST SALE,December-5-2016,Single Family Residential,3145 SAN JUAN Pl,Union City,CA,94587,792000,4,2.5,Casa Verde,1805,5555,1968,429,439,,Sold,,,http://www.redfin.com/CA/Union-City/3145-San-Juan-Pl-94587/home/1034165,EBRD/CCAR/Bay East,40759666,N,Y,37.5961333,-122.0670745
PAST SALE,December-31-2016,Townhouse,32048 Paloma Ct,UNION CITY,CA,94587,520000,2,2.5,UNION CITY,1126,,1982,403,462,290,Sold,,,http://www.redfin.com/CA/Union-City/32048-Paloma-Ct-94587/home/1656385,MLSListings,ML81631319,N,Y,37.5867141,-122.0711439
PAST SALE,March-17-2016,Townhouse,4108 POLARIS Ave,Union City,CA,94587,507800,4,2.5,Contempo,1584,1794,1974,692,321,288,Sold,,,http://www.redfin.com/CA/Union-City/4108-Polaris-Ave-94587/home/1636681,EBRD/CCAR/Bay East,40728670,N,Y,37.5851352,-122.0637725
PAST SALE,,Condo/Co-op,33930 SAGRANTINO TER,FREMONT,CA,94555,919000,3,3.0,,2061,,2016,,446,,,,,http://www.redfin.com/CA/FREMONT/33930-SAGRANTINO-TER-94555/home/101376917,,,N,Y,37.588194,-122.066283
PAST SALE,January-23-2017,Single Family Residential,3235 San Carvante Way,Union City,CA,94587-2722,732000,3,2.0,Alvarado Niles,1762,5500,1971,380,415,,Sold,,,http://www.redfin.com/CA/Union-City/3235-San-Carvante-Way-94587/home/1876250,EBRD/CCAR/Bay East,40764669,N,Y,37.5900237,-122.0635085
PAST SALE,September-13-2016,Condo/Co-op,322 HANOVER Ave #207,Oakland,CA,94606,700000,2,2.0,Cleveland Heights,1137,32670,1984,512,616,470,Sold,,,http://www.redfin.com/CA/Oakland/322-Hanover-Ave-94606/unit-207/home/1757095,EBRD/CCAR/Bay East,40752132,N,Y,37.8021981,-122.2516172
PAST SALE,December-16-2016,Single Family Residential,4440 Delores Dr,Union City,CA,94587,880000,4,2.5,Crestwood 3,1880,6600,1976,418,468,,Sold,,,http://www.redfin.com/CA/Union-City/4440-Delores-Dr-94587/home/1046084,EBRD/CCAR/Bay East,40763163,N,Y,37.580196,-122.0673016
PAST SALE,April-8-2016,Townhouse,4271 POLARIS Ave,Union City,CA,94587,468888,3,1.5,Contempo,1214,1474,1974,670,386,288,Sold,,,http://www.redfin.com/CA/Union-City/4271-Polaris-Ave-94587/home/1736354,EBRD/CCAR/Bay East,40729486,N,Y,37.583447,-122.064599
PAST SALE,April-19-2016,Single Family Residential,3255 SAN PABLO Way,Union City,CA,94587,680000,4,2.0,Casa Verde,1762,5500,1969,659,386,,Sold,,,http://www.redfin.com/CA/Union-City/3255-San-Pablo-Way-94587/home/1601347,EBRD/CCAR/Bay East,40731129,N,Y,37.5943183,-122.0679048
PAST SALE,November-7-2016,Single Family Residential,4102 Pleiades Pl,UNION CITY,CA,94587,750000,4,2.0,UNION CITY,1859,7919,1978,457,403,,Sold,,,http://www.redfin.com/CA/Union-City/4102-Pleiades-Pl-94587/home/1040787,MLSListings,ML81589907,N,Y,37.5875094,-122.0661528
PAST SALE,,Condo/Co-op,32060 Paloma Ct,Union City,CA,94587,470000,2,2.0,,1126,,1982,,417,,,,,http://www.redfin.com/CA/Union-City/32060-Paloma-Ct-94587/home/1232975,,,N,Y,37.5867141,-122.0711439
PAST SALE,April-12-2016,Single Family Residential,2437 BALMORAL St,Union City,CA,94587,773000,4,2.0,Westview Estates,1888,6900,1968,666,409,,Sold,,,http://www.redfin.com/CA/Union-City/2437-Balmoral-St-94587/home/1708504,EBRD/CCAR/Bay East,40729748,N,Y,37.5977458,-122.0564367
PAST SALE,June-7-2016,Single Family Residential,2066 Eagle Ave,Alameda,CA,94501,850000,3,1.5,Alameda,1406,3910,1916,610,605,,Sold,,,http://www.redfin.com/CA/Alameda/2066-Eagle-Ave-94501/home/1389409,San Francisco MLS,445281,N,Y,37.7721119,-122.2467266
PAST SALE,,Condo/Co-op,25700 University Ct Apt 218,Hayward,CA,94542,380000,3,2.0,,1375,,1981,,276,,,,,http://www.redfin.com/CA/Hayward/25700-University-Ct-94542/unit-218/home/560804,,,N,Y,37.662123,-122.054958
PAST SALE,,Single Family Residential,11740 Dublin Blvd,Dublin,CA,94568,1097000,4,2.0,,2429,3300,2016,,452,,,,,http://www.redfin.com/CA/Dublin/11740-Dublin-Blvd-94568/home/143115502,,,N,Y,37.7011603,-121.9402445
PAST SALE,September-15-2016,Single Family Residential,28055 Harvey Ave,HAYWARD,CA,94544,435000,2,1.0,HAYWARD,798,5279,1957,510,545,,Sold,,,http://www.redfin.com/CA/Hayward/28055-Harvey-Ave-94544/home/1023563,MLSListings,ML81597995,N,Y,37.6304007,-122.0703113
PAST SALE,May-6-2016,Townhouse,4261 Solar Cir,UNION CITY,CA,94587,500000,4,2.5,UNION CITY,1584,1655,1973,642,316,288,Sold,,,http://www.redfin.com/CA/Union-City/4261-Solar-Cir-94587/home/1990204,MLSListings,ML81563787,N,Y,37.584584,-122.065366
PAST SALE,March-28-2016,Condo/Co-op,151 Wenatchee Cmn #14,FREMONT,CA,94539,676888,3,2.0,FREMONT,1170,,1987,681,579,280,Sold,,,http://www.redfin.com/CA/Fremont/151-Wenatchee-Cmn-94539/unit-14/home/545843,MLSListings,ML81549004,N,Y,37.4888733,-121.9272429
PAST SALE,December-9-2016,Single Family Residential,2437 Douglas St,Union City,CA,94587,800000,3,2.0,Union City,1987,6900,1968,425,403,,Sold,,,http://www.redfin.com/CA/Union-City/2437-Douglas-St-94587/home/1736023,EBRD/CCAR/Bay East,40761069,N,Y,37.5990199,-122.0555514
PAST SALE,September-9-2016,Single Family Residential,1920 5TH Ave,Oakland,CA,94606,675000,3,2.0,Ivy Hill,1389,4294,1922,516,486,,Sold,,,http://www.redfin.com/CA/Oakland/1920-5th-Ave-94606/home/1699037,EBRD/CCAR/Bay East,40752230,N,Y,37.7991427,-122.2486188
PAST SALE,June-10-2016,Condo/Co-op,2700 8th Ave #2,Oakland,CA,94606,532000,1,1.0,Ivy Hill,1000,4950,1928,607,532,250,Sold,,,http://www.redfin.com/CA/Oakland/2700-8th-Ave-94606/unit-2/home/17183554,EBRD/CCAR/Bay East,40741493,N,Y,37.8016101,-122.2391244
PAST SALE,January-27-2017,Single Family Residential,3789 GRAND LAKE Dr,Fremont,CA,94555,886000,3,2.0,North Pointe,1346,6279,1973,376,658,,Sold,,,http://www.redfin.com/CA/Fremont/3789-Grand-Lake-Dr-94555/home/2005595,EBRD/CCAR/Bay East,40765384,N,Y,37.5877429,-122.0611492
PAST SALE,,Condo/Co-op,4101 Howe St #21,Oakland,CA,94611,630000,2,2.0,,1104,,1966,,571,,,,,http://www.redfin.com/CA/Oakland/4101-Howe-St-94611/unit-21/home/527483,,,N,Y,37.8274146,-122.2532555
PAST SALE,August-19-2016,Single Family Residential,853 ROSEMOUNT Rd,Oakland,CA,94610,2022000,4,3.5,Crocker Hghlands,2242,7215,1934,537,902,14,Sold,,,http://www.redfin.com/CA/Oakland/853-Rosemount-Rd-94610/home/1321987,EBRD/CCAR/Bay East,40747865,N,Y,37.808558,-122.235468
PAST SALE,,Single Family Residential,2116 7th Ave,Oakland,CA,94606,348000,2,2.0,,1048,3125,1910,,332,,,,,http://www.redfin.com/CA/Oakland/2116-7th-Ave-94606/home/1726501,,,N,Y,37.7990464,-122.2450888
PAST SALE,May-16-2016,Single Family Residential,34193 Donahue Ter,FREMONT,CA,94555,1030000,3,2.5,FREMONT,1686,3798,1990,632,611,85,Sold,,,http://www.redfin.com/CA/Fremont/34193-Donahue-Ter-94555/home/1406861,MLSListings,ML81576941,N,Y,37.563727,-122.0570233
PAST SALE,June-20-2016,Single Family Residential,3858 RHODA Ave,Oakland,CA,94602,730000,2,1.0,Lincoln Heights,806,4375,1925,597,906,,Sold,,,http://www.redfin.com/CA/Oakland/3858-Rhoda-Ave-94602/home/542006,EBRD/CCAR/Bay East,40740135,N,Y,37.8018861,-122.2063335
PAST SALE,June-8-2016,Single Family Residential,3325 COOLIDGE Ave,Oakland,CA,94602,470000,4,1.5,Fruitvale,1142,4428,1908,609,412,,Sold,,,http://www.redfin.com/CA/Oakland/3325-Coolidge-Ave-94602/home/690658,EBRD/CCAR/Bay East,40738571,N,Y,37.7962052,-122.2113174
PAST SALE,,Vacant Land,34109 Spur Way,Fremont,CA,94555,1589500,,,,,4500,,,,,,,,http://www.redfin.com/CA/Fremont/34109-Spur-Way-94555/home/113494131,,,N,Y,37.5658892,-122.0597293
PAST SALE,,Single Family Residential,2757 Aschow Ln,Alameda,CA,94501,1249000,5,3.0,,2879,3466,2016,,434,,,,,http://www.redfin.com/CA/Alameda/2757-Aschow-Ln-94501/home/95473437,,,N,Y,37.7883055,-122.2819033
PAST SALE,,Single Family Residential,56 Adair Way,Hayward,CA,94542,1430500,4,3.0,,4674,9127,2016,,306,,,,,http://www.redfin.com/CA/Hayward/56-Adair-Way-94542/home/95472860,,,N,Y,37.6503443,-122.0105718
PAST SALE,,Single Family Residential,3116 Harper St,Berkeley,CA,94703,650000,2,1.0,,1007,2272,1909,,645,,,,,http://www.redfin.com/CA/Berkeley/3116-Harper-St-94703/home/1745723,,,N,Y,37.8517498,-122.2720815
PAST SALE,,Single Family Residential,1336 Carrison St,Berkeley,CA,94702,725000,4,2.0,,1701,4712,1922,,426,,,,,http://www.redfin.com/CA/Berkeley/1336-Carrison-St-94702/home/1882820,,,N,Y,37.8521177,-122.2817099
PAST SALE,,Single Family Residential,33475 Bronco Loop,Fremont,CA,94555,1563000,5,4.0,,3402,5400,2016,,459,,,,,http://www.redfin.com/CA/Fremont/33475-Bronco-Loop-94555/home/95474185,,,N,Y,37.5653463,-122.0642852
PAST SALE,,Condo/Co-op,6465 San Pablo Ave Unit 3-3,Oakland,CA,94608,620000,2,2.0,,972,,2008,,638,,,,,http://www.redfin.com/CA/Oakland/6465-San-Pablo-Ave-94608/unit-3-3/home/22961867,,,N,Y,37.8477199,-122.2855876
PAST SALE,,Single Family Residential,4227 Eggers Dr,Fremont,CA,94536,390000,3,2.0,,1251,6033,1959,,312,,,,,http://www.redfin.com/CA/Fremont/4227-Eggers-Dr-94536/home/897185,,,N,Y,37.550229,-121.998533
PAST SALE,,Single Family Residential,33486 Bronco Loop,Fremont,CA,94555,1446000,3,2.0,,2596,5473,2016,,557,,,,,http://www.redfin.com/CA/Fremont/33486-Bronco-Loop-94555/home/95474189,,,N,Y,37.5647434,-122.0640245
PAST SALE,August-5-2016,Condo/Co-op,590 El Dorado Ave #313,Oakland,CA,94611,460000,1,1.0,Oakland,803,,1972,551,573,314,Sold,,,http://www.redfin.com/CA/Oakland/590-El-Dorado-Ave-94611/unit-313/home/113611086,San Francisco MLS,443695,N,Y,37.8216303,-122.2525136
PAST SALE,October-12-2016,Single Family Residential,4536 LOGAN Ct,Fremont,CA,94536,1015000,3,2.5,Glenmoor Gardens,1998,9711,1960,483,508,13,Sold,,,http://www.redfin.com/CA/Fremont/4536-Logan-Ct-94536/home/740182,EBRD/CCAR/Bay East,40756090,N,Y,37.5483537,-122.0060937
PAST SALE,November-9-2016,Single Family Residential,38462 KIMBRO St,Fremont,CA,94536,877500,3,2.0,Glenmoor-Upper,1343,8720,1958,455,653,12,Sold,,,http://www.redfin.com/CA/Fremont/38462-Kimbro-St-94536/home/740380,EBRD/CCAR/Bay East,40760382,N,Y,37.5486626,-121.9977442
PAST SALE,July-29-2016,Single Family Residential,34049 Stirrup Way,Fremont,CA,94555,1402784,3,2.5,Ardenwood,2651,4500,2016,558,529,154,Sold,,,http://www.redfin.com/CA/Fremont/34049-Stirrup-Way-94555/home/95474342,EBRD/CCAR/Bay East,40729002,N,Y,37.5641605,-122.0613145
PAST SALE,May-4-2016,Single Family Residential,4620 BOONE Dr,Fremont,CA,94538,825000,3,2.0,South Sundale,1500,5400,1961,644,550,,Sold,,,http://www.redfin.com/CA/Fremont/4620-Boone-Dr-94538/home/2035188,EBRD/CCAR/Bay East,40733518,N,Y,37.5344915,-121.9822336
PAST SALE,December-16-2016,Single Family Residential,39391 Sutter Dr,Fremont,CA,94538,810000,3,2.0,Sundale,1308,5700,1959,418,619,,Sold,,,http://www.redfin.com/CA/Fremont/39391-Sutter-Dr-94538/home/1817514,EBRD/CCAR/Bay East,40764691,N,Y,37.5363222,-121.9910243
PAST SALE,,Single Family Residential,34018 Stetson Way,Fremont,CA,94555,1380000,4,2.0,,2651,4500,2016,,521,,,,,http://www.redfin.com/CA/Fremont/34018-Stetson-Way-94555/home/95474337,,,N,Y,37.5639508,-122.0614791
PAST SALE,September-6-2016,Single Family Residential,7339 HOLLY St,Oakland,CA,94621,370000,3,2.0,Heginberger,1355,3290,1928,519,273,,Sold,,,http://www.redfin.com/CA/Oakland/7339-Holly-St-94621/home/1871991,EBRD/CCAR/Bay East,40749052,N,Y,37.7616343,-122.1822709
PAST SALE,June-17-2016,Single Family Residential,28880 Rocky Point Ct,HAYWARD,CA,94542,1060000,4,3.0,HAYWARD,2670,9792,2003,600,397,163,Sold,,,http://www.redfin.com/CA/Hayward/28880-Rocky-Point-Ct-94542/home/1387414,MLSListings,ML81584364,N,Y,37.647161,-122.0173174
PAST SALE,July-15-2016,Single Family Residential,9770 Sara Ann Ct,Dublin,CA,94568,1674951,5,4.5,Schaefer Ranch,4015,9442,2015,572,417,44,Sold,,,http://www.redfin.com/CA/Dublin/9770-Sara-Ann-Ct-94568/home/50263912,EBRD/CCAR/Bay East,40725542,N,Y,37.7020995,-121.9785536
PAST SALE,March-3-2016,Single Family Residential,39344 Sundale Dr,Fremont,CA,94538,638750,3,2.0,Sundale,1131,5400,1963,706,565,,Sold,,,http://www.redfin.com/CA/Fremont/39344-Sundale-Dr-94538/home/799509,EBRD/CCAR/Bay East,40726100,N,Y,37.5367209,-121.9863234
PAST SALE,October-10-2016,Single Family Residential,40159 Margery Ct,FREMONT,CA,94538,909000,3,2.5,FREMONT,1511,7832,1959,485,602,,Sold,,,http://www.redfin.com/CA/Fremont/40159-Margery-Ct-94538/home/801107,MLSListings,ML81601467,N,Y,37.5340719,-121.9753512
PAST SALE,,Single Family Residential,33910 Half Hitch St,Fremont,CA,94555,1490500,4,2.0,,3105,5106,2016,,480,,,,,http://www.redfin.com/CA/Fremont/33910-Half-Hitch-St-94555/home/95474300,,,N,Y,37.5630105,-122.0628315
PAST SALE,May-13-2016,Single Family Residential,39888 BESCO Dr,Fremont,CA,94538,806000,4,2.0,Sundale,1302,7276,1960,635,619,,Sold,,,http://www.redfin.com/CA/Fremont/39888-Besco-Dr-94538/home/1273495,EBRD/CCAR/Bay East,40735384,N,Y,37.5338979,-121.9809003
PAST SALE,October-4-2016,Single Family Residential,44166 Pomace St,FREMONT,CA,94539,1050101,3,2.0,FREMONT,1785,7752,1967,491,588,,Sold,,,http://www.redfin.com/CA/Fremont/44166-Pomace-St-94539/home/1280216,MLSListings,ML81600250,N,Y,37.5130901,-121.9373933
PAST SALE,March-15-2017,Single Family Residential,33934 Half Hitch St,Fremont,CA,94555,1270246,4,3.0,Ardenwood,1973,6008,2016,329,644,154,Sold,,,http://www.redfin.com/CA/Fremont/33934-Half-Hitch-St-94555/home/95474302,EBRD/CCAR/Bay East,40764664,N,Y,37.5625655,-122.0619476
PAST SALE,May-6-2016,Single Family Residential,2626 35TH Ave,Oakland,CA,94619,390000,3,1.5,Allendale,1164,3230,1923,642,335,,Sold,,,http://www.redfin.com/CA/Oakland/2626-35th-Ave-94619/home/552254,EBRD/CCAR/Bay East,40730647,N,Y,37.7881908,-122.2096158
PAST SALE,April-6-2016,Townhouse,43525 Ocaso Corte,FREMONT,CA,94539,1100000,3,2.5,FREMONT,1904,1607,1979,672,578,410,Sold,,,http://www.redfin.com/CA/Fremont/43525-Ocaso-Corte-94539/home/1981243,MLSListings,ML81561281,N,Y,37.525368,-121.931156
PAST SALE,April-11-2016,Single Family Residential,40424 Foster St,Fremont,CA,94538,712000,4,2.0,Stanley Davis,1179,5000,1954,667,604,,Sold,,,http://www.redfin.com/CA/Fremont/40424-Foster-St-94538/home/1981642,EBRD/CCAR/Bay East,40729696,N,Y,37.5364824,-121.9683706
PAST SALE,June-22-2016,Townhouse,5833 Via Lugano,Fremont,CA,94555,785000,2,2.5,Fremont,,1246,2013,595,,216,Sold,,,http://www.redfin.com/CA/Fremont/5833-Via-Lugano-94555/home/17185570,EBRD/CCAR/Bay East,40739971,N,Y,37.560135,-122.062556
PAST SALE,July-21-2016,Condo/Co-op,40848 Townsend Ter,FREMONT,CA,94538,810000,3,3.0,FREMONT,1292,,2007,566,627,275,Sold,,,http://www.redfin.com/CA/Fremont/40848-Townsend-Ter-94538/home/22646064,MLSListings,ML81591309,N,Y,37.53272,-121.9670952
PAST SALE,May-6-2016,Single Family Residential,4352 CAHILL St,Fremont,CA,94538,790000,3,2.0,Sundale South,1581,5300,1955,642,500,,Sold,,,http://www.redfin.com/CA/Fremont/4352-Cahill-St-94538/home/1839507,EBRD/CCAR/Bay East,40733424,N,Y,37.5336893,-121.9706394
PAST SALE,,Single Family Residential,1906 Dalton Way,Union City,CA,94587,174000,4,2.0,,1571,6000,1968,,111,,,,,http://www.redfin.com/CA/Union-City/1906-Dalton-Way-94587/home/1299608,,,N,Y,37.5928686,-122.029586
PAST SALE,September-30-2016,Single Family Residential,4100 BROOKDALE Ave,Oakland,CA,94619,499000,2,2.0,High Street,1124,3160,1925,495,444,,Sold,,,http://www.redfin.com/CA/Oakland/4100-Brookdale-Ave-94619/home/551023,EBRD/CCAR/Bay East,40754023,N,Y,37.783458,-122.2049509
PAST SALE,August-19-2016,Single Family Residential,3579 OAKES Dr,Hayward,CA,94542,760000,4,2.0,Hay Hills,2566,12876,1968,537,296,27,Sold,,,http://www.redfin.com/CA/Hayward/3579-Oakes-Dr-94542/home/1626235,EBRD/CCAR/Bay East,40741409,N,Y,37.6620487,-122.0406978
PAST SALE,December-23-2016,Single Family Residential,40601 Verne St,FREMONT,CA,94538,850000,3,2.0,FREMONT,1604,11850,1960,411,530,,Sold,,,http://www.redfin.com/CA/Fremont/40601-Verne-St-94538/home/2009899,MLSListings,ML81632244,N,Y,37.5256837,-121.9758207
PAST SALE,April-12-2016,Single Family Residential,4586 PIPER St,Fremont,CA,94538,832000,3,2.5,South Sundale,1428,5869,1960,666,583,,Sold,,,http://www.redfin.com/CA/Fremont/4586-Piper-St-94538/home/1272992,EBRD/CCAR/Bay East,40730943,N,Y,37.5303509,-121.9760108
PAST SALE,June-20-2016,Condo/Co-op,303 ADAMS St #208,Oakland,CA,94610,616000,2,2.0,Adams Point,1116,,1971,597,552,391,Sold,,,http://www.redfin.com/CA/Oakland/303-Adams-St-94610/unit-208/home/1542238,EBRD/CCAR/Bay East,40740145,N,Y,37.8142852,-122.2566259
PAST SALE,,Single Family Residential,3173 Washington Blvd,Fremont,CA,94539,1170000,3,2.0,,1166,18245,1906,,1003,,,,,http://www.redfin.com/CA/Fremont/3173-Washington-Blvd-94539/home/1769115,,,N,Y,37.5340127,-121.951084
PAST SALE,August-16-2016,Single Family Residential,41025 PAJARO,FREMONT,CA,94539,1350000,4,2.0,FREMONT,1972,8000,1964,540,685,,Sold,,,http://www.redfin.com/CA/Fremont/41025-Pajaro-Dr-94539/home/1512785,MLSListings,ML81593138,N,Y,37.542006,-121.9486278
PAST SALE,December-5-2016,Single Family Residential,1638 Blake St,Berkeley,CA,94703,960000,3,2.0,Berkeley,1052,3325,1921,429,913,,Sold,,,http://www.redfin.com/CA/Berkeley/1638-Blake-St-94703/home/2006329,EBRD/CCAR/Bay East,40760550,N,Y,37.8617222,-122.2766177
PAST SALE,,Multi-Family (2-4 Unit),2619 High St,Oakland,CA,94619,1775000,21,13.0,,9518,10000,1965,,186,,,,,http://www.redfin.com/CA/Oakland/2619-High-St-94619/home/1404566,,,N,Y,37.7829845,-122.2039604
PAST SALE,December-20-2016,Single Family Residential,1225 Arnold Ct,Fremont,CA,94539,1910000,5,3.5,Mission,2931,21252,1960,414,652,,Sold,,,http://www.redfin.com/CA/Fremont/1225-Arnold-Ct-94539/home/1949125,EBRD/CCAR/Bay East,40761916,N,Y,37.5412351,-121.9428377
PAST SALE,August-25-2016,Single Family Residential,41721 Paseo Padre Pkwy,FREMONT,CA,94539,1248500,3,2.0,FREMONT,1434,7200,1960,531,871,,Sold,,,http://www.redfin.com/CA/Fremont/41721-Paseo-Padre-Pkwy-94539/home/2020893,MLSListings,ML81594105,N,Y,37.5391368,-121.9425576
PAST SALE,December-20-2016,Single Family Residential,2205 Mcgee Ave,Berkeley,CA,94703,989000,2,1.0,Central Berkeley,1108,2450,1921,414,893,,Sold,,,http://www.redfin.com/CA/Berkeley/2205-McGee-Ave-94703/home/1498342,EBRD/CCAR/Bay East,40762087,N,Y,37.867923,-122.276932
PAST SALE,February-10-2017,Single Family Residential,4936 Omar St,Fremont,CA,94538,905000,3,2.0,Fremont,1347,6798,1963,362,672,,Sold,,,http://www.redfin.com/CA/Fremont/4936-Omar-St-94538/home/1114914,EBRD/CCAR/Bay East,40767396,N,Y,37.5215725,-121.9752619
