SALE TYPE,SOLD DATE,PROPERTY TYPE,ADDRESS,CITY,STATE,ZIP,PRICE,BEDS,BATHS,LOCATION,SQUARE FEET,LOT SIZE,YEAR BUILT,DAYS ON MARKET,$/SQUARE FEET,HOA/MONTH,STATUS,NEXT OPEN HOUSE START TIME,NEXT OPEN HOUSE END TIME,URL (SEE http://www.redfin.com/buy-a-home/comparative-market-analysis FOR INFO ON PRICING),SOURCE,MLS#,FAVORITE,INTERESTED,LATITUDE,LONGITUDE
PAST SALE,November-30-2017,Single Family Residential,6155 Bridgestone Cir,Dublin,CA,94568,945000,3,2.5,Dublin Ranch,1862,3083,2000,69,508,120,Sold,,,http://www.redfin.com/CA/Dublin/6155-Bridgestone-Cir-94568/home/1538227,EBRD/CCAR/Bay East,40801163,N,Y,37.724569,-121.870951
PAST SALE,December-7-2017,Single Family Residential,3237 San Marco Way,Union City,CA,94587,865000,4,2.0,Union City,1675,5500,1969,62,516,,Sold,,,http://www.redfin.com/CA/Union-City/3237-San-Marco-Way-94587/home/1403203,EBRD/CCAR/Bay East,40801612,N,Y,37.5949869,-122.0681339
PAST SALE,December-4-2017,Condo/Co-op,23139 Canyon Terrace Dr,Castro Valley,CA,94552,685000,4,2.5,Wildwood,1463,,1996,65,468,419,Sold,,,http://www.redfin.com/CA/Castro-Valley/23139-Canyon-Terrace-Dr-94552/unit-9-02/home/1337890,EBRD/CCAR/Bay East,40800104,N,Y,37.689303,-122.040171
PAST SALE,December-14-2017,Condo/Co-op,1321 Webster St Unit D210,Alameda,CA,94501,420000,1,1.0,Park Webster,701,35258,1970,55,599,412,Sold,,,http://www.redfin.com/CA/Alameda/1321-Webster-St-94501/unit-D210/home/740860,EBRD/CCAR/Bay East,40801556,N,Y,37.7698809,-122.2777044
PAST SALE,December-18-2017,Single Family Residential,6923 Bristol Dr,Berkeley,CA,94705,1120000,4,3.5,Claremont Hills,3601,6922,1995,51,311,,Sold,,,http://www.redfin.com/CA/Berkeley/6923-Bristol-Dr-94705/home/632760,EBRD/CCAR/Bay East,40801225,N,Y,37.8575478,-122.2237068
PAST SALE,December-4-2017,Single Family Residential,1945 Sherman Dr,Union City,CA,94587,829000,3,2.0,Union City,1349,6000,1968,65,615,,Sold,,,http://www.redfin.com/CA/Union-City/1945-Sherman-Dr-94587/home/1816145,EBRD/CCAR/Bay East,40802298,N,Y,37.5949713,-122.0311013
PAST SALE,December-6-2017,Single Family Residential,1344 99Th Ave,Oakland,CA,94603,449000,3,2.0,East Oakland,1352,3666,1946,63,332,,Sold,,,http://www.redfin.com/CA/Oakland/1344-99th-Ave-94603/home/1330379,EBRD/CCAR/Bay East,40799358,N,Y,37.743134,-122.1705571
PAST SALE,December-19-2017,Single Family Residential,2100 109Th Ave,Oakland,CA,94603,550000,4,2.0,Durant Manor,1328,3737,1941,50,414,,Sold,,,http://www.redfin.com/CA/Oakland/2100-109th-Ave-94603/home/1458917,EBRD/CCAR/Bay East,40803330,N,Y,37.7390311,-122.1571958
PAST SALE,December-7-2017,Single Family Residential,1040 Keith Ave,Berkeley,CA,94708,1382650,4,3.5,North Cragmont,2240,5757,1960,62,617,,Sold,,,http://www.redfin.com/CA/Berkeley/1040-Keith-Ave-94708/home/1729870,EBRD/CCAR/Bay East,40802129,N,Y,37.8891434,-122.2646362
PAST SALE,November-22-2017,Single Family Residential,5515 Civic Terrace Ave,Newark,CA,94560,790000,3,3.0,Newark,1455,2700,1987,77,543,119,Sold,,,http://www.redfin.com/CA/Newark/5515-Civic-Terrace-Ave-94560/home/2046403,EBRD/CCAR/Bay East,40800848,N,Y,37.541277,-122.025207
PAST SALE,December-29-2017,Single Family Residential,1145 Tiegen Dr,Hayward,CA,94542,530000,2,1.0,Hayward,846,5670,1948,40,626,,Sold,,,http://www.redfin.com/CA/Hayward/1145-Tiegen-Dr-94542/home/1641617,EBRD/CCAR/Bay East,40803716,N,Y,37.6662467,-122.0726949
PAST SALE,January-12-2018,Multi-Family (2-4 Unit),641 65Th St,Oakland,CA,94609,1620000,6,3.0,Oakland,2757,4800,1923,26,588,,Sold,,,http://www.redfin.com/CA/Oakland/641-65th-St-94609/home/531372,EBRD/CCAR/Bay East,40804715,N,Y,37.8503947,-122.2639903
PAST SALE,December-15-2017,Condo/Co-op,692 Macabee Way,Hayward,CA,94541,668000,3,3.0,Hayward,1516,,2011,54,441,223,Sold,,,http://www.redfin.com/CA/Hayward/692-Macabee-Way-94541/home/40087039,EBRD/CCAR/Bay East,40804460,N,Y,37.662464,-122.091361
PAST SALE,December-22-2017,Single Family Residential,1779 Serenidad St,Livermore,CA,94550,775000,3,2.0,Livermore,1488,6000,1967,47,521,,Sold,,,http://www.redfin.com/CA/Livermore/1779-Serenidad-St-94550/home/902344,EBRD/CCAR/Bay East,40804689,N,Y,37.6616985,-121.7877906
PAST SALE,November-9-2017,Single Family Residential,570 Firenza St,Livermore,CA,94551,1035000,5,3.0,Monticello,2748,7560,1994,90,377,,Sold,,,http://www.redfin.com/CA/Livermore/570-Firenza-St-94551/home/890655,EBRD/CCAR/Bay East,40797668,N,Y,37.6865277,-121.7930546
PAST SALE,January-30-2018,Single Family Residential,36194 Silverado Pl,Newark,CA,94560,1320000,4,3.0,Mayhew Landing,2317,4864,1998,8,570,55,Sold,,,http://www.redfin.com/CA/Newark/36194-Silverado-Pl-94560/home/1984655,EBRD/CCAR/Bay East,40806346,N,Y,37.5343823,-122.0596512
PAST SALE,November-17-2017,Single Family Residential,33276 Palomino Cmn,Fremont,CA,94555,1035000,4,2.5,Kensington Park,1988,4602,1993,82,521,100,Sold,,,http://www.redfin.com/CA/Fremont/33276-Palomino-Cmn-94555/home/1152610,EBRD/CCAR/Bay East,40796661,N,Y,37.5841746,-122.0515637
PAST SALE,December-15-2017,Multi-Family (2-4 Unit),2127 E 21St St,Oakland,CA,94606,639000,4,2.0,Oakland,1500,1850,1906,54,426,,Sold,,,http://www.redfin.com/CA/Oakland/2127-E-21st-St-94606/home/1476727,EBRD/CCAR/Bay East,40787388,N,Y,37.789672,-122.233703
PAST SALE,January-3-2018,Multi-Family (2-4 Unit),1206 Allston Way,Berkeley,CA,94702,997000,3,2.0,Berkeley,1678,4000,1929,35,594,,Sold,,,http://www.redfin.com/CA/Berkeley/1206-Allston-Way-94702/home/1098677,EBRD/CCAR/Bay East,40803122,N,Y,37.8665598,-122.2886463
PAST SALE,November-30-2017,Townhouse,800 Old Oak Ln #4,Hayward,CA,94541,586000,3,2.5,Hayward,1303,1201,2011,69,450,211,Sold,,,http://www.redfin.com/CA/Hayward/800-Old-Oak-Ln-94541/unit-4/home/22682694,EBRD/CCAR/Bay East,40801289,N,Y,37.6650673,-122.0989584
PAST SALE,December-5-2017,Single Family Residential,1206 41St Ave,Oakland,CA,94601,425000,2,1.0,Fruitvale,871,2775,1912,64,488,,Sold,,,http://www.redfin.com/CA/Oakland/1206-41st-Ave-94601/home/1196211,EBRD/CCAR/Bay East,40802935,N,Y,37.7724663,-122.2177188
PAST SALE,November-17-2017,Single Family Residential,35333 Lancero St,FREMONT,CA,94536,1248000,5,4.0,FREMONT,2090,9202,1965,82,597,,Sold,,,http://www.redfin.com/CA/Fremont/35333-Lancero-St-94536/home/1318856,MLSListings,ML81680587,N,Y,37.5646615,-122.0325892
PAST SALE,November-13-2017,Condo/Co-op,191 Loma Verde Dr,San Lorenzo,CA,94580,440000,2,1.5,Loma Verde,1056,,1985,86,417,288,Sold,,,http://www.redfin.com/CA/San-Lorenzo/191-Loma-Verde-Dr-94580/home/946082,EBRD/CCAR/Bay East,40798382,N,Y,37.685602,-122.118188
PAST SALE,November-14-2017,Townhouse,7225 Cronin Cir,Dublin,CA,94568,535000,2,1.5,Kildara,906,906,1991,85,591,355,Sold,,,http://www.redfin.com/CA/Dublin/7225-Cronin-Cir-94568/unit-152/home/1991667,EBRD/CCAR/Bay East,40801121,N,Y,37.703689,-121.938419
PAST SALE,January-31-2018,Single Family Residential,1230 Mattox Rd,Hayward,CA,94541,675000,4,3.0,Hayward,1967,22920,1941,7,343,,Sold,,,http://www.redfin.com/CA/Hayward/1230-Mattox-Rd-94541/home/1441011,EBRD/CCAR/Bay East,40795690,N,Y,37.6866997,-122.0982569
PAST SALE,November-13-2017,Single Family Residential,963 Helen Ave,San Leandro,CA,94577,685000,3,2.0,Broadmoor/Dutton,1397,6970,1927,86,490,,Sold,,,http://www.redfin.com/CA/San-Leandro/963-Helen-Ave-94577/home/757677,EBRD/CCAR/Bay East,40796686,N,Y,37.737115,-122.146195
PAST SALE,November-17-2017,Single Family Residential,7841 Surrey Ln,Oakland,CA,94605,823000,4,3.0,Sequoyah,2442,8400,1970,82,337,,Sold,,,http://www.redfin.com/CA/Oakland/7841-Surrey-Ln-94605/home/592451,EBRD/CCAR/Bay East,40790031,N,Y,37.7764951,-122.1385678
PAST SALE,December-29-2017,Single Family Residential,3917 Market St,Oakland,CA,94608,997000,3,1.0,N Oakland,1333,3640,1940,40,748,,Sold,,,http://www.redfin.com/CA/Oakland/3917-Market-St-94608/home/1457399,EBRD/CCAR/Bay East,40804586,N,Y,37.8302232,-122.2743329
PAST SALE,November-15-2017,Townhouse,3760 39Th Ave Unit H,Oakland,CA,94619,575000,2,2.5,Laurel Heights,1094,,1993,84,526,310,Sold,,,http://www.redfin.com/CA/Oakland/3760-39th-Ave-94619/unit-H/home/1250374,EBRD/CCAR/Bay East,40798718,N,Y,37.79078,-122.194564
PAST SALE,December-20-2017,Single Family Residential,4887 Rogers Ave,Fremont,CA,94536,1100500,3,1.5,Glenmoor Gardens,1242,9000,1953,49,886,12,Sold,,,http://www.redfin.com/CA/Fremont/4887-Rogers-Ave-94536/home/1299825,EBRD/CCAR/Bay East,40803487,N,Y,37.5422386,-122.0061759
PAST SALE,December-5-2017,Single Family Residential,4638 Richmond Ave,FREMONT,CA,94536,1470000,4,3.0,FREMONT,2537,11050,1958,64,579,13,Sold,,,http://www.redfin.com/CA/Fremont/4638-Richmond-Ave-94536/home/1279322,MLSListings,ML81682213,N,Y,37.5425911,-121.9992144
PAST SALE,November-9-2017,Single Family Residential,1425 Cheryl Dr,Livermore,CA,94550,1070000,5,3.5,Coventry,3149,9600,1999,90,340,,Sold,,,http://www.redfin.com/CA/Livermore/1425-Cheryl-Dr-94550/home/1886235,EBRD/CCAR/Bay East,40800246,N,Y,37.6846013,-121.7243686
PAST SALE,December-13-2017,Single Family Residential,,Fremont,CA,94536,695000,3,2.5,Fremont,1144,5429,1942,56,608,,Sold,,,http://www.redfin.com/CA/Fremont/Undisclosed-address-94536/home/1052180,EBRD/CCAR/Bay East,40791482,N,Y,37.5480039,-122.0171252
PAST SALE,November-29-2017,Single Family Residential,4619 Central Ave,Fremont,CA,94536,1160000,5,4.5,Centreville,2550,14848,1896,70,455,,Sold,,,http://www.redfin.com/CA/Fremont/4619-Central-Ave-94536/home/1049660,EBRD/CCAR/Bay East,40795909,N,Y,37.548841,-122.010588
PAST SALE,November-13-2017,Single Family Residential,971 Dana Cir,Livermore,CA,94550-3781,930000,4,3.0,Windmill Srpings,2472,8054,1992,86,376,,Sold,,,http://www.redfin.com/CA/Livermore/971-Dana-Cir-94550/home/2007150,EBRD/CCAR/Bay East,40799238,N,Y,37.6818007,-121.7380986
PAST SALE,January-5-2018,Condo/Co-op,220 Caldecott Ln #117,Oakland,CA,94618,576000,2,2.0,Parkwoods,1058,9990,1996,33,544,491,Sold,,,http://www.redfin.com/CA/Oakland/220-Caldecott-Ln-94618/unit-117/home/627597,EBRD/CCAR/Bay East,40804928,N,Y,37.8572286,-122.2206079
PAST SALE,November-17-2017,Single Family Residential,4524 Gertrude Dr,Fremont,CA,94536,900000,3,2.0,Glen Manor,1096,6076,1960,82,821,,Sold,,,http://www.redfin.com/CA/Fremont/4524-Gertrude-Dr-94536/home/1752822,EBRD/CCAR/Bay East,40801217,N,Y,37.542582,-121.9943899
PAST SALE,February-6-2018,Single Family Residential,2572 Spyglass Hills Rd,Livermore,CA,94551,575000,3,2.0,North Livermore,1066,14045,1987,1,539,,Sold,,,http://www.redfin.com/CA/Livermore/2572-Spyglass-Hills-Rd-94551/home/1856275,EBRD/CCAR/Bay East,40807391,N,Y,37.7265906,-121.7253682
PAST SALE,November-20-2017,Single Family Residential,1532 Heather Ln,Livermore,CA,94551,660000,2,2.0,Springtown,1672,5900,1966,79,395,30,Sold,,,http://www.redfin.com/CA/Livermore/1532-Heather-Ln-94551/home/1941224,EBRD/CCAR/Bay East,40799718,N,Y,37.7151559,-121.7342758
PAST SALE,December-1-2017,Single Family Residential,5784 Cherry Way,Livermore,CA,94551,930000,4,3.0,North Livermore,2267,9039,1995,68,410,,Sold,,,http://www.redfin.com/CA/Livermore/5784-Cherry-Way-94551/home/1792936,EBRD/CCAR/Bay East,40801281,N,Y,37.7131662,-121.7275813
PAST SALE,January-17-2018,Single Family Residential,3842 Loch Lomand Way,Livermore,CA,94551,979000,4,3.0,Portola Glen,2523,7920,1991,21,388,,Sold,,,http://www.redfin.com/CA/Livermore/3842-Loch-Lomand-Way-94551/home/2007072,EBRD/CCAR/Bay East,40795270,N,Y,37.69438,-121.7529901
PAST SALE,January-5-2018,Single Family Residential,41 Buckeye Ave,Oakland,CA,94618,1451000,3,3.0,Upper Rockridge,1991,6480,1949,33,729,,Sold,,,http://www.redfin.com/CA/Oakland/41-Buckeye-Ave-94618/home/1801519,EBRD/CCAR/Bay East,40804723,N,Y,37.8409562,-122.2351549
PAST SALE,December-11-2017,Single Family Residential,1213 Lafayette St,Alameda,CA,94501,900000,3,2.0,Central Alameda,1717,2450,1927,58,524,,Sold,,,http://www.redfin.com/CA/Alameda/1213-Lafayette-St-94501/home/1368695,EBRD/CCAR/Bay East,40800534,N,Y,37.7677431,-122.2545593
PAST SALE,December-15-2017,Single Family Residential,1252 Sherman St,Alameda,CA,94501,1195000,3,1.5,Gold Coast,1595,5500,1910,54,749,,Sold,,,http://www.redfin.com/CA/Alameda/1252-Sherman-St-94501/home/1408002,EBRD/CCAR/Bay East,40803693,N,Y,37.7689831,-122.2632054
PAST SALE,November-14-2017,Condo/Co-op,584 Sandalwood Dr,Livermore,CA,94551,819720,4,3.0,Livermore,2006,,2017,85,409,358,Sold,,,http://www.redfin.com/CA/Livermore/584-Sandalwood-Dr-94551/home/114134168,EBRD/CCAR/Bay East,40784273,N,Y,37.7028159,-121.7923745
PAST SALE,January-10-2018,Single Family Residential,39784 Potrero Dr,NEWARK,CA,94560,881000,3,2.5,NEWARK,1762,3000,1994,28,500,170,Sold,,,http://www.redfin.com/CA/Newark/39784-Potrero-Dr-94560/home/1157822,MLSListings,ML81686788,N,Y,37.5174098,-121.9933615
PAST SALE,November-9-2017,Single Family Residential,1363 Columbus Ave,Livermore,CA,94550,795000,3,2.0,Old Granada,1560,6500,1958,90,510,,Sold,,,http://www.redfin.com/CA/Livermore/1363-Columbus-Ave-94550/home/1418935,EBRD/CCAR/Bay East,40797722,N,Y,37.6677938,-121.7776174
PAST SALE,November-17-2017,Single Family Residential,424 Virginia Dr,LIVERMORE,CA,94550,815000,4,2.0,LIVERMORE,1704,6500,1966,82,478,,Sold,,,http://www.redfin.com/CA/Livermore/424-Virginia-Dr-94550/home/903453,MLSListings,ML81677018,N,Y,37.675117,-121.797508
PAST SALE,November-13-2017,Single Family Residential,3682 Oregon Way,Livermore,CA,94550,662000,3,1.0,Jensen,1068,6100,1955,86,620,,Sold,,,http://www.redfin.com/CA/Livermore/3682-Oregon-Way-94550/home/1885782,EBRD/CCAR/Bay East,40801074,N,Y,37.6833095,-121.7564394
PAST SALE,November-16-2017,Single Family Residential,1633 Cascina Ct,Livermore,CA,94550,1400000,5,5.0,Prima,4171,11962,2001,83,336,,Sold,,,http://www.redfin.com/CA/Livermore/1633-Cascina-Ct-94550/home/1215055,EBRD/CCAR/Bay East,40803589,N,Y,37.6585705,-121.8018973
PAST SALE,November-13-2017,Single Family Residential,742 S G St,Livermore,CA,94550,930000,3,2.5,Old South Side,1772,5124,1989,86,525,,Sold,,,http://www.redfin.com/CA/Livermore/742-S-G-St-94550/home/1019838,EBRD/CCAR/Bay East,40799513,N,Y,37.6776427,-121.7624077
PAST SALE,November-9-2017,Single Family Residential,512 Fontonett Ave,Livermore,CA,94550-6222,795000,3,2.0,Livermore,1518,6255,1966,90,524,,Sold,,,http://www.redfin.com/CA/Livermore/512-Fontonett-Ave-94550/home/1861123,EBRD/CCAR/Bay East,40800309,N,Y,37.6620901,-121.7938864
PAST SALE,November-15-2017,Townhouse,115 Northwood Cmns,Livermore,CA,94551,635000,3,2.5,Northwood,1442,2584,1984,84,440,342,Sold,,,http://www.redfin.com/CA/Livermore/115-Northwood-Commons-94551/home/890047,EBRD/CCAR/Bay East,40797774,N,Y,37.681572,-121.789672
PAST SALE,,Single Family Residential,2826 Hoya Cmn,Livermore,CA,94551,805000,3,2.0,,2021,2552,2009,,398,,,,,http://www.redfin.com/CA/Livermore/2826-Hoya-Cmn-94551/home/18372206,,,N,Y,37.707609,-121.8005479
PAST SALE,November-16-2017,Condo/Co-op,716 Tranquility Cir #1,Livermore,CA,94551,759000,3,3.0,Livermore,2256,,2017,83,336,358,Sold,,,http://www.redfin.com/CA/Livermore/716-Tranquility-Cir-94551/unit-1/home/143115655,EBRD/CCAR/Bay East,40796905,N,Y,37.7041912,-121.7952397
PAST SALE,,Vacant Land,3134 Gardella Plz,Livermore,CA,94551,650000,,,,,1158,,,,,,,,http://www.redfin.com/CA/Livermore/3134-Gardella-Plz-94551/home/143119403,,,N,Y,37.6869534,-121.761605
PAST SALE,,Vacant Land,3134 Gardella Plz,Livermore,CA,94551,635000,,,,,1271,,,,,,,,http://www.redfin.com/CA/Livermore/3134-Gardella-Plz-94551/home/143119404,,,N,Y,37.6869534,-121.761605
PAST SALE,,Vacant Land,3134 Gardella Plz,Livermore,CA,94551,633500,,,,,1269,,,,,,,,http://www.redfin.com/CA/Livermore/3134-Gardella-Plz-94551/home/143119422,,,N,Y,37.6869534,-121.761605
PAST SALE,,Vacant Land,716 Tranquility Cir Unit 3,Livermore,CA,94551,757000,,,,,,,,,,,,,http://www.redfin.com/CA/Livermore/716-Tranquility-Cir-94551/unit-3/home/143115657,,,N,Y,37.7041912,-121.7952397
PAST SALE,,Vacant Land,570 Sandalwood Dr,Livermore,CA,94551,794000,,,,,,,,,,,,,http://www.redfin.com/CA/Livermore/570-Sandalwood-Dr-94551/home/143118383,,,N,Y,37.7028159,-121.7923745
PAST SALE,November-29-2017,Single Family Residential,325 Yukon Way,Livermore,CA,94550,1250000,4,3.0,South Livermore,2782,14690,1998,70,449,,Sold,,,http://www.redfin.com/CA/Livermore/325-Yukon-Way-94550/home/899070,EBRD/CCAR/Bay East,40801007,N,Y,37.6594245,-121.799832
PAST SALE,,Vacant Land,301 Basswood Cmn,Livermore,CA,94551,747000,,,,,,,,,,,,,http://www.redfin.com/CA/Livermore/301-Basswood-Cmn-94551/home/143118166,,,N,Y,37.7051866,-121.7939934
PAST SALE,January-25-2018,Single Family Residential,5918 Crestmont Ave,Livermore,CA,94551,620000,3,2.0,Livermore,1108,6300,1965,13,560,,Sold,,,http://www.redfin.com/CA/Livermore/5918-Crestmont-Ave-94551/home/1250174,EBRD/CCAR/Bay East,40807266,N,Y,37.7202886,-121.7260139
PAST SALE,February-1-2018,Condo/Co-op,39885 Pelton Ter,NEWARK,CA,94560,850000,2,2.5,NEWARK,1486,6939,2015,6,572,240,Sold,,,http://www.redfin.com/CA/Newark/39885-Pelton-Ter-94560/home/112886768,MLSListings,ML81687866,N,Y,37.5200104,-121.994228
PAST SALE,December-29-2017,Condo/Co-op,39843 Cedar Blvd #219,NEWARK,CA,94560,525000,2,2.0,NEWARK,1071,275300,1986,40,490,362,Sold,,,http://www.redfin.com/CA/Newark/39843-Cedar-Blvd-94560/unit-219/home/1156687,MLSListings,ML81685828,N,Y,37.5193771,-121.9959872
PAST SALE,January-12-2018,Single Family Residential,19400 MINES Rd,Livermore,CA,94551,349000,1,1.0,Country Living,226,572378,1987,26,1544,,Sold,,,http://www.redfin.com/CA/Livermore/19400-Mines-Rd-94550/home/45461938,EBRD/CCAR/Bay East,40783130,N,Y,37.581582,-121.5923784
PAST SALE,,Single Family Residential,5909 Acacia Ave,Oakland,CA,94618,1700000,2,2.0,,2414,5510,1949,,704,,,,,http://www.redfin.com/CA/Oakland/5909-Acacia-Ave-94618/home/1856449,,,N,Y,37.8435855,-122.241478
PAST SALE,January-12-2018,Single Family Residential,5609 Tilden Pl,FREMONT,CA,94538,875000,3,2.0,FREMONT,1232,5684,1966,26,710,,Sold,,,http://www.redfin.com/CA/Fremont/5609-Tilden-Pl-94538/home/1921545,MLSListings,ML81687738,N,Y,37.5270701,-121.9947078
PAST SALE,November-13-2017,Condo/Co-op,6378 Joaquin Murieta Unit H,Newark,CA,94560,420000,1,1.0,New Park Village,831,,1982,86,505,384,Sold,,,http://www.redfin.com/CA/Newark/6378-Joaquin-Murieta-Ave-94560/unit-H/home/877165,EBRD/CCAR/Bay East,40799541,N,Y,37.5168433,-121.9991143
PAST SALE,December-21-2017,Single Family Residential,11 Fawn Dr,Livermore,CA,94550,799000,3,2.5,Autumn Valley,1592,7375,2001,48,502,,Sold,,,http://www.redfin.com/CA/Livermore/11-Fawn-Dr-94550/home/1862193,EBRD/CCAR/Bay East,40798996,N,Y,37.690986,-121.7437727
PAST SALE,November-14-2017,Condo/Co-op,5561 Cosmos Cmn,FREMONT,CA,94538,702500,2,2.5,FREMONT,1157,43655,1994,85,607,280,Sold,,,http://www.redfin.com/CA/Fremont/5561-Cosmos-Cmn-94538/unit-114/home/1378312,MLSListings,ML81681041,N,Y,37.5210108,-121.9834452
PAST SALE,,Single Family Residential,5576 Cleveland Pl,Fremont,CA,94538,260000,4,2.0,,1507,5800,1967,,173,,,,,http://www.redfin.com/CA/Fremont/5576-Cleveland-Pl-94538/home/2043838,,,N,Y,37.5282812,-121.9970754
PAST SALE,December-19-2017,Single Family Residential,5625 Arlene Way,Livermore,CA,94550,1035000,4,3.0,Coventry,2268,9634,1997,50,456,,Sold,,,http://www.redfin.com/CA/Livermore/5625-Arlene-Way-94550/home/581100,EBRD/CCAR/Bay East,40802407,N,Y,37.6872278,-121.7219906
PAST SALE,November-15-2017,Single Family Residential,5217 Shafter Ave,Oakland,CA,94618,880000,1,1.0,Rockridge,776,2500,1910,84,1134,,Sold,,,http://www.redfin.com/CA/Oakland/5217-Shafter-Ave-94618/home/529274,EBRD/CCAR/Bay East,40799747,N,Y,37.8383445,-122.2572193
PAST SALE,,Vacant Land,Willie Stargell Ave,Alameda,CA,94501,1067500,,,,,,,,,,,,,http://www.redfin.com/CA/Alameda/Willie-Stargell-Ave-94501/home/143116654,,,N,Y,37.7848057,-122.283891
PAST SALE,,Vacant Land,1504 Catalina Ct,Livermore,CA,94550,748000,,,,,2013,,,,,,,,http://www.redfin.com/CA/Livermore/1504-Catalina-Ct-94550/home/143119442,,,N,Y,37.6626829,-121.7826766
PAST SALE,,Vacant Land,3134 Gardella Plz,Livermore,CA,94551,668000,,,,,1158,,,,,,,,http://www.redfin.com/CA/Livermore/3134-Gardella-Plz-94551/home/143119420,,,N,Y,37.6869534,-121.761605
PAST SALE,November-22-2017,Townhouse,5656 Poplar Cmn,Fremont,CA,94538,510000,2,1.0,Roundtree,945,1365,1970,77,540,297,Sold,,,http://www.redfin.com/CA/Fremont/5656-Poplar-Cmn-94538/home/645241,EBRD/CCAR/Bay East,40800999,N,Y,37.524537,-121.9880066
PAST SALE,,Vacant Land,400 Persimmon Cmn Unit 2,Livermore,CA,94551,672500,,,,,,,,,,,,,http://www.redfin.com/CA/Livermore/400-Persimmon-Cmn-94551/unit-2/home/143118116,,,N,Y,37.7032909,-121.7939034
PAST SALE,,Vacant Land,301 Basswood Cmn,Livermore,CA,94551,862000,,,,,,,,,,,,,http://www.redfin.com/CA/Livermore/301-Basswood-Cmn-94551/home/143118162,,,N,Y,37.7051866,-121.7939934
PAST SALE,,Vacant Land,256 Fennel Way,Livermore,CA,94551,758000,,,,,,,,,,,,,http://www.redfin.com/CA/Livermore/256-Fennel-Way-94551/home/143118176,,,N,Y,37.7036739,-121.7922441
PAST SALE,,Vacant Land,389 Basswood Cmn Unit 13,Livermore,CA,94551,645500,,,,,,,,,,,,,http://www.redfin.com/CA/Livermore/389-Basswood-Cmn-94551/unit-13/home/143118366,,,N,Y,37.7047491,-121.794588
PAST SALE,December-22-2017,Single Family Residential,723 Chippewa Way,Livermore,CA,94551,752500,4,2.0,Livermore,1575,6677,1968,47,478,,Sold,,,http://www.redfin.com/CA/Livermore/723-Chippewa-Way-94551/home/1488937,EBRD/CCAR/Bay East,40804023,N,Y,37.6918394,-121.7899805
PAST SALE,,Vacant Land,3134 Gardella Plz,Livermore,CA,94551,658500,,,,,1252,,,,,,,,http://www.redfin.com/CA/Livermore/3134-Gardella-Plz-94551/home/143119417,,,N,Y,37.6869534,-121.761605
PAST SALE,December-27-2017,Condo/Co-op,400 Persimmon Cmn #5,Livermore,CA,94551,699758,3,2.5,Livermore,1398,,2016,42,501,358,Sold,,,http://www.redfin.com/CA/Livermore/400-Persimmon-Cmn-94551/unit-5/home/143118121,EBRD/CCAR/Bay East,40792888,N,Y,37.7032909,-121.7939034
PAST SALE,,Vacant Land,490 Persimmon Cmn Unit 9,Livermore,CA,94551,706000,,,,,,,,,,,,,http://www.redfin.com/CA/Livermore/490-Persimmon-Cmn-94551/unit-9/home/143118304,,,N,Y,37.7031149,-121.7921249
PAST SALE,,Vacant Land,1740 Catalina Ct,Livermore,CA,94550,705500,,,,,,,,,,,,,http://www.redfin.com/CA/Livermore/1740-Catalina-Ct-94550/home/112894328,,,N,Y,37.6622024,-121.7826844
PAST SALE,December-11-2017,Single Family Residential,3009 Worthing Cmn,Livermore,CA,94550,750000,3,3.5,Brighton,1802,2439,2016,58,416,96,Sold,,,http://www.redfin.com/CA/Livermore/3009-Worthing-Cmn-94550/home/112505006,EBRD/CCAR/Bay East,40803131,N,Y,37.6861408,-121.7603857
PAST SALE,November-13-2017,Single Family Residential,4673 Redding St,Oakland,CA,94619-2634,585000,2,1.5,Maxwell  Park,1229,6048,1950,86,476,,Sold,,,http://www.redfin.com/CA/Oakland/4673-Redding-St-94619/home/1141723,EBRD/CCAR/Bay East,40797341,N,Y,37.7836895,-122.1917432
PAST SALE,November-14-2017,Single Family Residential,6293 Girvin Dr,Oakland,CA,94611,990000,2,1.0,Montclair,1280,7050,1939,85,773,,Sold,,,http://www.redfin.com/CA/Oakland/6293-Girvin-Dr-94611/home/1671682,EBRD/CCAR/Bay East,40800532,N,Y,37.8290064,-122.1967334
PAST SALE,November-17-2017,Single Family Residential,50 Sotelo Ave,Piedmont,CA,94611,3300000,5,4.5,Piedmont,4024,10804,1937,82,820,,Sold,,,http://www.redfin.com/CA/Piedmont/50-Sotelo-Ave-94611/home/1251870,EBRD/CCAR/Bay East,40799604,N,Y,37.8227904,-122.2193488
PAST SALE,November-21-2017,Single Family Residential,3714 Linwood Ave,Oakland,CA,94602,750000,3,1.5,Glenview,1472,4400,1915,78,510,,Sold,,,http://www.redfin.com/CA/Oakland/3714-Linwood-Ave-94602/home/909450,EBRD/CCAR/Bay East,40798356,N,Y,37.8016126,-122.2200238
PAST SALE,November-16-2017,Single Family Residential,2417 Frances St,Oakland,CA,94601,741000,3,2.0,Maxwell  Park,1638,7000,1941,83,452,,Sold,,,http://www.redfin.com/CA/Oakland/2417-Frances-St-94601/home/980356,EBRD/CCAR/Bay East,40798760,N,Y,37.7799809,-122.2041961
PAST SALE,November-20-2017,Single Family Residential,2521 Leimert Blvd,Oakland,CA,94602,1110000,2,2.5,Oakland,2162,12533,1948,79,513,,Sold,,,http://www.redfin.com/CA/Oakland/2521-Leimert-Blvd-94602/home/1910779,San Francisco MLS,462968,N,Y,37.8162328,-122.2053236
PAST SALE,November-15-2017,Single Family Residential,4218 Detroit Ave,Oakland,CA,94619,750000,2,1.0,Redwood Heights,976,3410,1932,84,768,,Sold,,,http://www.redfin.com/CA/Oakland/4218-Detroit-Ave-94619/home/547439,EBRD/CCAR/Bay East,40799121,N,Y,37.7971196,-122.1890353
PAST SALE,November-14-2017,Single Family Residential,43331 Gatewood St,Fremont,CA,94538,1320000,4,3.5,Irvington,2100,5723,1956,85,629,,Sold,,,http://www.redfin.com/CA/Fremont/43331-Gatewood-St-94538/home/1454469,EBRD/CCAR/Bay East,40801566,N,Y,37.5151955,-121.9572881
PAST SALE,November-13-2017,Single Family Residential,5932 Harbord Dr,Oakland,CA,94611,1470000,5,2.5,Piedmont Side,2896,10974,1959,86,508,,Sold,,,http://www.redfin.com/CA/Oakland/5932-Harbord-Dr-94611/home/813829,EBRD/CCAR/Bay East,40797677,N,Y,37.829769,-122.2190789
PAST SALE,November-9-2017,Single Family Residential,8085 Skyline,Oakland,CA,94611,1185000,4,3.0,Montclair,1935,6975,1962,90,612,,Sold,,,http://www.redfin.com/CA/Oakland/8085-Skyline-Blvd-94611/home/1892167,EBRD/CCAR/Bay East,40798752,N,Y,37.8364245,-122.1868119
PAST SALE,December-4-2017,Single Family Residential,4000 Maple Ave,Oakland,CA,94602,1005000,3,1.5,Upper Laurel,1576,5200,1940,65,638,,Sold,,,http://www.redfin.com/CA/Oakland/4000-Maple-Ave-94602/home/921720,EBRD/CCAR/Bay East,40802013,N,Y,37.8002223,-122.2017278
PAST SALE,November-28-2017,Single Family Residential,4419 Norton Ave,Oakland,CA,94602,880000,3,1.0,Redwood Heights,2098,7052,1950,71,419,,Sold,,,http://www.redfin.com/CA/Oakland/4419-Norton-Ave-94602/home/544290,EBRD/CCAR/Bay East,40801068,N,Y,37.8016121,-122.1911619
PAST SALE,November-28-2017,Single Family Residential,3920 Oakmore Rd,Oakland,CA,94602,1715000,3,3.0,Oakmore,2467,9030,1935,71,695,,Sold,,,http://www.redfin.com/CA/Oakland/3920-Oakmore-Rd-94602/home/1286815,EBRD/CCAR/Bay East,40802720,N,Y,37.8072855,-122.2147049
PAST SALE,,Multi-Family (2-4 Unit),3409 66th Ave,Oakland,CA,94605,690000,8,5.0,,3567,5250,1963,,193,,,,,http://www.redfin.com/CA/Oakland/3409-66th-Ave-94605/home/536698,,,N,Y,37.7733341,-122.1772711
PAST SALE,December-6-2017,Single Family Residential,6629 Armour Dr,Oakland,CA,94611,845000,3,3.5,Montclair,1688,5588,1975,63,501,,Sold,,,http://www.redfin.com/CA/Oakland/6629-Armour-Dr-94611/home/620761,EBRD/CCAR/Bay East,40801214,N,Y,37.835199,-122.205247
PAST SALE,December-8-2017,Single Family Residential,3248 Morcom Ave,Oakland,CA,94619,640000,2,1.0,Oakland,1255,4851,1930,61,510,,Sold,,,http://www.redfin.com/CA/Oakland/3248-Morcom-Ave-94619/home/1689038,EBRD/CCAR/Bay East,40799878,N,Y,37.7802212,-122.1890124
PAST SALE,,Multi-Family (2-4 Unit),3400 Seminary Ave,Oakland,CA,94605,143500,4,2.0,,1454,4521,1939,,99,,,,,http://www.redfin.com/CA/Oakland/3400-Seminary-Ave-94605/home/562434,,,N,Y,37.777379,-122.182262
PAST SALE,December-1-2017,Single Family Residential,4515 Congress Ave,Oakland,CA,94601,359000,2,1.0,Fairfax,953,2067,1925,68,377,,Sold,,,http://www.redfin.com/CA/Oakland/4515-Congress-Ave-94601/home/1775563,EBRD/CCAR/Bay East,40796451,N,Y,37.7797852,-122.206179
PAST SALE,,Single Family Residential,6198 Oakdale Ave,Oakland,CA,94605,250000,3,2.5,,1823,6144,1950,,137,,,,,http://www.redfin.com/CA/Oakland/6198-Oakdale-Ave-94605/home/564441,,,N,Y,37.7785075,-122.175438
PAST SALE,December-1-2017,Single Family Residential,227 Crocker Ave,Piedmont,CA,94610,3800000,6,6.0,Piedmont,5409,13981,1928,68,703,,Sold,,,http://www.redfin.com/CA/Piedmont/227-Crocker-Ave-94610/home/1872729,EBRD/CCAR/Bay East,40797960,N,Y,37.8150096,-122.2254784
PAST SALE,December-5-2017,Single Family Residential,3929 Lyman Rd,Oakland,CA,94602,1206000,4,3.0,Lower Oakmore,2609,6174,1950,64,462,,Sold,,,http://www.redfin.com/CA/Oakland/3929-Lyman-Rd-94602/home/1699415,EBRD/CCAR/Bay East,40801253,N,Y,37.8066123,-122.2139086
PAST SALE,December-12-2017,Single Family Residential,1395 Trestle Glen Rd,Oakland,CA,94610,1475000,3,2.0,Crocker Hghlands,1700,3367,1925,57,868,15,Sold,,,http://www.redfin.com/CA/Oakland/1395-Trestle-Glen-Rd-94610/home/536133,EBRD/CCAR/Bay East,40802721,N,Y,37.8085717,-122.2267305
PAST SALE,,Multi-Family (2-4 Unit),2839 Carmel St,Oakland,CA,94602,438000,4,3.0,,1791,5210,1946,,245,,,,,http://www.redfin.com/CA/Oakland/2839-Carmel-St-94602/home/1587467,,,N,Y,37.8017484,-122.2044078
PAST SALE,December-4-2017,Single Family Residential,3810 Laguna Ave,Oakland,CA,94602,825000,2,1.5,Oakland,1431,3004,1923,65,577,,Sold,,,http://www.redfin.com/CA/Oakland/3810-Laguna-Ave-94602/home/12437217,EBRD/CCAR/Bay East,40801766,N,Y,37.8013664,-122.208267
PAST SALE,December-12-2017,Single Family Residential,4247 Gregory St,Oakland,CA,94619,1025000,3,1.0,Redwood Heights,1217,5400,1952,57,842,,Sold,,,http://www.redfin.com/CA/Oakland/4247-Gregory-St-94619/home/690781,EBRD/CCAR/Bay East,40803378,N,Y,37.7928693,-122.1854784
PAST SALE,December-15-2017,Single Family Residential,3833 Everett Ave,Oakland,CA,94602,950000,2,2.0,Glenview,1540,4300,1916,54,617,,Sold,,,http://www.redfin.com/CA/Oakland/3833-Everett-Ave-94602/home/535320,EBRD/CCAR/Bay East,40803421,N,Y,37.8028127,-122.2189114
PAST SALE,,Multi-Family (2-4 Unit),4700 MacArthur Blvd,Oakland,CA,94619,560000,4,2.0,,1551,6812,1924,,361,,,,,http://www.redfin.com/CA/Oakland/4700-MacArthur-Blvd-94619/home/1096429,,,N,Y,37.7854979,-122.190298
PAST SALE,December-15-2017,Multi-Family (5+ Unit),3704 Fruitvale Ave,Oakland,CA,94602,1350000,8,6.0,Diamond District,5015,6250,1970,54,269,,Sold,,,http://www.redfin.com/CA/Oakland/3704-Fruitvale-Ave-94602/home/1654625,EBRD/CCAR/Bay East,40795837,N,Y,37.802865,-122.214792
PAST SALE,December-13-2017,Single Family Residential,3563 Brookdale Ave,Oakland,CA,94619,470000,2,1.5,Allendale,762,3630,1916,56,617,,Sold,,,http://www.redfin.com/CA/Oakland/3563-Brookdale-Ave-94619/home/1716325,EBRD/CCAR/Bay East,40803804,N,Y,37.786906,-122.209524
PAST SALE,,Condo/Co-op,2440 Palmetto St Apt A,Oakland,CA,94602,430000,2,1.0,,720,,1960,,597,,,,,http://www.redfin.com/CA/Oakland/2440-Palmetto-St-94602/unit-A/home/22961947,,,N,Y,37.799083,-122.213893
PAST SALE,,Multi-Family (2-4 Unit),1818 Rosedale Ave,Oakland,CA,94601,750000,10,6.0,,4248,5110,1965,,177,,,,,http://www.redfin.com/CA/Oakland/1818-Rosedale-Ave-94601/home/556947,,,N,Y,37.7765445,-122.2150216
PAST SALE,December-27-2017,Single Family Residential,5131 Fairfax Ave,Oakland,CA,94601,750000,2,1.0,Melrose Heights,1445,5200,1921,42,519,,Sold,,,http://www.redfin.com/CA/Oakland/5131-Fairfax-Ave-94601/home/557132,EBRD/CCAR/Bay East,40804096,N,Y,37.774635,-122.2010027
PAST SALE,,Single Family Residential,5448 Roberts Ave,Oakland,CA,94619,177500,3,1.0,,1131,5000,1952,,157,,,,,http://www.redfin.com/CA/Oakland/5448-Roberts-Ave-94619/home/1962893,,,N,Y,37.7770427,-122.1907509
PAST SALE,December-22-2017,Single Family Residential,6029 Leona St,Oakland,CA,94605,610000,2,1.0,Leona Heights,900,4482,1940,47,678,,Sold,,,http://www.redfin.com/CA/Oakland/6029-Leona-St-94605/home/631059,EBRD/CCAR/Bay East,40804255,N,Y,37.7825754,-122.1728949
PAST SALE,December-27-2017,Single Family Residential,3230 Deering St,Oakland,CA,94601,625000,3,1.0,Upper Fruitvale,1059,2555,1926,42,590,,Sold,,,http://www.redfin.com/CA/Oakland/3230-Deering-St-94601/home/1761088,EBRD/CCAR/Bay East,40804819,N,Y,37.7904037,-122.214856
PAST SALE,January-2-2018,Multi-Family (2-4 Unit),3553-3555 laurel Ave,Oakland,CA,94602,700000,4,3.0,Oakland,1771,5500,1923,36,395,,Sold,,,http://www.redfin.com/CA/Oakland/3555-Laurel-Ave-94602/home/1833074,San Francisco MLS,464267,N,Y,37.7959907,-122.2038513
PAST SALE,January-12-2018,Single Family Residential,4179 Maple Ave,Oakland,CA,94602,1350000,3,4.0,Oakland,2141,11830,1947,26,631,,Sold,,,http://www.redfin.com/CA/Oakland/4179-Maple-Ave-94602/home/543507,EBRD/CCAR/Bay East,40805352,N,Y,37.8031037,-122.1994379
PAST SALE,December-29-2017,Single Family Residential,1640 29th Ave,Oakland,CA,94601,470000,2,1.0,Oakland,1144,3420,1924,40,411,,Sold,,,http://www.redfin.com/CA/Oakland/1640-29th-Ave-94601/home/617834,EBRD/CCAR/Bay East,40793717,N,Y,37.7814521,-122.2266769
PAST SALE,,Vacant Land,3134 Gardella Plz,Livermore,CA,94551,646000,,,,,1342,,,,,,,,http://www.redfin.com/CA/Livermore/3134-Gardella-Plz-94551/home/143119409,,,N,Y,37.6869534,-121.761605
PAST SALE,,Vacant Land,724 Tranquility Cir Unit 1,Livermore,CA,94551,759000,,,,,,,,,,,,,http://www.redfin.com/CA/Livermore/724-Tranquility-Cir-94551/unit-1/home/143115660,,,N,Y,37.7041912,-121.7952397
PAST SALE,,Condo/Co-op,6378 Joaquin Murieta Ave Unit 368A,Newark,CA,94560,425000,2,1.0,,905,,1982,,470,,,,,http://www.redfin.com/CA/Newark/6378-Joaquin-Murieta-Ave-94560/unit-368A/home/1888376,,,N,Y,37.5168433,-121.9991143
PAST SALE,December-13-2017,Single Family Residential,4294 Amherst Way,Livermore,CA,94550,649000,3,2.0,Jensen Tract,1200,6600,1958,56,541,,Sold,,,http://www.redfin.com/CA/Livermore/4294-Amherst-Way-94550/home/887697,EBRD/CCAR/Bay East,40801453,N,Y,37.6792473,-121.744185
PAST SALE,December-15-2017,Condo/Co-op,207 Heligan Ln #2,Livermore,CA,94551,587000,2,2.5,Montage,1167,,2009,54,503,251,Sold,,,http://www.redfin.com/CA/Livermore/207-Heligan-Ln-94551/unit-2/home/22693541,EBRD/CCAR/Bay East,40802304,N,Y,37.7076695,-121.8014239
PAST SALE,December-13-2017,Single Family Residential,1073 Pine St,Livermore,CA,94551,687000,3,1.0,Livermore,1200,9922,1951,56,573,,Sold,,,http://www.redfin.com/CA/Livermore/1073-Pine-St-94551/home/1885660,EBRD/CCAR/Bay East,40803389,N,Y,37.688198,-121.7826868
PAST SALE,January-31-2018,Single Family Residential,4296 Lorren Dr,Fremont,CA,94536,910000,3,2.0,Glenmoor Area,1152,6698,1961,7,790,,Sold,,,http://www.redfin.com/CA/Fremont/4296-Lorren-Dr-94536/home/1878161,EBRD/CCAR/Bay East,40806607,N,Y,37.5459116,-121.993698
PAST SALE,,Single Family Residential,457 Andrews St,Livermore,CA,94551,423000,3,1.0,,1098,4999,1951,,385,,,,,http://www.redfin.com/CA/Livermore/457-Andrews-St-94551/home/1502201,,,N,Y,37.6843838,-121.7827523
PAST SALE,December-20-2017,Single Family Residential,258 Scott St,Livermore,CA,94551,765000,4,3.0,Leland Heights,2170,9572,1957,49,353,,Sold,,,http://www.redfin.com/CA/Livermore/258-Scott-St-94551/home/17187752,EBRD/CCAR/Bay East,40804651,N,Y,37.6891391,-121.758219
PAST SALE,December-8-2017,Single Family Residential,38787 Le Count Way,Fremont,CA,94536,1000000,4,2.0,Glen Manor,1584,6452,1960,61,631,,Sold,,,http://www.redfin.com/CA/Fremont/38787-Le-Count-Way-94536/home/2033007,EBRD/CCAR/Bay East,40801946,N,Y,37.5435337,-121.9968924
PAST SALE,December-8-2017,Single Family Residential,4262 Red Fir Way,Livermore,CA,94551,645000,3,2.0,Springvalley Iii,1224,5000,1988,61,527,78,Sold,,,http://www.redfin.com/CA/Livermore/4262-Red-Fir-Way-94551/home/912952,EBRD/CCAR/Bay East,40803609,N,Y,37.714699,-121.748398
PAST SALE,,Single Family Residential,905 Creston Rd,Berkeley,CA,94708,1050000,5,3.0,,1844,4360,1951,,569,,,,,http://www.redfin.com/CA/Berkeley/905-Creston-Rd-94708/home/681614,,,N,Y,37.8975257,-122.2604211
PAST SALE,,Condo/Co-op,6465 San Pablo Ave Unit 3-2,Oakland,CA,94608,595000,2,2.0,,971,,2008,,613,,,,,http://www.redfin.com/CA/Oakland/6465-San-Pablo-Ave-94608/unit-3-2/home/22961866,,,N,Y,37.8477199,-122.2855876
PAST SALE,,Single Family Residential,41 Evergreen Ln,Berkeley,CA,94705,2275000,3,2.0,,3525,9390,2003,,645,,,,,http://www.redfin.com/CA/Berkeley/41-Evergreen-Ln-94705/home/1232883,,,N,Y,37.8600774,-122.2407662
PAST SALE,December-18-2017,Single Family Residential,1127 Aberdeen Ave,Livermore,CA,94550,765000,4,2.5,Sunset East,1640,5800,1957,51,466,,Sold,,,http://www.redfin.com/CA/Livermore/1127-Aberdeen-Ave-94550/home/1763631,EBRD/CCAR/Bay East,40803193,N,Y,37.6692653,-121.7800425
PAST SALE,November-20-2017,Single Family Residential,6101 Margarido Dr,Oakland,CA,94618,1970000,4,3.0,Rockridge Upper,2825,5367,1929,79,697,,Sold,,,http://www.redfin.com/CA/Oakland/6101-Margarido-Dr-94618/home/1459090,EBRD/CCAR/Bay East,40801736,N,Y,37.8473931,-122.2424154
PAST SALE,,Condo/Co-op,6465 San Pablo Ave Unit 6-5,Oakland,CA,94608,750000,2,2.0,,1046,,2008,,717,,,,,http://www.redfin.com/CA/Oakland/6465-San-Pablo-Ave-94608/unit-6-5/home/22961983,,,N,Y,37.8477199,-122.2855876
PAST SALE,November-30-2017,Single Family Residential,5429 Shafter Ave,Oakland,CA,94618-1131,1450000,3,1.5,Rockridge,1636,3600,1912,69,886,,Sold,,,http://www.redfin.com/CA/Oakland/5429-Shafter-Ave-94618/home/1680239,EBRD/CCAR/Bay East,40801617,N,Y,37.8422661,-122.2540408
PAST SALE,December-1-2017,Single Family Residential,656 60Th St,Oakland,CA,94609,1375000,6,2.0,Nobe,2383,4160,1912,68,577,,Sold,,,http://www.redfin.com/CA/Oakland/656-60th-St-94609/home/570413,EBRD/CCAR/Bay East,40803332,N,Y,37.8458443,-122.2669907
PAST SALE,December-8-2017,Single Family Residential,2947 Linden Ave,Berkeley,CA,94705,2200000,4,3.0,Elmwood,2531,3330,1989,61,869,,Sold,,,http://www.redfin.com/CA/Berkeley/2947-Linden-Ave-94705/home/1498037,EBRD/CCAR/Bay East,40803184,N,Y,37.8569779,-122.2494383
PAST SALE,December-1-2017,Single Family Residential,4355 Harbord Dr,Oakland,CA,94618,1440000,3,2.0,Upper Rockridge,1995,6200,1939,68,722,,Sold,,,http://www.redfin.com/CA/Oakland/4355-Harbord-Dr-94618/home/1806830,EBRD/CCAR/Bay East,40802345,N,Y,37.8402626,-122.2352009
PAST SALE,December-13-2017,Single Family Residential,1063 Stanford Ave,Oakland,CA,94608,735000,2,1.0,Oakland,1434,4797,1915,56,513,,Sold,,,http://www.redfin.com/CA/Oakland/1063-Stanford-Ave-94608/home/1861790,EBRD/CCAR/Bay East,40800995,N,Y,37.8413057,-122.2814227
PAST SALE,December-13-2017,Single Family Residential,1422 Fairview,Berkeley,CA,94702-2716,945000,3,1.0,South Berkeley,1012,4440,1944,56,934,,Sold,,,http://www.redfin.com/CA/Berkeley/1422-Fairview-St-94702/home/1484745,EBRD/CCAR/Bay East,40803083,N,Y,37.8493281,-122.2788644
PAST SALE,December-6-2017,Single Family Residential,540 59th St,Oakland,CA,94609,1005000,2,1.0,North Oakland,1536,4500,1924,63,654,,Sold,,,http://www.redfin.com/CA/Oakland/540-59th-St-94609/home/1842726,EBRD/CCAR/Bay East,40802340,N,Y,37.8450517,-122.262862
PAST SALE,December-6-2017,Single Family Residential,932 57th. St,Oakland,CA,94608,1101000,3,1.5,Nobe,1124,3465,1908,63,980,,Sold,,,http://www.redfin.com/CA/Oakland/932-57th-St-94608/home/1869228,EBRD/CCAR/Bay East,40802535,N,Y,37.8417212,-122.2755331
PAST SALE,December-22-2017,Single Family Residential,2800 Piedmont Ave,Berkeley,CA,94705,1615000,2,2.0,Elmwood,1576,2560,1907,47,1025,,Sold,,,http://www.redfin.com/CA/Berkeley/2800-Piedmont-Ave-94705/home/1776940,EBRD/CCAR/Bay East,40804658,N,Y,37.8598029,-122.2513833
PAST SALE,December-27-2017,Multi-Family (2-4 Unit),729 44th St,Oakland,CA,94609,1000000,5,2.0,Temescal,1804,2500,1915,42,554,,Sold,,,http://www.redfin.com/CA/Oakland/729-44th-St-94609/home/528274,EBRD/CCAR/Bay East,40802829,N,Y,37.8329189,-122.269284
PAST SALE,,Single Family Residential,411 48th St,Oakland,CA,94609,320000,4,3.0,,2100,6840,1917,,152,,,,,http://www.redfin.com/CA/Oakland/411-48th-St-94609/home/1715297,,,N,Y,37.8341367,-122.2593123
PAST SALE,December-22-2017,Single Family Residential,5501 Thomas Ave,Oakland,CA,94618,1430000,3,1.0,Broadway Terrace,1468,4100,1918,47,974,,Sold,,,http://www.redfin.com/CA/Oakland/5501-Thomas-Ave-94618/home/844376,EBRD/CCAR/Bay East,40804364,N,Y,37.8401915,-122.2480102
PAST SALE,,Single Family Residential,4457 Howe St,Oakland,CA,94611,1800000,,,,,,,,,,,,,http://www.redfin.com/CA/Oakland/4457-Howe-St-94611/home/143116191,,,N,Y,37.8317445,-122.2470207
PAST SALE,January-10-2018,Multi-Family (2-4 Unit),5928 Fremont St,Oakland,CA,94608,780000,4,2.0,Golden Gate,1215,4800,1908,28,642,,Sold,,,http://www.redfin.com/CA/Oakland/5928-Fremont-St-94608/home/1774472,EBRD/CCAR/Bay East,40805215,N,Y,37.8429414,-122.2853767
PAST SALE,,Multi-Family (2-4 Unit),2012 Stuart St,Berkeley,CA,94703,2050000,10,5.0,,3705,5180,1963,,553,,,,,http://www.redfin.com/CA/Berkeley/2012-Stuart-St-94703/home/1871153,,,N,Y,37.8579841,-122.2687306
PAST SALE,January-9-2018,Single Family Residential,974 Arlington Ave,Oakland,CA,94608,795000,2,1.0,Oakland,1060,4000,1959,29,750,,Sold,,,http://www.redfin.com/CA/Oakland/974-Arlington-Ave-94608/home/530493,EBRD/CCAR/Bay East,40805227,N,Y,37.8420845,-122.2778052
PAST SALE,January-8-2018,Condo/Co-op,1500 Park Ave #422,Emeryville,CA,94608,925000,1,2.0,Emeryville,1833,,1921,30,505,470,Sold,,,http://www.redfin.com/CA/Emeryville/1500-Park-Ave-94608/unit-422/home/1790490,EBRD/CCAR/Bay East,40804764,N,Y,37.830922,-122.2896093
PAST SALE,January-18-2018,Single Family Residential,973 63rd St,Oakland,CA,94608,665000,2,2.0,Alameda County,864,3001,1912,20,770,,Sold,,,http://www.redfin.com/CA/Oakland/973-63rd-St-94608/home/1962388,BAREIS,21720459,N,Y,37.8466762,-122.2788584
PAST SALE,January-16-2018,Single Family Residential,1086 55Th St,Oakland,CA,94608,800000,7,3.0,Oakland,2436,3000,1906,22,328,,Sold,,,http://www.redfin.com/CA/Oakland/1086-55th-St-94608/home/1398839,EBRD/CCAR/Bay East,40795698,N,Y,37.8386213,-122.2815321
PAST SALE,December-1-2017,Multi-Family (5+ Unit),826 20Th St,Oakland,CA,94607,1300000,9,7.0,Oakland,4742,2500,1890,68,274,,Sold,,,http://www.redfin.com/CA/Oakland/826-20th-St-94607/home/1139533,EBRD/CCAR/Bay East,40799403,N,Y,37.8119823,-122.2775522
PAST SALE,November-22-2017,Single Family Residential,1624 9Th St,Alameda,CA,94501,900000,2,1.0,Central Alameda,1470,2924,1936,77,612,,Sold,,,http://www.redfin.com/CA/Alameda/1624-9th-St-94501/home/728467,EBRD/CCAR/Bay East,40800759,N,Y,37.7755078,-122.2701973
PAST SALE,November-13-2017,Single Family Residential,333 Santa Clara Ave,Alameda,CA,94501,950000,3,1.5,West Alameda,1511,5400,1910,86,629,,Sold,,,http://www.redfin.com/CA/Alameda/333-Santa-Clara-Ave-94501/home/734545,EBRD/CCAR/Bay East,40799741,N,Y,37.7738063,-122.2865464
PAST SALE,,Condo/Co-op,1755 Broadway Apt 31,Oakland,CA,94612,665000,1,1.0,,905,,1920,,735,,,,,http://www.redfin.com/CA/Oakland/1755-Broadway-94612/unit-31/home/40086753,,,N,Y,37.8075652,-122.2696532
PAST SALE,,Multi-Family (2-4 Unit),669 37th St,Oakland,CA,94609,500000,8,4.0,,3758,5118,1904,,133,,,,,http://www.redfin.com/CA/Oakland/669-37th-St-94609/home/1799954,,,N,Y,37.8261759,-122.27
PAST SALE,December-12-2017,Single Family Residential,1534 SHERMAN St,Alameda,CA,94501,1050000,3,2.5,Central Alameda,2095,3750,1895,57,501,,Sold,,,http://www.redfin.com/CA/Alameda/1534-Sherman-St-94501/home/777102,EBRD/CCAR/Bay East,40802540,N,Y,37.774001,-122.2630401
PAST SALE,,Single Family Residential,2842 Helen St,Oakland,CA,94608,375000,2,1.0,,552,2400,1901,,679,,,,,http://www.redfin.com/CA/Oakland/2842-Helen-St-94608/home/569690,,,N,Y,37.8231036,-122.2853449
PAST SALE,,Single Family Residential,2840 Helen St,Oakland,CA,94608,375000,1,1.0,,768,2550,1895,,488,,,,,http://www.redfin.com/CA/Oakland/2840-Helen-St-94608/home/1759995,,,N,Y,37.823027,-122.285259
PAST SALE,,Condo/Co-op,1437 Oak St,Oakland,CA,94612,651500,,,,,,,,,,,,,http://www.redfin.com/CA/Oakland/1437-Oak-St-94612/home/143116317,,,N,Y,37.8010366,-122.2629366
PAST SALE,,Condo/Co-op,477 Mitchell Ave,Alameda,CA,94501,960000,3,2.0,,2072,,2016,,463,,,,,http://www.redfin.com/CA/Alameda/477-Mitchell-Ave-94501/home/143116592,,,N,Y,37.7894343,-122.2794014
PAST SALE,,Vacant Land,Willie Stargell Ave,Alameda,CA,94501,1082000,,,,,,,,,,,,,http://www.redfin.com/CA/Alameda/Willie-Stargell-Ave-94501/home/143116657,,,N,Y,37.7848057,-122.283891
PAST SALE,January-12-2018,Single Family Residential,3227 Linden St,Oakland,CA,94608,480000,3,1.0,Alameda County,1235,,1905,26,389,,Sold,,,http://www.redfin.com/CA/Oakland/3227-Linden-St-94608/home/1284563,BAREIS,21728440,N,Y,37.8239036,-122.2788933
PAST SALE,January-10-2018,Condo/Co-op,1983 Linden St,Oakland,CA,94607,618500,4,3.0,West Oakland,1587,,2007,28,390,265,Sold,,,http://www.redfin.com/CA/Oakland/1983-Linden-St-94607/home/12118356,EBRD/CCAR/Bay East,40802796,N,Y,37.813422,-122.282748
PAST SALE,,Condo/Co-op,1443 Oak St,Oakland,CA,94612,722500,,,,,,,,,,,,,http://www.redfin.com/CA/Oakland/1443-Oak-St-94612/home/143116321,,,N,Y,37.8010366,-122.2629366
PAST SALE,December-11-2017,Condo/Co-op,801 Franklin St #1204,Oakland,CA,94607,671000,2,1.5,City Plaza,1200,,1976,58,559,492,Sold,,,http://www.redfin.com/CA/Oakland/801-Franklin-St-94607/unit-1204/home/524953,EBRD/CCAR/Bay East,40801109,N,Y,37.800128,-122.2724482
PAST SALE,,Vacant Land,Henry St,Oakland,CA,94607,199000,,,,,2500,,,,,,,,http://www.redfin.com/CA/Oakland/Henry-St-94607/home/22678305,,,N,Y,37.806446,-122.296524
PAST SALE,November-20-2017,Multi-Family (2-4 Unit),1606 10Th St,Berkeley,CA,94710,725000,3,2.0,Berkeley,1704,4777,1924,79,425,,Sold,,,http://www.redfin.com/CA/Berkeley/1606-Tenth-St-94710/home/574405,EBRD/CCAR/Bay East,40791550,N,Y,37.8745199,-122.295455
PAST SALE,,Multi-Family (2-4 Unit),716 Stannage Ave,Albany,CA,94706,1041000,8,4.0,,3697,5500,1968,,282,,,,,http://www.redfin.com/CA/Albany/716-Stannage-Ave-94706/home/1527336,,,N,Y,37.8932243,-122.2982782
PAST SALE,November-16-2017,Single Family Residential,704 Solano Ave,Albany,CA,94706,749000,3,1.0,Sunset Terrace,1089,2500,1941,83,688,,Sold,,,http://www.redfin.com/CA/Albany/704-Solano-Ave-94706/home/1730132,EBRD/CCAR/Bay East,40798918,N,Y,37.8885966,-122.3065713
PAST SALE,November-27-2017,Single Family Residential,1500 5Th St,Berkeley,CA,94710,800000,1,1.0,Ocean View,653,2400,1914,72,1225,,Sold,,,http://www.redfin.com/CA/BERKELEY/1500-5TH-ST-94710/home/1972424,EBRD/CCAR/Bay East,40800996,N,Y,37.874861,-122.301345
PAST SALE,November-30-2017,Condo/Co-op,535 Pierce St #3308,Albany,CA,94706,610000,2,2.0,Albany,1170,,1988,69,521,575,Sold,,,http://www.redfin.com/CA/Albany/535-Pierce-St-94706/unit-3308/home/1365956,EBRD/CCAR/Bay East,40801742,N,Y,37.897219,-122.307458
PAST SALE,,Condo/Co-op,535 Pierce St Apt 3404,Albany,CA,94706,525000,2,2.0,,1170,,1988,,449,,,,,http://www.redfin.com/CA/Albany/535-Pierce-St-94706/unit-3404/home/575575,,,N,Y,37.897219,-122.307458
PAST SALE,November-14-2017,Single Family Residential,715 Buchanan St,Albany,CA,94706,645000,2,1.0,Albany,990,2500,1940,85,652,,Sold,,,http://www.redfin.com/CA/Albany/715-Buchanan-St-94706/home/1034412,EBRD/CCAR/Bay East,40789936,N,Y,37.8876815,-122.3062991
PAST SALE,December-15-2017,Single Family Residential,2335 5Th St,Berkeley,CA,94710,785000,3,1.0,West Berkeley,987,4624,1905,54,795,,Sold,,,http://www.redfin.com/CA/Berkeley/2335-Fifth-St-94710/home/1165502,EBRD/CCAR/Bay East,40802090,N,Y,37.862137,-122.2967856
PAST SALE,,Condo/Co-op,1764 14th St,Oakland,CA,94607,694500,,,,,,,,,,,,,http://www.redfin.com/CA/Oakland/1764-14th-St-94607/home/143116302,,,N,Y,37.8135737,-122.2983673
PAST SALE,,Condo/Co-op,1766 14th St,Oakland,CA,94607,651500,,,,,,,,,,,,,http://www.redfin.com/CA/Oakland/1766-14th-St-94607/home/143116304,,,N,Y,37.8135522,-122.2983272
PAST SALE,January-9-2018,Single Family Residential,922 Polk St,Albany,CA,94706,1150000,3,1.0,Albany,1198,5000,1950,29,960,,Sold,,,http://www.redfin.com/CA/Albany/922-Polk-St-94706/home/1590612,EBRD/CCAR/Bay East,40806873,N,Y,37.8885248,-122.3031588
PAST SALE,,Condo/Co-op,1525 Pullman Way,Oakland,CA,94607,744500,,,,,,,,,,,,,http://www.redfin.com/CA/Oakland/1525-Pullman-Way-94607/home/112885366,,,N,Y,37.8147649,-122.2986404
PAST SALE,,Condo/Co-op,1754 14th St,Oakland,CA,94607,652000,,,,,,,,,,,,,http://www.redfin.com/CA/Oakland/1754-14th-St-94607/home/143116296,,,N,Y,37.8132178,-122.2976307
PAST SALE,,Condo/Co-op,1416 Prescott St,Oakland,CA,94607,720500,,,,,,,,,,,,,http://www.redfin.com/CA/Oakland/1416-Prescott-St-94607/home/143116273,,,N,Y,37.8141747,-122.298483
PAST SALE,November-21-2017,Single Family Residential,9 Bowling Dr,Oakland,CA,94618,2260000,3,3.5,Claremont Pines,2908,9016,1951,78,777,,Sold,,,http://www.redfin.com/CA/Oakland/9-Bowling-Dr-94618/home/1743725,EBRD/CCAR/Bay East,40800315,N,Y,37.8426665,-122.2422288
PAST SALE,November-22-2017,Townhouse,3917 Fossano Cmn,FREMONT,CA,94538,838000,2,2.5,FREMONT,1290,756,2017,77,650,234,Sold,,,http://www.redfin.com/CA/FREMONT/3917-FOSSANO-CMN-94538/home/143117744,MLSListings,ML81680728,N,Y,37.5042267,-121.9643745
PAST SALE,,Vacant Land,3887 FOSSANO CMN,FREMONT,CA,94538,960000,,,,,939,,,,,,,,http://www.redfin.com/CA/FREMONT/3887-FOSSANO-CMN-94538/home/143117747,,,N,Y,37.5042267,-121.9643745
PAST SALE,,Single Family Residential,44243 Lupine Pl,Fremont,CA,94539,320000,5,3.0,,2643,7153,1988,,121,,,,,http://www.redfin.com/CA/Fremont/44243-Lupine-Pl-94539/home/1260792,,,N,Y,37.513431,-121.9355717
PAST SALE,November-28-2017,Single Family Residential,4365 Hardwood St,Fremont,CA,94538,990000,3,2.0,Irvington Height,1198,6048,1959,71,826,,Sold,,,http://www.redfin.com/CA/Fremont/4365-Hardwood-St-94538/home/1879011,EBRD/CCAR/Bay East,40799845,N,Y,37.5167727,-121.960703
PAST SALE,December-12-2017,Single Family Residential,5008 Valpey Park Ave,Fremont,CA,94538,1025000,4,2.0,Southpark Area,1551,6500,1962,57,661,,Sold,,,http://www.redfin.com/CA/Fremont/5008-Valpey-Park-Ave-94538/home/1266819,EBRD/CCAR/Bay East,40803883,N,Y,37.5192813,-121.9717492
PAST SALE,January-10-2018,Townhouse,3908 Fossano Cmn,FREMONT,CA,94538,975000,3,3.5,FREMONT,1771,943,2017,28,551,266,Sold,,,http://www.redfin.com/CA/FREMONT/3908-FOSSANO-CMN-94538/home/143117728,MLSListings,ML81688591,N,Y,37.5042267,-121.9643745
PAST SALE,December-15-2017,Single Family Residential,4144 Converse St,Fremont,CA,94538,985000,4,2.0,Irvington,1296,6867,1956,54,760,,Sold,,,http://www.redfin.com/CA/Fremont/4144-Converse-St-94538/home/1877238,EBRD/CCAR/Bay East,40803007,N,Y,37.5155638,-121.9555756
PAST SALE,,Vacant Land,3977 FOSSANO CMN,FREMONT,CA,94538,930000,,,,,944,,,,,,,,http://www.redfin.com/CA/FREMONT/3977-FOSSANO-CMN-94538/home/143117739,,,N,Y,37.5042267,-121.9643745
PAST SALE,December-22-2017,Single Family Residential,42649 Isle Royal St,Fremont,CA,94538,1050000,4,2.0,Southpark,1736,5700,1962,47,605,,Sold,,,http://www.redfin.com/CA/Fremont/42649-Isle-Royal-St-94538/home/1115873,EBRD/CCAR/Bay East,40803799,N,Y,37.517006,-121.970336
PAST SALE,,Townhouse,3927 FOSSANO CMN,FREMONT,CA,94538,960000,3,3.5,,1771,939,2017,,542,,,,,http://www.redfin.com/CA/FREMONT/3927-FOSSANO-CMN-94538/home/143117743,,,N,Y,37.5042267,-121.9643745
PAST SALE,December-14-2017,Single Family Residential,43291 Bush Ct,Fremont,CA,94538,1410000,4,2.5,Irvington,1719,11400,1988,55,820,,Sold,,,http://www.redfin.com/CA/Fremont/43291-Bush-Ct-94538/home/1644158,EBRD/CCAR/Bay East,40803915,N,Y,37.5143692,-121.9603954
PAST SALE,,Single Family Residential,43402 Lindenwood St,Fremont,CA,94538,212500,3,3.0,,1450,6080,1958,,147,,,,,http://www.redfin.com/CA/Fremont/43402-Lindenwood-St-94538/home/1054002,,,N,Y,37.5152045,-121.9576757
PAST SALE,,Single Family Residential,4986 Tenor Ct,Fremont,CA,94538,1200000,5,3.0,,1947,9490,1962,,616,,,,,http://www.redfin.com/CA/Fremont/4986-Tenor-Ct-94538/home/1769567,,,N,Y,37.520412,-121.9790466
PAST SALE,,Single Family Residential,43661 Southerland Way,Fremont,CA,94539,1480000,3,3.0,,2308,7722,1988,,641,,,,,http://www.redfin.com/CA/Fremont/43661-Southerland-Way-94539/home/1085522,,,N,Y,37.520515,-121.9333337
PAST SALE,January-2-2018,Townhouse,3958 Fossano Cmn,FREMONT,CA,94538,980000,3,3.5,FREMONT,1771,939,2017,36,553,262,Sold,,,http://www.redfin.com/CA/FREMONT/3958-FOSSANO-CMN-94538/home/143117732,MLSListings,ML81687781,N,Y,37.5042267,-121.9643745
PAST SALE,January-22-2018,Townhouse,3968 Fossano Cmn,FREMONT,CA,94538,999000,3,3.5,FREMONT,1818,943,2017,16,550,266,Sold,,,http://www.redfin.com/CA/FREMONT/3968-FOSSANO-CMN-94538/home/143117733,MLSListings,ML81687878,N,Y,37.5042267,-121.9643745
PAST SALE,January-27-2018,Townhouse,3967 Fossano Cmn,FREMONT,CA,94538,835000,2,2.5,FREMONT,1290,756,2017,11,647,234,Sold,,,http://www.redfin.com/CA/FREMONT/3967-FOSSANO-CMN-94538/home/143117740,MLSListings,ML81677249,N,Y,37.5042267,-121.9643745
PAST SALE,January-19-2018,Single Family Residential,4873 Valpey Park Ave,Fremont,CA,94538,1030000,3,2.0,Irvington,1936,5900,1962,19,532,,Sold,,,http://www.redfin.com/CA/Fremont/4873-Valpey-Park-Ave-94538/home/1116865,EBRD/CCAR/Bay East,40806392,N,Y,37.519806,-121.9703226
PAST SALE,November-21-2017,Single Family Residential,1003 MIDDLEFIELD Rd,Berkeley,CA,94708,1600000,5,3.0,Park Hills,2291,5880,1955,78,698,21,Sold,,,http://www.redfin.com/CA/Berkeley/1003-Middlefield-Rd-94708/home/1719260,EBRD/CCAR/Bay East,40801643,N,Y,37.8953531,-122.2564044
PAST SALE,November-14-2017,Single Family Residential,2345 STUART St,Berkeley,CA,94705,820000,2,1.0,Baja Elmwood,1148,4725,1927,85,714,,Sold,,,http://www.redfin.com/CA/Berkeley/2345-Stuart-St-94705/home/663217,EBRD/CCAR/Bay East,40800847,N,Y,37.8596202,-122.2600746
PAST SALE,November-24-2017,Multi-Family (2-4 Unit),2210 Parker St,Berkeley,CA,94704,3195000,,,Berkeley,6335,8910,1902,75,504,,Sold,,,http://www.redfin.com/CA/Berkeley/2210-Parker-St-94704/home/1872928,EBRD/CCAR/Bay East,40796747,N,Y,37.862278,-122.264174
PAST SALE,November-21-2017,Single Family Residential,95 Parnassus Rd,Berkeley,CA,94708,1350000,3,3.0,Berkeley View Te,2055,5550,1937,78,657,,Sold,,,http://www.redfin.com/CA/Berkeley/95-Parnassus-Rd-94708/home/1191606,EBRD/CCAR/Bay East,40800554,N,Y,37.8813571,-122.2528013
PAST SALE,November-9-2017,Multi-Family (2-4 Unit),1604 Milvia St,Berkeley,CA,94709,1120000,2,2.0,Gourmet Ghetto,1645,4500,1905,90,681,,Sold,,,http://www.redfin.com/CA/Berkeley/1604-Milvia-St-94709/home/1609426,EBRD/CCAR/Bay East,40801273,N,Y,37.8778263,-122.2716164
PAST SALE,November-22-2017,Single Family Residential,1015 OXFORD St,Berkeley,CA,94707,1477000,3,1.0,North Berkeley,1371,7500,1939,77,1077,,Sold,,,http://www.redfin.com/CA/Berkeley/1015-Oxford-St-94707/home/1964438,EBRD/CCAR/Bay East,40800224,N,Y,37.89017,-122.267927
PAST SALE,November-28-2017,Single Family Residential,1466 Grizzly Peak Blvd,Berkeley,CA,94708,1450000,5,3.0,Berkeley Hills,3003,7713,1961,71,483,,Sold,,,http://www.redfin.com/CA/Berkeley/1466-Grizzly-Peak-Blvd-94708/home/690909,EBRD/CCAR/Bay East,40801274,N,Y,37.8831612,-122.2491039
PAST SALE,December-8-2017,Single Family Residential,1730 Martin Luther King,Berkeley,CA,94709,1050000,4,2.5,N. Berkeley,2874,5400,1915,61,365,,Sold,,,http://www.redfin.com/CA/Berkeley/1730-Martin-Luther-King-Junior-Way-94709/home/1818214,EBRD/CCAR/Bay East,40802652,N,Y,37.8748237,-122.2736299
PAST SALE,December-22-2017,Single Family Residential,1191 Glen Ave,Berkeley,CA,94708,1350000,3,2.5,North Berkeley,1667,4050,1917,47,810,,Sold,,,http://www.redfin.com/CA/Berkeley/1191-Glen-Ave-94708/home/693638,EBRD/CCAR/Bay East,40803717,N,Y,37.8867199,-122.2641106
PAST SALE,November-15-2017,Multi-Family (5+ Unit),42010 Blacow Rd,FREMONT,CA,94538,27750000,3,,FREMONT,46920,131096,1968,84,591,,Sold,,,http://www.redfin.com/CA/Fremont/42010-Blacow-Rd-94538/home/1394017,MLSListings,ML81644430,N,Y,37.5242594,-121.9595197
PAST SALE,November-14-2017,Single Family Residential,40813 Robin St,FREMONT,CA,94538,930000,3,2.0,FREMONT,1452,6013,1963,85,640,,Sold,,,http://www.redfin.com/CA/Fremont/40813-Robin-St-94538/home/1318333,MLSListings,ML81671843,N,Y,37.5245434,-121.9707056
PAST SALE,November-17-2017,Single Family Residential,4304 Stevenson Blvd,FREMONT,CA,94538,800000,3,2.0,FREMONT,1069,8224,1958,82,748,,Sold,,,http://www.redfin.com/CA/Fremont/4304-Stevenson-Blvd-94538/home/1927164,MLSListings,ML81678651,N,Y,37.5367583,-121.9755994
PAST SALE,,Single Family Residential,4874 Chalmette Park Ct,Fremont,CA,94538,875000,3,2.0,,1347,16575,1963,,650,,,,,http://www.redfin.com/CA/Fremont/4874-Chalmette-Park-Ct-94538/home/1219282,,,N,Y,37.521535,-121.9716101
PAST SALE,November-14-2017,Single Family Residential,3834 Detjen St,Fremont,CA,94538,812000,3,1.0,Mission View,950,6500,1958,85,855,,Sold,,,http://www.redfin.com/CA/Fremont/3834-Detjen-St-94538/home/1953066,EBRD/CCAR/Bay East,40799244,N,Y,37.5415694,-121.9709187
PAST SALE,November-14-2017,Single Family Residential,43260 Livermore Cmn,Fremont,CA,94539,1550000,4,2.5,Mission Palms,2037,4285,1989,85,761,90,Sold,,,http://www.redfin.com/CA/Fremont/43260-Livermore-Cmn-94539/home/1086565,EBRD/CCAR/Bay East,40790189,N,Y,37.5318728,-121.9282305
PAST SALE,November-27-2017,Single Family Residential,5100 Omar St,Fremont,CA,94538-2423,1121000,4,2.0,Alameda,1743,7812,1978,72,643,,Sold,,,http://www.redfin.com/CA/Fremont/5100-Omar-St-94538/home/1519878,EBRD/CCAR/Bay East,40802615,N,Y,37.5227245,-121.9787268
PAST SALE,November-30-2017,Single Family Residential,42637 Jefferson St,Fremont,CA,94538,980000,4,2.0,Irvington,1434,5504,1958,69,683,,Sold,,,http://www.redfin.com/CA/Fremont/42637-Jefferson-St-94538/home/1684909,EBRD/CCAR/Bay East,40802029,N,Y,37.5233712,-121.9516581
PAST SALE,December-7-2017,Single Family Residential,2382 Castillejo Way,Fremont,CA,94539,1675000,5,2.5,Mission San Jose,3773,17120,1967,62,444,,Sold,,,http://www.redfin.com/CA/Fremont/2382-Castillejo-Way-94539/home/1405521,EBRD/CCAR/Bay East,40796733,N,Y,37.5286486,-121.9420954
PAST SALE,,Single Family Residential,4118 Coriander Ter,Fremont,CA,94538,1135000,4,4.0,,1843,14377,2009,,616,,,,,http://www.redfin.com/CA/Fremont/4118-Coriander-Ter-94538/home/28697842,,,N,Y,37.5233519,-121.9591901
PAST SALE,December-4-2017,Single Family Residential,4256 Providence Ter,FREMONT,CA,94538,940000,3,3.5,FREMONT,1437,1209,2008,65,654,228,Sold,,,http://www.redfin.com/CA/Fremont/4256-Providence-Ter-94538/home/22808941,MLSListings,ML81680237,N,Y,37.5323087,-121.9656479
PAST SALE,December-5-2017,Townhouse,3256 Neal Ter,Fremont,CA,94538,850000,3,2.5,Wolcott Common,1760,3415,1991,64,483,335,Sold,,,http://www.redfin.com/CA/Fremont/3256-Neal-Ter-94538/home/1792189,EBRD/CCAR/Bay East,40800731,N,Y,37.536723,-121.955689
PAST SALE,December-12-2017,Single Family Residential,323 Escobar St,Fremont,CA,94539,1690000,5,3.5,Mission San Jose,3280,5046,2002,57,515,,Sold,,,http://www.redfin.com/CA/Fremont/323-Escobar-St-94539/home/1542106,EBRD/CCAR/Bay East,40796361,N,Y,37.5325009,-121.9234519
PAST SALE,December-18-2017,Single Family Residential,4264 Stanley Ave,Fremont,CA,94538,1330000,3,2.0,Irvington,1770,7150,1958,51,751,,Sold,,,http://www.redfin.com/CA/Fremont/4264-Stanley-Ave-94538/home/1825829,EBRD/CCAR/Bay East,40803427,N,Y,37.52373,-121.9620079
PAST SALE,December-14-2017,Single Family Residential,39652 Buena Vista Ter,Fremont,CA,94538,850000,3,2.5,Sundale Area,1582,2716,1978,55,537,28,Sold,,,http://www.redfin.com/CA/Fremont/39652-Buena-Vista-Ter-94538/home/992190,EBRD/CCAR/Bay East,40803644,N,Y,37.5427297,-121.9796958
PAST SALE,December-14-2017,Vacant Land,,Fremont,CA,94539,940000,,,Fremont,,8000,,55,,,Sold,,,http://www.redfin.com/CA/Fremont/Undisclosed-address-94539/home/1307430,EBRD/CCAR/Bay East,40804281,N,Y,37.5353011,-121.9369264
PAST SALE,December-19-2017,Single Family Residential,4140 Saffron Ter,FREMONT,CA,94538,1176888,3,2.5,FREMONT,1599,1850,2009,50,736,135,Sold,,,http://www.redfin.com/CA/Fremont/4140-Saffron-Ter-94538/home/28697823,MLSListings,ML81685841,N,Y,37.5230608,-121.9590946
PAST SALE,December-27-2017,Single Family Residential,3673 Haven Ave,FREMONT,CA,94538,1235000,4,3.0,FREMONT,1672,6180,1955,42,739,,Sold,,,http://www.redfin.com/CA/Fremont/3673-Haven-Ave-94538/home/1952944,MLSListings,ML81686032,N,Y,37.5271328,-121.9540046
PAST SALE,December-22-2017,Single Family Residential,129 EMORY Cmn,FREMONT,CA,94539,1845000,5,4.0,FREMONT,2867,4016,2015,47,644,190,Sold,,,http://www.redfin.com/CA/Fremont/129-Emory-Cmn-94539/home/110019358,MLSListings,ML81681365,N,Y,37.5410029,-121.9264823
PAST SALE,December-22-2017,Single Family Residential,4315 Bidwell Dr,Fremont,CA,94538,949000,4,3.0,Fremont,1933,7000,1966,47,491,,Sold,,,http://www.redfin.com/CA/Fremont/4315-Bidwell-Dr-94538/home/1061714,EBRD/CCAR/Bay East,40791453,N,Y,37.5387028,-121.9797868
PAST SALE,January-10-2018,Single Family Residential,4941 Omar St,Fremont,CA,94538,1152000,3,2.0,Fremont Area,1602,6000,1961,28,719,,Sold,,,http://www.redfin.com/CA/Fremont/4941-Omar-St-94538/home/1479172,EBRD/CCAR/Bay East,40805562,N,Y,37.5219227,-121.9755324
PAST SALE,,Single Family Residential,4266 Tehama Ave,Fremont,CA,94538,710000,4,2.0,,988,7885,1963,,719,,,,,http://www.redfin.com/CA/Fremont/4266-Tehama-Ave-94538/home/1876544,,,N,Y,37.5399744,-121.9803465
PAST SALE,January-2-2018,Single Family Residential,3337 Washington Blvd,FREMONT,CA,94539,1160312,3,2.0,FREMONT,1758,6846,1985,36,660,,Sold,,,http://www.redfin.com/CA/Fremont/3337-Washington-Blvd-94539/home/1559658,MLSListings,ML81673308,N,Y,37.5338113,-121.9518014
PAST SALE,December-29-2017,Condo/Co-op,3909 STEVENSON Blvd #408,Fremont,CA,94538-2303,570786,2,2.0,Fremont,1042,,1972,40,548,408,Sold,,,http://www.redfin.com/CA/Fremont/3909-Stevenson-Blvd-94538/unit-408/home/1119257,EBRD/CCAR/Bay East,40803350,N,Y,37.5420804,-121.9732786
PAST SALE,January-16-2018,Condo/Co-op,39993 Fremont Blvd #202,Fremont,CA,94538,670000,2,2.0,Park Regency,1360,148975,1987,22,493,445,Sold,,,http://www.redfin.com/CA/Fremont/39993-Fremont-Blvd-94538/unit-26/home/1886923,EBRD/CCAR/Bay East,40805431,N,Y,37.5406101,-121.9741372
PAST SALE,January-16-2018,Single Family Residential,43542 Excelso Dr,Fremont,CA,94539,2160000,5,4.0,Antelope Hills,3399,13085,1985,22,635,,Sold,,,http://www.redfin.com/CA/Fremont/43542-Excelso-Dr-94539/home/1977706,EBRD/CCAR/Bay East,40800777,N,Y,37.5269939,-121.927148
PAST SALE,January-16-2018,Single Family Residential,2434 Sueno Way,FREMONT,CA,94539,1190000,4,2.5,FREMONT,1828,7680,1971,22,651,33,Sold,,,http://www.redfin.com/CA/Fremont/2434-Sueno-Way-94539/home/1427684,MLSListings,ML81685667,N,Y,37.5400525,-121.9528877
PAST SALE,February-6-2018,Single Family Residential,3525 Cosmic Way,Fremont,CA,94538,950000,4,3.0,Pleasanton Vally,2088,6000,1970,1,455,,Sold,,,http://www.redfin.com/CA/Fremont/3525-Cosmic-Way-94538/home/613574,EBRD/CCAR/Bay East,40805735,N,Y,37.5418254,-121.9673997
PAST SALE,December-1-2017,Single Family Residential,6893 Sunnyslope Ave,CASTRO VALLEY,CA,94552,1155000,3,2.0,CASTRO VALLEY,1995,90605,1960,68,579,,Sold,,,http://www.redfin.com/CA/Castro-Valley/6893-Sunnyslope-Ave-94552/home/1806374,MLSListings,ML81677217,N,Y,37.70823,-122.022495
PAST SALE,November-22-2017,Townhouse,20087 Summerglen Pl,Castro Valley,CA,94552,740000,3,2.5,Palomares Hills,1435,2347,1996,77,516,296,Sold,,,http://www.redfin.com/CA/Castro-Valley/20087-Summerglen-Pl-94552/home/1363216,EBRD/CCAR/Bay East,40800204,N,Y,37.718985,-122.022236
PAST SALE,November-22-2017,Single Family Residential,23264 Lori Way,Hayward,CA,94541,792500,5,3.5,Fairview Area,2669,5000,1979,77,297,,Sold,,,http://www.redfin.com/CA/Hayward/23264-Lori-Way-94541/home/1969443,EBRD/CCAR/Bay East,40798667,N,Y,37.6832948,-122.0448824
PAST SALE,November-17-2017,Single Family Residential,3100 Jamie Way,Hayward,CA,94541,811000,3,2.5,Fairview Area,1694,11723,1988,82,479,,Sold,,,http://www.redfin.com/CA/Hayward/3100-Jamie-Way-94541/home/959727,EBRD/CCAR/Bay East,40801118,N,Y,37.6824214,-122.0506957
PAST SALE,November-22-2017,Vacant Land,24466 karina St,Hayward,CA,94542,417000,,,Hayward,,10110,,77,,148,Sold,,,http://www.redfin.com/CA/Hayward/24466-Karina-St-94542/home/22804470,EBRD/CCAR/Bay East,40802521,N,Y,37.678122,-122.04428
PAST SALE,,Single Family Residential,21476 Timco Way,Castro Valley,CA,94552,800000,4,2.0,,1900,4578,2006,,421,,,,,http://www.redfin.com/CA/Castro-Valley/21476-Timco-Way-94552/home/12114842,,,N,Y,37.6951935,-122.0536478
PAST SALE,,Townhouse,472 Persimmon Cmn Unit 4,Livermore,CA,94551,664000,3,2.5,,1427,1427,2017,,465,,,,,http://www.redfin.com/CA/Livermore/472-Persimmon-Cmn-94551/unit-4/home/143118280,,,N,Y,37.7032289,-121.7920772
PAST SALE,January-2-2018,Single Family Residential,37180 Towers Way,Fremont,CA,94536,670000,2,1.0,Fremont,747,5279,1952,36,897,,Sold,,,http://www.redfin.com/CA/Fremont/37180-Towers-Way-94536/home/1511324,EBRD/CCAR/Bay East,40803996,N,Y,37.5490009,-122.0173641
PAST SALE,,Single Family Residential,1634 62nd St,Berkeley,CA,94703,1510000,6,4.0,,4174,6750,1920,,362,,,,,http://www.redfin.com/CA/Berkeley/1634-62nd-St-94703/home/1309059,,,N,Y,37.846298,-122.273838
PAST SALE,November-13-2017,Single Family Residential,5363 Broadway,Oakland,CA,94618-1427,795000,2,1.0,Rockridge,1078,3000,1912,86,737,,Sold,,,http://www.redfin.com/CA/Oakland/5363-Broadway-94618/home/1078669,EBRD/CCAR/Bay East,40801019,N,Y,37.8386092,-122.250091
PAST SALE,,Vacant Land,1504 Catalina Ct,Livermore,CA,94550,729500,,,,,2013,,,,,,,,http://www.redfin.com/CA/Livermore/1504-Catalina-Ct-94550/home/143119441,,,N,Y,37.6626829,-121.7826766
PAST SALE,November-14-2017,Single Family Residential,1077 57Th St,Oakland,CA,94608,1100000,3,2.0,Nobe,1931,3616,2017,85,570,,Sold,,,http://www.redfin.com/CA/Oakland/1077-57th-St-94608/home/22723030,EBRD/CCAR/Bay East,40799912,N,Y,37.840292,-122.281625
PAST SALE,November-17-2017,Condo/Co-op,6465 San Pablo Ave #605,Oakland,CA,94608,750000,2,2.0,Nobe,1046,1011,2008,82,717,644,Sold,,,http://www.redfin.com/CA/Oakland/6465-San-Pablo-Ave-94608/unit-605/home/143940273,EBRD/CCAR/Bay East,40798911,N,Y,37.8477199,-122.2855876
PAST SALE,,Vacant Land,389 Basswood Cmn Unit 9,Livermore,CA,94551,651500,,,,,,,,,,,,,http://www.redfin.com/CA/Livermore/389-Basswood-Cmn-94551/unit-9/home/143118360,,,N,Y,37.7047491,-121.794588
PAST SALE,January-15-2018,Single Family Residential,5006 Autumn Gold Cmn,Fremont,CA,94536,960000,3,2.0,Centerville,1485,4524,1998,23,646,50,Sold,,,http://www.redfin.com/CA/Fremont/5006-Autumn-Gold-Cmn-94536/home/1324301,EBRD/CCAR/Bay East,40805797,N,Y,37.5447737,-122.0153464
PAST SALE,,Vacant Land,1301 Windswept Cmn,Livermore,CA,94550,680500,,,,,2472,,,,,,,,http://www.redfin.com/CA/Livermore/1301-Windswept-Cmn-94550/home/112886757,,,N,Y,37.6996099,-121.7157678
PAST SALE,,Single Family Residential,33339 8th St,Union City,CA,94587,200000,7,2.0,,1648,5000,1940,,121,,,,,http://www.redfin.com/CA/Union-City/33339-8th-St-94587/home/938420,,,N,Y,37.6025445,-122.0247977
PAST SALE,December-19-2017,Multi-Family (2-4 Unit),33316 3rd St,Union City,CA,94587,700000,4,2.0,Union City,1620,5082,1962,50,432,,Sold,,,http://www.redfin.com/CA/Union-City/33316-3rd-St-94587/home/144169663,EBRD/CCAR/Bay East,40801859,N,Y,37.6055428,-122.021453
PAST SALE,,Multi-Family (2-4 Unit),2112 35th Ave,Oakland,CA,94601,980000,8,6.0,,4078,6708,1961,,240,,,,,http://www.redfin.com/CA/Oakland/2112-35th-Ave-94601/home/551632,,,N,Y,37.7842591,-122.2162232
PAST SALE,November-16-2017,Single Family Residential,32263 Ithaca St,Hayward,CA,94544,536500,2,1.0,Hillcrest Crest,820,5000,1951,83,654,,Sold,,,http://www.redfin.com/CA/Hayward/32263-Ithaca-St-94544/home/1894649,EBRD/CCAR/Bay East,40800158,N,Y,37.6098168,-122.0328755
PAST SALE,,Multi-Family (2-4 Unit),33345 5th St,Union City,CA,94587,165000,35,3.0,,2483,4956,1980,,66,,,,,http://www.redfin.com/CA/Union-City/33345-5th-St-94587/home/1977155,,,N,Y,37.6040226,-122.0228506
PAST SALE,January-19-2018,Single Family Residential,2181 High St,Oakland,CA,94601,430000,3,1.0,Steinway Terrace,1212,4560,1924,19,355,,Sold,,,http://www.redfin.com/CA/Oakland/2181-High-St-94601/home/1631012,EBRD/CCAR/Bay East,40803892,N,Y,37.7785056,-122.208375
PAST SALE,November-30-2017,Single Family Residential,32145 Seneca St,HAYWARD,CA,94544,611000,3,1.0,HAYWARD,1031,5000,1951,69,593,,Sold,,,http://www.redfin.com/CA/Hayward/32145-Seneca-St-94544/home/752840,MLSListings,ML81682941,N,Y,37.6121772,-122.0311659
PAST SALE,December-1-2017,Single Family Residential,155 Lafayette Ave,Hayward,CA,94544,545000,3,1.0,Hayward Area,1221,5050,1951,68,446,,Sold,,,http://www.redfin.com/CA/Hayward/155-Lafayette-Ave-94544/home/788750,EBRD/CCAR/Bay East,40798125,N,Y,37.6107329,-122.0327101
PAST SALE,December-8-2017,Single Family Residential,542 Evangeline Way,Hayward,CA,94544,740000,3,2.0,Hayward,1464,5000,1955,61,505,,Sold,,,http://www.redfin.com/CA/Hayward/542-Evangeline-Way-94544/home/1632506,EBRD/CCAR/Bay East,40802897,N,Y,37.6221934,-122.0362394
PAST SALE,December-8-2017,Single Family Residential,611 Gleneagle Ave,Hayward,CA,94544,685000,3,2.0,Fairway Greens,1540,5600,1958,61,445,,Sold,,,http://www.redfin.com/CA/Hayward/611-Gleneagle-Ave-94544/home/1537677,EBRD/CCAR/Bay East,40801563,N,Y,37.6274024,-122.0417164
PAST SALE,December-13-2017,Single Family Residential,634 Gleneagle Ave,HAYWARD,CA,94544,700000,3,2.0,HAYWARD,1540,5832,1958,56,455,,Sold,,,http://www.redfin.com/CA/Hayward/634-Gleneagle-Ave-94544/home/950628,MLSListings,ML81684673,N,Y,37.6280529,-122.0413961
PAST SALE,December-14-2017,Single Family Residential,31266 Meadowbrook Ave,HAYWARD,CA,94544,690000,3,2.0,HAYWARD,1161,5005,1955,55,594,,Sold,,,http://www.redfin.com/CA/Hayward/31266-Meadowbrook-Ave-94544/home/789371,MLSListings,ML81684211,N,Y,37.6171135,-122.0379917
PAST SALE,December-15-2017,Single Family Residential,2506 Balmoral St,Union City,CA,94587,1000000,4,2.5,Westview Estates,2008,8064,1967,54,498,,Sold,,,http://www.redfin.com/CA/Union-City/2506-Balmoral-St-94587/home/1916696,EBRD/CCAR/Bay East,40801172,N,Y,37.6031212,-122.0576933
PAST SALE,,Multi-Family (2-4 Unit),33314 3rd St,Union City,CA,94587,700000,,,,1620,5082,1962,,432,,,,,http://www.redfin.com/CA/Union-City/33314-3rd-St-94587/home/1051985,,,N,Y,37.6056065,-122.0214587
PAST SALE,December-14-2017,Single Family Residential,33511 8th St,Union City,CA,94587-2308,675000,3,2.0,Decoto District,1114,5000,1953,55,606,,Sold,,,http://www.redfin.com/CA/Union-City/33511-8th-St-94587/home/562590,EBRD/CCAR/Bay East,40804397,N,Y,37.6010213,-122.0229629
PAST SALE,,Condo/Co-op,29621 Red Oak Ct Apt 8,Hayward,CA,94544,280000,1,1.0,,489,,1986,,573,,,,,http://www.redfin.com/CA/Hayward/29621-Red-Oak-Ct-94544/unit-8/home/784590,,,N,Y,37.6301249,-122.0469343
PAST SALE,January-25-2018,Single Family Residential,911 Vasquez Ct,Union City,CA,94587,600000,3,1.5,Union City,1288,2975,1978,13,466,,Sold,,,http://www.redfin.com/CA/Union-City/911-Vasquez-Ct-94587/home/1558219,EBRD/CCAR/Bay East,40805549,N,Y,37.603192,-122.026782
PAST SALE,January-26-2018,Single Family Residential,280 Lafayette Ave,Hayward,CA,94544,640000,3,2.0,Hillview,1173,5000,1951,12,546,,Sold,,,http://www.redfin.com/CA/Hayward/280-Lafayette-Ave-94544/home/1977597,EBRD/CCAR/Bay East,40805266,N,Y,37.6111479,-122.0299974
PAST SALE,January-26-2018,Single Family Residential,2459 Shield Dr,Union City,CA,94587,920000,4,2.0,Union City,1463,8600,1969,12,629,,Sold,,,http://www.redfin.com/CA/Union-City/2459-Shield-Dr-94587/home/1552361,EBRD/CCAR/Bay East,40806011,N,Y,37.6010965,-122.0532044
PAST SALE,,Single Family Residential,30263 Brookside Ln,Hayward,CA,94544,195500,5,3.0,,2647,5992,1999,,74,,,,,http://www.redfin.com/CA/Hayward/30263-Brookside-Ln-94544/home/1580772,,,N,Y,37.622059,-122.0473392
PAST SALE,December-29-2017,Single Family Residential,224 Tamarack Dr,Union City,CA,94587,757000,3,2.0,Union City,1393,5936,1957,40,543,,Sold,,,http://www.redfin.com/CA/Union-City/224-Tamarack-Dr-94587/home/1748916,EBRD/CCAR/Bay East,40804380,N,Y,37.607752,-122.0277052
PAST SALE,,Single Family Residential,1067 La Sierra Ter #124,Union City,CA,94587,424100,4,2.0,,1612,,1997,,263,,,,,http://www.redfin.com/CA/Union-City/1067-La-Sierra-Ter-94587/unit-124/home/1232836,,,N,Y,37.6043101,-122.0302162
PAST SALE,December-29-2017,Condo/Co-op,675 Newbury Ln #144,Hayward,CA,94544,327000,1,1.0,Hayward,643,,1988,40,509,330,Sold,,,http://www.redfin.com/CA/Hayward/675-Newbury-Ln-94544/unit-144/home/2113720,EBRD/CCAR/Bay East,40799797,N,Y,37.6334752,-122.0461324
PAST SALE,January-2-2018,Condo/Co-op,685 Dartmore Ln #367,Hayward,CA,94544,430000,2,2.0,Hayward Area,878,,1988,36,490,382,Sold,,,http://www.redfin.com/CA/Hayward/685-Dartmore-Ln-94544/unit-367/home/2114940,EBRD/CCAR/Bay East,40807206,N,Y,37.6338069,-122.0458629
PAST SALE,January-29-2018,Single Family Residential,30298 Willowbrook Rd,Hayward,CA,94544,1300000,5,3.0,Twin Bridges,3339,12767,1999,9,389,11,Sold,,,http://www.redfin.com/CA/Hayward/30298-Willowbrook-Rd-94544/home/1859191,EBRD/CCAR/Bay East,40806505,N,Y,37.6210787,-122.0429164
PAST SALE,January-31-2018,Single Family Residential,116 Fay Ct,UNION CITY,CA,94587,710000,3,2.0,UNION CITY,1248,7520,1960,7,569,,Sold,,,http://www.redfin.com/CA/Union-City/116-Fay-Ct-94587/home/1418547,MLSListings,ML81669302,N,Y,37.608251,-122.032804
PAST SALE,November-16-2017,Single Family Residential,444 Saint Andrews St,Hayward,CA,94544,720000,3,2.0,Fairway,1250,5940,1955,83,576,,Sold,,,http://www.redfin.com/CA/Hayward/444-Saint-Andrews-St-94544/home/967818,EBRD/CCAR/Bay East,40801148,N,Y,37.6232525,-122.0424878
PAST SALE,January-31-2018,Single Family Residential,32099 Chicoine Ave,Hayward,CA,94544,850000,4,3.0,El Rancho Verde,2438,13440,1957,7,349,,Sold,,,http://www.redfin.com/CA/Hayward/32099-Chicoine-Ave-94544/home/1845788,EBRD/CCAR/Bay East,40806683,N,Y,37.616124,-122.0258726
PAST SALE,January-19-2018,Single Family Residential,29155 Lassen St,Hayward,CA,94544,940000,4,3.0,Hayward Area,2460,4300,2017,19,382,,Sold,,,http://www.redfin.com/CA/Hayward/29155-Lassen-St-94544/home/22703755,EBRD/CCAR/Bay East,40800390,N,Y,37.628669,-122.058634
PAST SALE,November-27-2017,Single Family Residential,33757 Rodeo St,Fremont,CA,94555,1478000,4,2.5,Ardenwood,2015,2888,2017,72,733,154,Sold,,,http://www.redfin.com/CA/Fremont/33757-Rodeo-St-94555/home/95474242,EBRD/CCAR/Bay East,40799098,N,Y,37.5652707,-122.0618996
PAST SALE,,Vacant Land,5342 Cowboy Ct,Fremont,CA,94555,1302000,,,,,3366,,,,,,,,http://www.redfin.com/CA/Fremont/5342-Cowboy-Ct-94555/home/95474284,,,N,Y,37.5645872,-122.0626415
PAST SALE,,Vacant Land,5346 Cowboy Ct,Fremont,CA,94555,1387000,,,,,3300,,,,,,,,http://www.redfin.com/CA/Fremont/5346-Cowboy-Ct-94555/home/95474295,,,N,Y,37.5645137,-122.0624937
PAST SALE,,Vacant Land,5350 Cowboy Ct,Fremont,CA,94555,1366500,,,,,3300,,,,,,,,http://www.redfin.com/CA/Fremont/5350-Cowboy-Ct-94555/home/95474294,,,N,Y,37.56436,-122.0626144
PAST SALE,November-17-2017,Single Family Residential,32800 Bluebird Loop,Fremont,CA,94555,1100000,3,2.5,Ardenwood,2008,5195,1978,82,548,,Sold,,,http://www.redfin.com/CA/Fremont/32800-Bluebird-Loop-94555/home/1840000,EBRD/CCAR/Bay East,40797866,N,Y,37.5838405,-122.0618592
PAST SALE,December-2-2017,Single Family Residential,3025 Bresso Dr,Livermore,CA,94550,1245000,5,4.5,Kristopher Ranch,3184,9148,2002,67,391,,Sold,,,http://www.redfin.com/CA/Livermore/3025-Bresso-Dr-94550/home/1222344,EBRD/CCAR/Bay East,40800232,N,Y,37.6480177,-121.7851443
PAST SALE,,Vacant Land,33920 Horseshoe Loop,Fremont,CA,94555,1576000,,,,,4500,,,,,,,,http://www.redfin.com/CA/Fremont/33920-Horseshoe-Loop-94555/home/95474346,,,N,Y,37.5633284,-122.0617642
PAST SALE,,Vacant Land,33916 Horseshoe Loop,Fremont,CA,94555,1691500,,,,,4500,,,,,,,,http://www.redfin.com/CA/Fremont/33916-Horseshoe-Loop-94555/home/95474349,,,N,Y,37.5634011,-122.0619105
PAST SALE,,Vacant Land,5246 Rancho Del Norte Dr,Fremont,CA,94555,1397000,,,,,3300,,,,,,,,http://www.redfin.com/CA/Fremont/5246-Rancho-Del-Norte-Dr-94555/home/95474281,,,N,Y,37.5655041,-122.0627661
PAST SALE,,Vacant Land,5254 Rancho Del Norte Dr,Fremont,CA,94555,1335000,,,,,3366,,,,,,,,http://www.redfin.com/CA/Fremont/5254-Rancho-Del-Norte-Dr-94555/home/95474275,,,N,Y,37.5654238,-122.0630345
PAST SALE,,Vacant Land,5286 Rancho Del Norte Dr,Fremont,CA,94555,1333000,,,,,3366,,,,,,,,http://www.redfin.com/CA/Fremont/5286-Rancho-Del-Norte-Dr-94555/home/95474191,,,N,Y,37.5648089,-122.0635171
PAST SALE,,Vacant Land,5347 Cowboy Ct,Fremont,CA,94555,1280000,,,,,4028,,,,,,,,http://www.redfin.com/CA/Fremont/5347-Cowboy-Ct-94555/home/95474296,,,N,Y,37.5646519,-122.0632079
PAST SALE,,Vacant Land,5282 Rancho Del Norte Dr,Fremont,CA,94555,1343000,,,,,3300,,,,,,,,http://www.redfin.com/CA/Fremont/5282-Rancho-Del-Norte-Dr-94555/home/95474194,,,N,Y,37.5647354,-122.0633693
PAST SALE,November-24-2017,Single Family Residential,33666 Stallion St,Fremont,CA,94555,1510724,4,3.5,Ardenwood,2651,4500,2017,75,570,154,Sold,,,http://www.redfin.com/CA/Fremont/33666-Stallion-St-94555/home/113586712,EBRD/CCAR/Bay East,40774797,N,Y,37.5689245,-122.0612807
PAST SALE,November-30-2017,Single Family Residential,33670 Stallion St,Fremont,CA,94555,1622634,5,4.5,Ardenwood,3105,4500,2017,69,523,154,Sold,,,http://www.redfin.com/CA/Fremont/33670-Stallion-St-94555/home/113586728,EBRD/CCAR/Bay East,40774798,N,Y,37.5689245,-122.0612807
PAST SALE,November-24-2017,Single Family Residential,33679 Stallion St,Fremont,CA,94555,1345481,4,3.0,Ardenwood,1973,5524,2017,75,682,154,Sold,,,http://www.redfin.com/CA/Fremont/33679-Stallion-St-94555/home/113923762,EBRD/CCAR/Bay East,40781333,N,Y,37.5689245,-122.0612807
PAST SALE,December-8-2017,Single Family Residential,34306 Kenwood Dr,FREMONT,CA,94555,1330000,4,2.5,FREMONT,1950,3628,1989,61,682,,Sold,,,http://www.redfin.com/CA/Fremont/34306-Kenwood-Dr-94555/home/565355,MLSListings,ML81684393,N,Y,37.5620615,-122.0548695
PAST SALE,December-8-2017,Condo/Co-op,34160 Torino Ter,FREMONT,CA,94555,750000,2,2.0,FREMONT,1231,23211,2007,61,609,215,Sold,,,http://www.redfin.com/CA/Fremont/34160-Torino-Ter-94555/home/17183707,MLSListings,ML81682204,N,Y,37.560887,-122.060915
PAST SALE,,Vacant Land,5343 Cowboy Ct,Fremont,CA,94555,1329500,,,,,5095,,,,,,,,http://www.redfin.com/CA/Fremont/5343-Cowboy-Ct-94555/home/95474291,,,N,Y,37.5648034,-122.0630496
PAST SALE,,Vacant Land,5274 Rancho Del Norte Dr,Fremont,CA,94555,1329000,,,,,3366,,,,,,,,http://www.redfin.com/CA/Fremont/5274-Rancho-Del-Norte-Dr-94555/home/95474192,,,N,Y,37.5649626,-122.0633964
PAST SALE,,Vacant Land,5278 Rancho Del Norte Dr,Fremont,CA,94555,1339000,,,,,3300,,,,,,,,http://www.redfin.com/CA/Fremont/5278-Rancho-Del-Norte-Dr-94555/home/95474195,,,N,Y,37.5648891,-122.0632487
PAST SALE,,Vacant Land,5242 Rancho Del Norte Dr,Fremont,CA,94555,1315500,,,,,3366,,,,,,,,http://www.redfin.com/CA/Fremont/5242-Rancho-Del-Norte-Dr-94555/home/95474278,,,N,Y,37.5655775,-122.0629139
PAST SALE,,Vacant Land,5250 Rancho Del Norte Dr,Fremont,CA,94555,1362500,,,,,3300,,,,,,,,http://www.redfin.com/CA/Fremont/5250-Rancho-Del-Norte-Dr-94555/home/95474280,,,N,Y,37.5653503,-122.0628867
PAST SALE,December-13-2017,Single Family Residential,4010 Heron Pl,FREMONT,CA,94555,1495000,4,2.5,FREMONT,2468,8308,1979,56,606,,Sold,,,http://www.redfin.com/CA/Fremont/4010-Heron-Pl-94555/home/1267276,MLSListings,ML81684178,N,Y,37.5827084,-122.0582998
PAST SALE,,Vacant Land,5354 Cowboy Ct,Fremont,CA,94555,1285500,,,,,3763,,,,,,,,http://www.redfin.com/CA/Fremont/5354-Cowboy-Ct-94555/home/95474297,,,N,Y,37.5644357,-122.0627738
PAST SALE,December-15-2017,Single Family Residential,3850 Great Salt Lake Ct,FREMONT,CA,94555,875000,3,2.5,FREMONT,1348,3988,1978,54,649,,Sold,,,http://www.redfin.com/CA/Fremont/3850-Great-Salt-Lake-Ct-94555/home/1944360,MLSListings,ML81683003,N,Y,37.585612,-122.0595919
PAST SALE,December-15-2017,Single Family Residential,5338 Cowboy Ct,Fremont,CA,94555,1540000,4,2.5,Ardenwood,2086,3366,2017,54,738,154,Sold,,,http://www.redfin.com/CA/Fremont/5338-Cowboy-Ct-94555/home/95474285,EBRD/CCAR/Bay East,40803060,N,Y,37.5647409,-122.0625209
PAST SALE,December-18-2017,Townhouse,5905 Via Lugano,Fremont,CA,94555,835000,2,2.5,Ardenwood,1246,,2012,51,670,214,Sold,,,http://www.redfin.com/CA/Fremont/5905-Via-Lugano-94555/home/17184945,EBRD/CCAR/Bay East,40804375,N,Y,37.5606721,-122.0622629
PAST SALE,November-30-2017,Single Family Residential,33578 Maverick Loop,Fremont,CA,94555,1758726,5,3.5,Ardenwood,3226,5400,2017,69,545,154,Sold,,,http://www.redfin.com/CA/Fremont/33578-Maverick-Loop-94555/home/141349635,EBRD/CCAR/Bay East,40788633,N,Y,37.5676589,-122.063364
PAST SALE,December-28-2017,Townhouse,5533 Via Lugano,Fremont,CA,94555,740000,2,2.0,Ardenwood Villag,1231,,2007,41,601,216,Sold,,,http://www.redfin.com/CA/Fremont/5533-Via-Lugano-94555/home/17185160,EBRD/CCAR/Bay East,40803862,N,Y,37.5606881,-122.0607423
PAST SALE,,Vacant Land,33586 Maverick Loop,Fremont,CA,94555,1536500,,,,,5473,,,,,,,,http://www.redfin.com/CA/Fremont/33586-Maverick-Loop-94555/home/143117815,,,N,Y,37.5676589,-122.063364
PAST SALE,,Single Family Residential,3437 Hudson Pl,Fremont,CA,94536,1150000,4,2.0,,1830,5800,1971,,628,,,,,http://www.redfin.com/CA/Fremont/3437-Hudson-Pl-94536/home/1107581,,,N,Y,37.5685942,-122.0176284
PAST SALE,November-22-2017,Single Family Residential,4152 Thornton Ave,Fremont,CA,94536,895000,4,2.0,Centerville,1398,6605,1916,77,640,,Sold,,,http://www.redfin.com/CA/Fremont/4152-Thornton-Ave-94536/home/1048996,EBRD/CCAR/Bay East,40801087,N,Y,37.5587053,-122.012807
PAST SALE,November-14-2017,Single Family Residential,37837 Benchmark Ct,Fremont,CA,94536,1055000,3,2.0,Benchmark,1487,7190,1986,85,709,,Sold,,,http://www.redfin.com/CA/Fremont/37837-Benchmark-Ct-94536/home/1636292,EBRD/CCAR/Bay East,40799356,N,Y,37.5625473,-121.9939045
PAST SALE,November-13-2017,Condo/Co-op,37331 Sequoia Rd,Fremont,CA,94536,382000,1,1.0,Parkmont Area,593,,1986,86,644,290,Sold,,,http://www.redfin.com/CA/Fremont/37331-Sequoia-Rd-94536/home/12119148,EBRD/CCAR/Bay East,40800536,N,Y,37.561982,-122.003385
PAST SALE,,Vacant Land,Fremont Blvd,Fremont,CA,,1654500,,,,,5940,,,,,,,,http://www.redfin.com/CA/Fremont/Fremont-Blvd-Unknown/home/143117838,,,N,Y,37.5618314,-122.0139463
PAST SALE,,Vacant Land,Fremont Blvd,Fremont,CA,,1476500,,,,,4500,,,,,,,,http://www.redfin.com/CA/Fremont/Fremont-Blvd-Unknown/home/143117868,,,N,Y,37.5618314,-122.0139463
PAST SALE,,Vacant Land,Fremont Blvd,Fremont,CA,,1511000,,,,,4500,,,,,,,,http://www.redfin.com/CA/Fremont/Fremont-Blvd-Unknown/home/143117869,,,N,Y,37.5618314,-122.0139463
PAST SALE,,Vacant Land,Fremont Blvd,Fremont,CA,,1448500,,,,,5050,,,,,,,,http://www.redfin.com/CA/Fremont/Fremont-Blvd-Unknown/home/143117939,,,N,Y,37.5618314,-122.0139463
PAST SALE,November-28-2017,Condo/Co-op,36996 Meadowbrook Cmn #204,Fremont,CA,94536,520000,2,2.0,Meadowbrook,1083,,1987,71,480,431,Sold,,,http://www.redfin.com/CA/Fremont/36996-Meadowbrook-Cmn-94536/unit-204/home/1990539,EBRD/CCAR/Bay East,40799621,N,Y,37.5636606,-122.0070958
PAST SALE,December-8-2017,Single Family Residential,3831 Campbell Pl,Fremont,CA,94536,1100000,4,2.0,Centreville,1503,5613,1977,61,732,,Sold,,,http://www.redfin.com/CA/Fremont/3831-Campbell-Pl-94536/home/1492110,EBRD/CCAR/Bay East,40802703,N,Y,37.5631563,-122.0137319
PAST SALE,December-4-2017,Condo/Co-op,3354 Red Cedar Ter,Fremont,CA,94536,460000,2,1.0,Fremont,750,,1986,65,613,309,Sold,,,http://www.redfin.com/CA/Fremont/3354-Red-Cedar-Ter-94536/home/12117712,EBRD/CCAR/Bay East,40800959,N,Y,37.561982,-122.003385
PAST SALE,December-5-2017,Townhouse,3718 Colet Ter,Fremont,CA,94536,560625,2,1.0,Park Vill Green,900,1656,1974,64,623,279,Sold,,,http://www.redfin.com/CA/Fremont/3718-Colet-Ter-94536/home/1996834,EBRD/CCAR/Bay East,40802711,N,Y,37.554799,-121.9957782
PAST SALE,December-1-2017,Townhouse,3866 Burton Cmn,Fremont,CA,94536,762000,2,2.5,Villa Monte,1400,1808,1979,68,544,450,Sold,,,http://www.redfin.com/CA/Fremont/3866-Burton-Cmn-94536/home/1992505,EBRD/CCAR/Bay East,40801494,N,Y,37.5540859,-121.99628
PAST SALE,December-13-2017,Condo/Co-op,4035 Abbey Ter #108,Fremont,CA,94536,462000,2,1.0,Central Park,748,,1986,56,618,340,Sold,,,http://www.redfin.com/CA/Fremont/4035-Abbey-Ter-94536/unit-108/home/765869,EBRD/CCAR/Bay East,40803028,N,Y,37.554293,-122.00127
PAST SALE,December-22-2017,Single Family Residential,3248 Sutton Ct,Fremont,CA,94536,1317000,4,2.5,Parkmont Area,2247,6266,1984,47,586,,Sold,,,http://www.redfin.com/CA/Fremont/3248-Sutton-Ct-94536/home/1052428,EBRD/CCAR/Bay East,40803803,N,Y,37.5597908,-121.9977416
PAST SALE,December-19-2017,Single Family Residential,4551 Darrow Ct,Fremont,CA,94536,1266000,3,2.5,Glenmoor Gardens,2127,10280,1965,50,595,12,Sold,,,http://www.redfin.com/CA/Fremont/4551-Darrow-Ct-94536/home/1051159,EBRD/CCAR/Bay East,40803529,N,Y,37.549549,-122.0084435
PAST SALE,December-18-2017,Single Family Residential,4255 Corrigan Dr,Fremont,CA,94536,1350000,4,3.5,Glenmoor Area,2341,10673,1973,51,577,,Sold,,,http://www.redfin.com/CA/Fremont/4255-Corrigan-Dr-94536/home/2043508,EBRD/CCAR/Bay East,40801994,N,Y,37.5504365,-122.0001874
PAST SALE,December-14-2017,Condo/Co-op,3453 Baywood Ter #204,Fremont,CA,94536,520000,2,2.0,Meadowbrook,981,147233,1987,55,530,420,Sold,,,http://www.redfin.com/CA/Fremont/3453-Baywood-Ter-94536/unit-204/home/957169,EBRD/CCAR/Bay East,40804143,N,Y,37.5636606,-122.0070958
PAST SALE,December-18-2017,Condo/Co-op,3454 Bridgewood Ter #114,FREMONT,CA,94536,432000,1,1.0,FREMONT,936,2347,1986,51,462,426,Sold,,,http://www.redfin.com/CA/Fremont/3454-Bridgewood-Ter-94536/unit-114/home/1065722,MLSListings,ML81680597,N,Y,37.5626729,-122.005485
PAST SALE,December-21-2017,Single Family Residential,3770 Ruskin Pl,FREMONT,CA,94536,960000,3,2.0,FREMONT,1219,4173,1976,48,788,,Sold,,,http://www.redfin.com/CA/Fremont/3770-Ruskin-Pl-94536/home/1397039,MLSListings,ML81683712,N,Y,37.56369,-122.0134736
PAST SALE,November-22-2017,Condo/Co-op,4543 Glenn St,Fremont,CA,94536,516000,2,2.0,Cabrillo Area,964,,1972,77,535,299,Sold,,,http://www.redfin.com/CA/Fremont/4543-Glenn-St-94536/home/1454348,EBRD/CCAR/Bay East,40798756,N,Y,37.554219,-122.01605
PAST SALE,January-23-2018,Condo/Co-op,3655 Birchwood Ter #113,Fremont,CA,94536,561000,2,2.0,Meadowbrook,990,,1984,15,567,428,Sold,,,http://www.redfin.com/CA/Fremont/3655-Birchwood-Ter-94536/unit-113/home/1074110,EBRD/CCAR/Bay East,40801239,N,Y,37.5626959,-122.0076879
PAST SALE,December-27-2017,Single Family Residential,3105 Rowe Pl,Fremont,CA,94536,1030000,3,2.0,Brookvale,1688,5406,1972,42,610,,Sold,,,http://www.redfin.com/CA/Fremont/3105-Rowe-Pl-94536/home/1959051,EBRD/CCAR/Bay East,40804016,N,Y,37.5689797,-122.0106044
PAST SALE,January-23-2018,Condo/Co-op,3517 Birchwood Ter #102,Fremont,CA,94536,578000,2,2.0,Meadowbrook,981,,1984,15,589,428,Sold,,,http://www.redfin.com/CA/Fremont/3517-Birchwood-Ter-94536/unit-102/home/1474685,EBRD/CCAR/Bay East,40806126,N,Y,37.5623838,-122.0066457
PAST SALE,,Single Family Residential,33229 4th St,Union City,CA,94587,296000,4,2.0,,2038,5000,2006,,145,,,,,http://www.redfin.com/CA/Union-City/33229-4th-St-94587/home/22669988,,,N,Y,37.6055203,-122.02339
PAST SALE,November-22-2017,Single Family Residential,1727 White Oak Ln,Union City,CA,94587,1100000,4,3.0,Ahsford Place,2333,6431,1993,77,471,,Sold,,,http://www.redfin.com/CA/Union-City/1727-White-Oak-Ln-94587/home/1023930,EBRD/CCAR/Bay East,40800672,N,Y,37.6028001,-122.0486984
