SALE TYPE,SOLD DATE,PROPERTY TYPE,ADDRESS,CITY,STATE,ZIP,PRICE,BEDS,BATHS,LOCATION,SQUARE FEET,LOT SIZE,YEAR BUILT,DAYS ON MARKET,$/SQUARE FEET,HOA/MONTH,STATUS,NEXT OPEN HOUSE START TIME,NEXT OPEN HOUSE END TIME,URL (SEE http://www.redfin.com/buy-a-home/comparative-market-analysis FOR INFO ON PRICING),SOURCE,MLS#,FAVORITE,INTERESTED,LATITUDE,LONGITUDE
PAST SALE,,Single Family Residential,1965 Farndon Ave,Los Altos,CA,94024,2200000,3,1.0,,1516,10246,1955,,1451,,,,,http://www.redfin.com/CA/Los-Altos/1965-Farndon-Ave-94024/home/1401056,,,N,Y,37.3428378,-122.0667889
PAST SALE,April-21-2017,Single Family Residential,941 Seena Ave,LOS ALTOS,CA,94024,2605000,2,1.0,LOS ALTOS,1056,10058,1947,284,2467,,Sold,,,http://www.redfin.com/CA/Los-Altos/941-Seena-Ave-94024/home/642522,MLSListings,ML81645149,N,Y,37.3661854,-122.0917941
PAST SALE,,Condo/Co-op,4250 El Camino Real Apt A310,Palo Alto,CA,94306,195500,1,1.0,,557,,1983,,351,,,,,http://www.redfin.com/CA/Palo-Alto/4250-El-Camino-Real-94306/unit-A310/home/578672,,,N,Y,37.4067161,-122.1218394
PAST SALE,June-15-2016,Condo/Co-op,2211 Latham St #306,MOUNTAIN VIEW,CA,94040,680000,1,1.0,MOUNTAIN VIEW,1000,1080,1978,594,680,420,Sold,,,http://www.redfin.com/CA/Mountain-View/2211-Latham-St-94040/unit-306/home/2121186,MLSListings,ML81585150,N,Y,37.3973009,-122.1030065
PAST SALE,,Single Family Residential,328 Jardin Dr,Los Altos,CA,94022,2113000,3,1.0,,1440,6400,1952,,1467,,,,,http://www.redfin.com/CA/Los-Altos/328-Jardin-Dr-94022/home/1095903,,,N,Y,37.3883929,-122.1058191
PAST SALE,February-1-2017,Condo/Co-op,460 Lassen St #8,LOS ALTOS,CA,94022,966100,2,1.0,LOS ALTOS,990,1936,1964,363,976,435,Sold,,,http://www.redfin.com/CA/Los-Altos/460-Lassen-St-94022/unit-8/home/1834726,MLSListings,ML81636050,N,Y,37.3742988,-122.1121784
PAST SALE,November-7-2017,Single Family Residential,1855 Esberg Rd,LOS ALTOS,CA,94024,2665000,2,1.0,LOS ALTOS,1008,11250,1951,84,2644,,Sold,,,http://www.redfin.com/CA/Los-Altos/1855-Esberg-Rd-94024/home/776222,MLSListings,ML81678454,N,Y,37.3455586,-122.091703
PAST SALE,April-28-2017,Single Family Residential,1014 Mercedes Ave,LOS ALTOS,CA,94022,2710000,2,1.0,LOS ALTOS,1019,9525,1950,277,2659,,Sold,,,http://www.redfin.com/CA/Los-Altos/Mercedes-Ave-94022/home/630881,MLSListings,ML81644546,N,Y,37.4004339,-122.118686
PAST SALE,February-24-2017,Single Family Residential,1924 Churton Ave,LOS ALTOS,CA,94024,2280000,3,1.0,LOS ALTOS,1497,11745,1952,340,1523,,Sold,,,http://www.redfin.com/CA/Los-Altos/1924-Churton-Ave-94024/home/1258225,MLSListings,ML81635973,N,Y,37.3438242,-122.0677074
PAST SALE,May-16-2017,Condo/Co-op,1070 Mercedes Ave #4,LOS ALTOS,CA,94022,1000000,1,1.0,LOS ALTOS,1000,2440,1971,259,1000,525,Sold,,,http://www.redfin.com/CA/Los-Altos/Undisclosed-address-94022/home/1822577,MLSListings,ML81646455,N,Y,37.4021583,-122.1181048
PAST SALE,June-17-2016,Single Family Residential,2283 Grant Rd,LOS ALTOS,CA,94024,1600000,3,1.0,LOS ALTOS,1049,10001,1950,592,1525,,Sold,,,http://www.redfin.com/CA/Los-Altos/2283-Grant-Rd-94024/home/1550056,MLSListings,ML81580105,Y,Y,37.3385843,-122.0682023
PAST SALE,June-2-2017,Single Family Residential,446 S Clark Ave,LOS ALTOS,CA,94024,2425500,3,1.0,LOS ALTOS,1118,8757,1953,242,2169,,Sold,,,http://www.redfin.com/CA/Los-Altos/446-S-Clark-Ave-94024/home/643759,MLSListings,ML81643535,Y,Y,37.3748568,-122.1007789
PAST SALE,August-18-2017,Single Family Residential,921 Loraine Ave,LOS ALTOS,CA,94024,1845000,2,1.0,LOS ALTOS,800,7049,1932,165,2306,,Sold,,,http://www.redfin.com/CA/Los-Altos/921-Loraine-Ave-94024/home/1115656,MLSListings,ML81642559,N,Y,37.355133,-122.089021
PAST SALE,March-20-2017,Single Family Residential,167 Garland Way,LOS ALTOS,CA,94022,4201000,2,1.0,LOS ALTOS,1417,20900,1948,316,2965,,Sold,,,http://www.redfin.com/CA/Los-Altos/167-Garland-Way-94022/home/1525123,MLSListings,ML81639325,N,Y,37.3844278,-122.115417
PAST SALE,September-19-2016,Single Family Residential,759 Sunshine Dr,LOS ALTOS,CA,94024,2675000,3,1.0,LOS ALTOS,1235,14460,1949,498,2166,,Sold,,,http://www.redfin.com/CA/Los-Altos/759-Sunshine-Dr-94024/home/1798850,MLSListings,ML81598433,N,Y,37.3785959,-122.093529
PAST SALE,,Condo/Co-op,100 1st St Unit 105,Los Altos,CA,94022,1550000,1,1.0,,1205,,2015,,1286,,,,,http://www.redfin.com/CA/Los-Altos/100-1st-St-94022/unit-105/home/95956259,,,N,Y,37.3805495,-122.1202179
PAST SALE,May-19-2017,Condo/Co-op,400 A Ortega Ave #211,Mountain View,CA,94040,575000,1,1.0,Mountain View,763,,1975,256,754,359,Sold,,,http://www.redfin.com/CA/Mountain-View/400a-Ortega-Ave-94040/unit-211/home/129910764,San Francisco MLS,456602,N,Y,37.3995853,-122.1056225
PAST SALE,,Condo/Co-op,4388 El Camino Real Unit 198,Los Altos,CA,94022,791500,1,1.0,,787,,2009,,1006,,,,,http://www.redfin.com/CA/Los-Altos/4388-El-Camino-Real-94022/unit-198/home/23047553,,,N,Y,37.403772,-122.1176126
PAST SALE,February-13-2017,Single Family Residential,600 Springer Ter,LOS ALTOS,CA,94024,2650000,3,1.0,LOS ALTOS,1286,10318,1951,351,2061,,Sold,,,http://www.redfin.com/CA/Los-Altos/600-Springer-Ter-94024/home/1592113,MLSListings,ML81636608,N,Y,37.3798699,-122.1000442
PAST SALE,June-3-2016,Single Family Residential,428 Hawthorne Ave,LOS ALTOS,CA,94022,2150000,2,1.0,LOS ALTOS,1062,15838,1947,606,2024,,Sold,,,http://www.redfin.com/CA/Los-Altos/428-Hawthorne-Ave-94024/home/1467239,MLSListings,ML81585058,N,Y,37.37749,-122.103909
PAST SALE,February-2-2017,Single Family Residential,1730 Holt Ave,LOS ALTOS,CA,94024,1849000,3,1.0,LOS ALTOS,1084,9120,1953,362,1706,,Sold,,,http://www.redfin.com/CA/Los-Altos/1730-Holt-Ave-94024/home/1613784,MLSListings,ML81631859,N,Y,37.3446451,-122.065007
PAST SALE,,Single Family Residential,667 Springer Ter,Los Altos,CA,94024,2305000,2,1.0,,936,9750,1950,,2463,,,,,http://www.redfin.com/CA/Los-Altos/667-Springer-Ter-94024/home/547868,,,N,Y,37.3802186,-122.0973472
PAST SALE,June-24-2016,Condo/Co-op,26 4th St #9,LOS ALTOS,CA,94022,810000,1,1.0,LOS ALTOS,832,990,1976,585,974,545,Sold,,,http://www.redfin.com/CA/Los-Altos/26-4th-St-94022/unit-9/home/1652936,MLSListings,ML81586407,N,Y,37.3809263,-122.1162595
PAST SALE,September-7-2017,Condo/Co-op,550 Ortega Ave Unit A412,MOUNTAIN VIEW,CA,94040,840000,1,1.0,MOUNTAIN VIEW,822,,1992,145,1022,335,Sold,,,http://www.redfin.com/CA/Mountain-View/550-Ortega-Ave-94040/unit-A412/home/12172018,MLSListings,ML81672740,N,Y,37.399132,-122.1062035
PAST SALE,July-7-2017,Single Family Residential,1555 Todd St,MOUNTAIN VIEW,CA,94040,2050000,3,1.0,MOUNTAIN VIEW,1273,5022,1953,207,1610,,Sold,,,http://www.redfin.com/CA/Mountain-View/1555-Todd-St-94040/home/1309886,MLSListings,ML81653889,N,Y,37.3854387,-122.0939954
PAST SALE,October-13-2017,Condo/Co-op,4250 El Camino Real #307,PALO ALTO,CA,94306,850000,1,1.0,PALO ALTO,943,943,1983,109,901,638,Sold,,,http://www.redfin.com/CA/Palo-Alto/4250-El-Camino-Real-94306/unit-307/home/635131,MLSListings,ML81675317,N,Y,37.4067161,-122.1218394
PAST SALE,,Condo/Co-op,4250 El Camino Real Apt A206,Palo Alto,CA,94306,850000,1,1.0,,885,,1983,,960,,,,,http://www.redfin.com/CA/Palo-Alto/4250-El-Camino-Real-94306/unit-A206/home/1463549,,,N,Y,37.4067161,-122.1218394
PAST SALE,July-21-2016,Condo/Co-op,169 Cuesta Dr,LOS ALTOS,CA,94022,550000,1,1.0,LOS ALTOS,388,431,2000,558,1418,232,Sold,,,http://www.redfin.com/CA/Los-Altos/169-Cuesta-Dr-94022/home/1034282,MLSListings,ML81592104,N,Y,37.374241,-122.111187
PAST SALE,February-6-2017,Single Family Residential,2009 Crist Dr,LOS ALTOS,CA,94024,1955000,3,1.0,LOS ALTOS,1962,10062,1953,358,996,,Sold,,,http://www.redfin.com/CA/Los-Altos/2009-Crist-Dr-94024/home/1683556,MLSListings,ML81633897,N,Y,37.3420513,-122.0666217
PAST SALE,,Single Family Residential,1346 Arbor Ave,Los Altos,CA,94024,2225000,2,1.0,,1090,17980,1947,,2041,,,,,http://www.redfin.com/CA/Los-Altos/1346-Arbor-Ave-94024/home/582391,,,N,Y,37.3565193,-122.0956677
PAST SALE,January-19-2018,Single Family Residential,2037 Farndon Ave,LOS ALTOS,CA,94024,2500000,3,1.0,LOS ALTOS,1073,9375,1952,11,2330,,Sold,,,http://www.redfin.com/CA/Los-Altos/2037-Farndon-Ave-94024/home/1465730,MLSListings,ML81688631,N,Y,37.3403372,-122.0696795
PAST SALE,,Single Family Residential,2268 W El Camino Real,Mountain View,CA,94040,3900000,3,1.0,,1590,17856,1938,,2453,,,,,http://www.redfin.com/CA/Mountain-View/2268-W-El-Camino-Real-94040/home/728888,,,N,Y,37.3970065,-122.104044
PAST SALE,March-3-2016,Single Family Residential,1135 Solana Dr,MOUNTAIN VIEW,CA,94040,1786000,3,1.0,MOUNTAIN VIEW,1238,5759,1951,698,1443,,Sold,,,http://www.redfin.com/CA/Mountain-View/1135-Solana-Dr-94040/home/1558640,MLSListings,ML81547736,N,Y,37.3902732,-122.1029322
PAST SALE,September-28-2017,Single Family Residential,930 Leonello Ave,LOS ALTOS,CA,94024,2700000,3,1.0,LOS ALTOS,1895,11040,1948,124,1425,,Sold,,,http://www.redfin.com/CA/Los-Altos/930-Leonello-Ave-94024/home/1855244,MLSListings,ML81674302,N,Y,37.3663242,-122.0935346
PAST SALE,,Single Family Residential,982 Terrace Dr,Los Altos,CA,94024,1875000,2,1.0,,943,6960,1951,,1988,,,,,http://www.redfin.com/CA/Los-Altos/982-Terrace-Dr-94024/home/1726084,,,N,Y,37.3512454,-122.0880704
PAST SALE,November-7-2017,Single Family Residential,566 Lincoln Ave,LOS ALTOS,CA,94022,2020000,2,1.0,LOS ALTOS,1082,7550,1956,84,1867,,Sold,,,http://www.redfin.com/CA/Los-Altos/566-Lincoln-Ave-94022/home/1628088,MLSListings,ML81676785,N,Y,37.372815,-122.1143948
PAST SALE,April-29-2016,Single Family Residential,840 Echo Dr,LOS ALTOS,CA,94024,2910000,3,1.0,LOS ALTOS,1136,13599,1948,641,2562,,Sold,,,http://www.redfin.com/CA/Los-Altos/840-Echo-Dr-94024/home/1273346,MLSListings,ML81577830,N,Y,37.367863,-122.100891
PAST SALE,February-23-2017,Single Family Residential,987 Lundy Ln,LOS ALTOS,CA,94024,1875000,2,1.0,LOS ALTOS,962,8350,1951,341,1949,,Sold,,,http://www.redfin.com/CA/Los-Altos/987-Lundy-Ln-94024/home/777313,MLSListings,ML81635699,Y,Y,37.3512649,-122.0873799
PAST SALE,,Single Family Residential,232 Alicia Way,Los Altos,CA,94022,2775000,2,1.0,,876,13152,1922,,3168,,,,,http://www.redfin.com/CA/Los-Altos/232-Alicia-Way-94022/home/1439648,,,N,Y,37.3854039,-122.1071508
PAST SALE,June-23-2017,Condo/Co-op,4250 El Camino Real Unit A201,Palo Alto,CA,94306,818000,1,1.0,Santa Clara County,885,884,1983,221,924,626,Sold,,,http://www.redfin.com/CA/Palo-Alto/4250-El-Camino-Real-94306/unit-A201/home/635082,BAREIS,21707995,N,Y,37.4067161,-122.1218394
PAST SALE,August-18-2017,Single Family Residential,915 Loraine Ave,LOS ALTOS,CA,94024,1550000,2,1.0,LOS ALTOS,953,4600,1930,165,1626,,Sold,,,http://www.redfin.com/CA/Los-Altos/915-Loraine-Ave-94024/home/1669672,MLSListings,ML81668152,N,Y,37.355169,-122.0892788
PAST SALE,April-8-2016,Condo/Co-op,550 Ortega Ave Unit A314,MOUNTAIN VIEW,CA,94040,680000,1,1.0,MOUNTAIN VIEW,850,1001,1992,662,800,326,Sold,,,http://www.redfin.com/CA/Mountain-View/550-Ortega-Ave-94040/unit-A314/home/12172022,MLSListings,ML81562237,N,Y,37.399132,-122.1062035
PAST SALE,October-11-2016,Vacant Land,300 Cuesta Dr,LOS ALTOS,CA,94024,1620000,,,LOS ALTOS,,11761,,476,,,Sold,,,http://www.redfin.com/CA/Los-Altos/300-Cuesta-Dr-94024/home/643745,MLSListings,ML81612494,N,Y,37.3738164,-122.1074561
PAST SALE,July-16-2016,Single Family Residential,191 Hillview Ave,LOS ALTOS,CA,94022,1925000,2,1.0,LOS ALTOS,1030,8481,1920,563,1869,,Sold,,,http://www.redfin.com/CA/Los-Altos/191-Hillview-Ave-94022/home/963966,MLSListings,ML81590930,N,Y,37.3798454,-122.109842
PAST SALE,,Condo/Co-op,1 W Edith Ave Apt D222,Los Altos,CA,94022,256500,1,1.0,,694,,1997,,370,,,,,http://www.redfin.com/CA/Los-Altos/1-W-Edith-Ave-94022/unit-D222/home/633092,,,N,Y,37.382437,-122.1145576
PAST SALE,,Condo/Co-op,550 Ortega Ave Apt B432,Mountain View,CA,94040,460000,1,1.0,,811,,1992,,567,,,,,http://www.redfin.com/CA/Mountain-View/550-Ortega-Ave-94040/unit-B432/home/2121349,,,N,Y,37.399132,-122.1062035
PAST SALE,September-20-2016,Condo/Co-op,4250 El Camino Real Unit C326,PALO ALTO,CA,94306,727000,1,1.0,PALO ALTO,727,727,1983,497,1000,573,Sold,,,http://www.redfin.com/CA/Palo-Alto/4250-El-Camino-Real-94306/unit-C326/home/108974703,MLSListings,ML81613327,N,Y,37.4067161,-122.1218394
PAST SALE,,Condo/Co-op,550 Ortega Ave Apt A214,Mountain View,CA,94040,750000,1,1.0,,811,,1992,,925,,,,,http://www.redfin.com/CA/Mountain-View/550-Ortega-Ave-94040/unit-A214/home/2121308,,,N,Y,37.399132,-122.1062035
PAST SALE,,Condo/Co-op,4250 El Camino Real #104,Palo Alto,CA,94306,831000,2,1.0,,860,,1983,,966,,,,,http://www.redfin.com/CA/Palo-Alto/4250-El-Camino-Real-94306/unit-104/home/634718,,,N,Y,37.4067161,-122.1218394
PAST SALE,March-14-2017,Single Family Residential,1098 Solana Dr,MOUNTAIN VIEW,CA,94040,1625000,3,1.0,MOUNTAIN VIEW,974,5400,1951,322,1668,,Sold,,,http://www.redfin.com/CA/Mountain-View/1098-Solana-Dr-94040/home/1292558,MLSListings,ML81642505,N,Y,37.3913553,-122.1026922
PAST SALE,April-4-2016,Single Family Residential,381 San Luis Ave,LOS ALTOS,CA,94024,1950000,2,1.0,LOS ALTOS,908,6696,1940,666,2148,,Sold,,,http://www.redfin.com/CA/Los-Altos/381-San-Luis-Ave-94024/home/1785889,MLSListings,ML81562873,N,Y,37.3748615,-122.1050292
PAST SALE,July-24-2017,Single Family Residential,2056 El Sereno Ave,LOS ALTOS,CA,94024,2175000,3,1.0,LOS ALTOS,1049,9375,1950,190,2073,,Sold,,,http://www.redfin.com/CA/Los-Altos/2056-El-Sereno-Ave-94024/home/1674008,MLSListings,ML81650051,N,Y,37.3389448,-122.0677608
PAST SALE,February-24-2017,Condo/Co-op,440 Cesano Ct #211,PALO ALTO,CA,94306,890000,1,1.0,PALO ALTO,1103,1584,1981,340,807,448,Sold,,,http://www.redfin.com/CA/Palo-Alto/440-Cesano-Ct-94306/unit-211/home/2121206,MLSListings,ML81636450,N,Y,37.4055023,-122.1172665
PAST SALE,June-8-2016,Condo/Co-op,550 Ortega Ave Unit A212,MOUNTAIN VIEW,CA,94040,742500,1,1.0,MOUNTAIN VIEW,822,1000,1992,601,903,326,Sold,,,http://www.redfin.com/CA/Mountain-View/550-Ortega-Ave-94040/unit-A212/home/2121304,MLSListings,ML81589546,N,Y,37.399132,-122.1062035
PAST SALE,May-17-2017,Single Family Residential,1414 Todd St,MOUNTAIN VIEW,CA,94040,2025000,3,1.0,MOUNTAIN VIEW,1130,5022,1952,258,1792,,Sold,,,http://www.redfin.com/CA/Mountain-View/1414-Todd-St-94040/home/1659678,MLSListings,ML81647643,Y,Y,37.3858169,-122.0919692
PAST SALE,,Condo/Co-op,4250 El Camino Real #326,Palo Alto,CA,94306,727000,1,1.0,,727,,1983,,1000,,,,,http://www.redfin.com/CA/Palo-Alto/4250-El-Camino-Real-94306/unit-326/home/659497,,,N,Y,37.4067161,-122.1218394
PAST SALE,,Single Family Residential,578 Palm Ave,Los Altos,CA,94022,2050000,3,1.0,,1338,6650,1950,,1532,,,,,http://www.redfin.com/CA/Los-Altos/578-Palm-Ave-94022/home/1822778,,,N,Y,37.3726278,-122.115543
PAST SALE,December-6-2016,Single Family Residential,74 Chester Cir,LOS ALTOS,CA,94022,1540000,2,1.0,LOS ALTOS,996,5040,1943,420,1546,,Sold,,,http://www.redfin.com/CA/Los-Altos/74-Chester-Cir-94022/home/1115489,MLSListings,ML81629687,N,Y,37.3982417,-122.1128686
PAST SALE,October-11-2017,Condo/Co-op,4250 El Camino Real Unit A104,PALO ALTO,CA,94306,831000,1,1.0,PALO ALTO,885,885,1983,111,939,626,Sold,,,http://www.redfin.com/CA/Palo-Alto/4250-El-Camino-Real-94306/unit-A104/home/143409679,MLSListings,ML81675213,N,Y,37.4067161,-122.1218394
PAST SALE,October-13-2017,Condo/Co-op,150 W Edith Ave #30,LOS ALTOS,CA,94022,816517,1,1.0,LOS ALTOS,756,1306,1968,109,1080,315,Sold,,,http://www.redfin.com/CA/Los-Altos/150-W-Edith-Ave-94022/unit-30/home/634176,MLSListings,ML81667890,N,Y,37.381039,-122.1184737
PAST SALE,January-11-2017,Other,1677 Whitham Ave,LOS ALTOS,CA,94024,4000000,,,LOS ALTOS,,44836,,384,,,Sold,,,http://www.redfin.com/CA/Los-Altos/1677-Whitham-Ave-94024/home/1622391,MLSListings,ML81611817,N,Y,37.3492399,-122.1002277
PAST SALE,September-27-2016,Single Family Residential,5350 Arboretum Dr,LOS ALTOS,CA,94024,2100000,3,1.5,LOS ALTOS,1735,16400,1950,490,1210,,Sold,,,http://www.redfin.com/CA/Los-Altos/5350-Arboretum-Dr-94024/home/776905,MLSListings,ML81597356,N,Y,37.3408093,-122.0739012
PAST SALE,January-30-2017,Single Family Residential,310 N El Monte Ave,LOS ALTOS,CA,94022,2200000,3,1.5,LOS ALTOS,2126,16748,1951,365,1035,,Sold,,,http://www.redfin.com/CA/Los-Altos/310-N-El-Monte-Ave-94022/home/1280890,MLSListings,ML81613901,N,Y,37.387026,-122.096335
PAST SALE,June-6-2016,Single Family Residential,1105 Briarwood Ct,LOS ALTOS,CA,94024,2388000,2,1.5,LOS ALTOS,1427,10924,1949,603,1673,,Sold,,,http://www.redfin.com/CA/Los-Altos/1105-Briarwood-Ct-94024/home/643247,MLSListings,ML81586177,N,Y,37.3632802,-122.0969259
PAST SALE,March-31-2017,Condo/Co-op,470 Gabilan St #4,LOS ALTOS,CA,94022,1108000,2,1.5,LOS ALTOS,1140,435,1986,305,972,475,Sold,,,http://www.redfin.com/CA/Los-Altos/470-Gabilan-St-94022/unit-4/home/634930,MLSListings,ML81638359,N,Y,37.3744044,-122.1109617
PAST SALE,March-22-2017,Single Family Residential,328 Jardin,LOS ALTOS,CA,94022,2112800,3,1.5,LOS ALTOS,1440,6425,1952,314,1467,,Sold,,,http://www.redfin.com/CA/Los-Altos/328-Jardin-Dr-94022/home/113382066,MLSListings,ML81641633,Y,Y,37.3883929,-122.1058191
PAST SALE,October-27-2017,Single Family Residential,974 Lundy Ln,LOS ALTOS,CA,94024,2115000,3,1.5,LOS ALTOS,1506,8400,1945,95,1404,,Sold,,,http://www.redfin.com/CA/Los-Altos/974-Lundy-Ln-94024/home/1740103,MLSListings,ML81678814,N,Y,37.3510538,-122.0865072
PAST SALE,September-14-2016,Single Family Residential,951 S Springer Rd,LOS ALTOS,CA,94024,1950000,2,1.5,LOS ALTOS,1553,10200,1955,503,1256,,Sold,,,http://www.redfin.com/CA/Los-Altos/Springer-Rd-94024/home/1447478,MLSListings,ML81589330,N,Y,37.3660352,-122.0957166
PAST SALE,November-1-2017,Condo/Co-op,100 1st St #105,LOS ALTOS,CA,94022,1550000,1,1.5,LOS ALTOS,1205,889,2015,90,1286,552,Sold,,,http://www.redfin.com/CA/Los-Altos/100-1st-St-94022/unit-105/home/67340127,MLSListings,ML81681198,N,Y,37.3805495,-122.1202179
PAST SALE,October-3-2016,Single Family Residential,1515 Topar Ave,LOS ALTOS,CA,94024,1900000,3,1.5,LOS ALTOS,1320,11748,1952,484,1439,,Sold,,,http://www.redfin.com/CA/Los-Altos/1515-Topar-Ave-94024/home/1200447,MLSListings,ML81614571,N,Y,37.3528828,-122.0922767
PAST SALE,June-13-2016,Single Family Residential,1694 Clay Dr,LOS ALTOS,CA,94024,2960000,1,1.5,LOS ALTOS,1300,300,1968,596,2277,,Sold,,,http://www.redfin.com/CA/Los-Altos/1694-Clay-Dr-94024/home/1336540,MLSListings,ML81582718,N,Y,37.3491227,-122.0661331
PAST SALE,May-16-2017,Single Family Residential,622 Covington Rd,LOS ALTOS,CA,94024,2360000,3,1.5,LOS ALTOS,1185,11658,1950,259,1992,,Sold,,,http://www.redfin.com/CA/Los-Altos/622-Covington-Rd-94024/home/564526,MLSListings,ML81649884,N,Y,37.3656207,-122.0991942
PAST SALE,September-19-2016,Condo/Co-op,550 Ortega Ave Unit B324,MOUNTAIN VIEW,CA,94040,985000,2,2.0,MOUNTAIN VIEW,1071,1001,1992,498,920,356,Sold,,,http://www.redfin.com/CA/Mountain-View/550-Ortega-Ave-94040/unit-B324/home/12172043,MLSListings,ML81599732,N,Y,37.399132,-122.1062035
PAST SALE,April-6-2016,Single Family Residential,832 Starlite Ln,LOS ALTOS,CA,94024,2800000,3,2.0,LOS ALTOS,2043,10162,1960,664,1371,,Sold,,,http://www.redfin.com/CA/Los-Altos/832-Starlite-Ln-94024/home/776441,MLSListings,ML81565431,N,Y,37.36783,-122.111399
PAST SALE,September-2-2016,Single Family Residential,517 Tyndall St,LOS ALTOS,CA,94022,2300000,2,2.0,LOS ALTOS,1094,7100,1940,515,2102,,Sold,,,http://www.redfin.com/CA/Los-Altos/517-Tyndall-St-94022/home/1345989,MLSListings,ML81599482,N,Y,37.3736798,-122.1126923
PAST SALE,December-2-2016,Single Family Residential,568 Gabilan St,LOS ALTOS,CA,94022,2195000,2,2.0,LOS ALTOS,1306,5119,1947,424,1681,,Sold,,,http://www.redfin.com/CA/Los-Altos/568-Gabilan-St-94022/home/1855042,MLSListings,ML81589756,N,Y,37.3728637,-122.1110288
PAST SALE,July-6-2016,Condo/Co-op,4388 El Camino Real #239,LOS ALTOS,CA,94022,1490000,3,2.0,LOS ALTOS,1671,1228,2009,573,892,475,Sold,,,http://www.redfin.com/CA/Los-Altos/4388-El-Camino-Real-94022/unit-239/home/22597969,MLSListings,ML81582694,N,Y,37.403772,-122.1176126
PAST SALE,April-5-2016,Single Family Residential,826 HIERRA Ct,LOS ALTOS,CA,94024,2500000,3,2.0,LOS ALTOS,1673,8350,1952,665,1494,,Sold,,,http://www.redfin.com/CA/Los-Altos/826-Hierra-Ct-94024/home/775839,MLSListings,ML81561877,N,Y,37.3459153,-122.0915712
PAST SALE,June-21-2016,Single Family Residential,5633 Arboretum Dr,LOS ALTOS,CA,94024,2300000,2,2.0,LOS ALTOS,2886,24045,1951,588,797,,Sold,,,http://www.redfin.com/CA/Los-Altos/5633-Arboretum-Dr-94024/home/17293472,MLSListings,ML81581196,N,Y,37.3380869,-122.0750644
PAST SALE,September-23-2016,Condo/Co-op,550 Ortega Ave Unit B130,MOUNTAIN VIEW,CA,94040,1070550,2,2.0,MOUNTAIN VIEW,1199,1001,1992,494,893,375,Sold,,,http://www.redfin.com/CA/Mountain-View/550-Ortega-Ave-94040/unit-B130/home/2121343,MLSListings,ML81613649,N,Y,37.399132,-122.1062035
PAST SALE,December-9-2016,Condo/Co-op,460 Lassen St #2,LOS ALTOS,CA,94022,1180000,3,2.0,LOS ALTOS,1337,1934,1964,417,883,430,Sold,,,http://www.redfin.com/CA/Los-Altos/460-Lassen-St-94022/unit-2/home/637814,MLSListings,ML81626029,N,Y,37.3742988,-122.1121784
PAST SALE,September-8-2016,Condo/Co-op,86 Third St #307,LOS ALTOS,CA,94022,1610000,3,2.0,LOS ALTOS,1337,,2016,509,1204,380,Sold,,,http://www.redfin.com/CA/Los-Altos/86-3rd-St-94022/unit-307/home/108979332,MLSListings,ML81613465,N,Y,37.3805154,-122.1173717
PAST SALE,September-25-2017,Single Family Residential,1358 Garthwick Ct,LOS ALTOS,CA,94024,2760000,3,2.0,LOS ALTOS,1943,13160,1956,127,1420,,Sold,,,http://www.redfin.com/CA/Los-Altos/1358-Garthwick-Ct-94024/home/1654231,MLSListings,ML81674839,N,Y,37.3537097,-122.0762836
PAST SALE,April-26-2017,Single Family Residential,848 S Springer Rd,LOS ALTOS,CA,94024,2400000,3,2.0,LOS ALTOS,1623,10206,1950,279,1479,,Sold,,,http://www.redfin.com/CA/Los-Altos/848-Springer-Rd-94024/home/1379036,MLSListings,ML81642947,Y,Y,37.3677374,-122.096333
PAST SALE,July-18-2016,Single Family Residential,1852 Limetree Ln,MOUNTAIN VIEW,CA,94040,2200000,3,2.0,MOUNTAIN VIEW,1620,8502,1961,561,1358,,Sold,,,http://www.redfin.com/CA/Mountain-View/1852-Limetree-Ln-94040/home/1696878,MLSListings,ML81590679,N,Y,37.3695156,-122.0953684
PAST SALE,July-29-2016,Single Family Residential,542 San Luis Ave,LOS ALTOS,CA,94024,2315000,3,2.0,LOS ALTOS,1775,8755,1946,550,1304,,Sold,,,http://www.redfin.com/CA/Los-Altos/542-San-Luis-Ave-94024/home/1073631,MLSListings,ML81591935,N,Y,37.3743459,-122.101213
PAST SALE,,Single Family Residential,1270 Saint Mark Ct,Los Altos,CA,94024,369000,4,2.0,,2332,11700,1974,,158,,,,,http://www.redfin.com/CA/Los-Altos/1270-Saint-Mark-Ct-94024/home/1471885,,,N,Y,37.3406781,-122.0779581
PAST SALE,November-4-2016,Townhouse,67 Los Altos Sq,LOS ALTOS,CA,94022,1605000,2,2.0,LOS ALTOS,1444,1820,1964,452,1111,595,Sold,,,http://www.redfin.com/CA/Los-Altos/67-Los-Altos-Sq-94022/home/636166,MLSListings,ML81629138,N,Y,37.39738,-122.110171
PAST SALE,June-28-2017,Condo/Co-op,672 N San Antonio Rd,LOS ALTOS,CA,94022,1205000,2,2.0,LOS ALTOS,1077,1116,1960,216,1119,450,Sold,,,http://www.redfin.com/CA/Los-Altos/672-N-San-Antonio-Rd-94022/home/632627,MLSListings,ML81652926,N,Y,37.393212,-122.114535
PAST SALE,,Single Family Residential,680 Milverton Rd,Los Altos,CA,94022,3426500,4,2.0,,2483,10400,1948,,1380,,,,,http://www.redfin.com/CA/Los-Altos/680-Milverton-Rd-94022/home/869180,,,N,Y,37.3681774,-122.1140415
PAST SALE,August-23-2016,Single Family Residential,929 Golden Way,LOS ALTOS,CA,94024,2380000,3,2.0,LOS ALTOS,1795,10763,1954,525,1326,,Sold,,,http://www.redfin.com/CA/Los-Altos/929-Golden-Way-94024/home/1529415,MLSListings,ML81596222,N,Y,37.3663266,-122.090613
PAST SALE,July-7-2016,Single Family Residential,56 Marvin Ave,LOS ALTOS,CA,94022,2600000,3,2.0,LOS ALTOS,2270,13676,1976,572,1145,,Sold,,,http://www.redfin.com/CA/Los-Altos/56-Marvin-Ave-94022/home/1212645,MLSListings,ML81583224,N,Y,37.3760681,-122.1132945
PAST SALE,April-4-2016,Single Family Residential,1737 Priscilla Ct,MOUNTAIN VIEW,CA,94040,1780000,3,2.0,MOUNTAIN VIEW,1427,7110,1956,666,1247,,Sold,,,http://www.redfin.com/CA/Mountain-View/1737-Priscilla-Ct-94040/home/1340066,MLSListings,ML81562310,N,Y,37.3887533,-122.0973809
PAST SALE,November-4-2016,Single Family Residential,694 Camellia Way,LOS ALTOS,CA,94024,2180000,3,2.0,LOS ALTOS,1919,10192,1956,452,1136,,Sold,,,http://www.redfin.com/CA/Los-Altos/694-Camellia-Way-94024/home/1669677,MLSListings,ML81597223,N,Y,37.3807989,-122.0963464
PAST SALE,September-1-2016,Single Family Residential,2139 Aitken Ave,MOUNTAIN VIEW,CA,94040,1695000,3,2.0,MOUNTAIN VIEW,1433,6751,1952,516,1183,,Sold,,,http://www.redfin.com/CA/Mountain-View/2139-Aitken-Ave-94040/home/1354845,MLSListings,ML81596346,N,Y,37.3897556,-122.1049016
PAST SALE,December-7-2016,Single Family Residential,1024 Ray Ave,LOS ALTOS,CA,94022,2427000,3,2.0,LOS ALTOS,1656,9875,1950,419,1466,,Sold,,,http://www.redfin.com/CA/Los-Altos/1024-Ray-Ave-94022/home/631405,MLSListings,ML81625538,Y,Y,37.4006825,-122.1176533
PAST SALE,,Townhouse,74 Bay Tree Ln,Los Altos,CA,94022,2050000,2,2.0,,1840,2704,1972,,1114,,,,,http://www.redfin.com/CA/Los-Altos/74-Bay-Tree-Ln-94022/home/1670302,,,N,Y,37.367873,-122.117045
PAST SALE,September-8-2016,Condo/Co-op,86 Third #204,LOS ALTOS,CA,94022,1660000,3,2.0,LOS ALTOS,1067,,2016,509,1556,395,Sold,,,http://www.redfin.com/CA/Los-Altos/86-3rd-St-94022/unit-204/home/108979169,MLSListings,ML81613454,N,Y,37.3805154,-122.1173717
PAST SALE,September-8-2016,Condo/Co-op,86 Third St #103,LOS ALTOS,CA,94022,1410000,3,2.0,LOS ALTOS,1337,,2016,509,1055,375,Sold,,,http://www.redfin.com/CA/Los-Altos/86-3rd-St-94022/unit-103/home/108979127,MLSListings,ML81613450,N,Y,37.3805154,-122.1173717
PAST SALE,May-11-2017,Single Family Residential,22850 Sequoia Dr,LOS ALTOS,CA,94024,2800000,3,2.0,LOS ALTOS,1940,21306,1953,264,1443,,Sold,,,http://www.redfin.com/CA/Los-Altos/22850-Sequoia-Dr-94024/home/1860281,MLSListings,ML81644032,N,Y,37.3386311,-122.0740868
PAST SALE,November-30-2017,Single Family Residential,370 Yerba Santa Ave,LOS ALTOS,CA,94022,3383000,2,2.0,LOS ALTOS,1625,13855,1951,61,2082,,Sold,,,http://www.redfin.com/CA/Los-Altos/370-Yerba-Santa-Ave-94022/home/1345928,MLSListings,ML81684335,Y,Y,37.3883265,-122.1233585
PAST SALE,March-7-2016,Single Family Residential,1520 Todd St,MOUNTAIN VIEW,CA,94040,1910000,3,2.0,MOUNTAIN VIEW,1353,4930,1954,694,1412,,Sold,,,http://www.redfin.com/CA/Mountain-View/1520-Todd-St-94040/home/1562247,MLSListings,ML81548636,N,Y,37.3858271,-122.0934416
PAST SALE,September-8-2016,Condo/Co-op,86 Third St #205,LOS ALTOS,CA,94022,1740000,3,2.0,LOS ALTOS,1516,,2016,509,1148,390,Sold,,,http://www.redfin.com/CA/Los-Altos/86-3rd-St-94022/unit-205/home/108979015,MLSListings,ML81613447,N,Y,37.3805154,-122.1173717
PAST SALE,September-8-2016,Condo/Co-op,86 Third St #101,LOS ALTOS,CA,94022,1395000,3,2.0,LOS ALTOS,1279,,2016,509,1091,375,Sold,,,http://www.redfin.com/CA/Los-Altos/86-3rd-St-94022/unit-101/home/108979126,MLSListings,ML81613449,N,Y,37.3805154,-122.1173717
PAST SALE,October-3-2017,Single Family Residential,1425 Brookmill Rd,LOS ALTOS,CA,94024,2475000,3,2.0,LOS ALTOS,1655,9147,1956,119,1495,,Sold,,,http://www.redfin.com/CA/Los-Altos/1425-Brookmill-Rd-94024/home/1398019,MLSListings,ML81673022,N,Y,37.3543328,-122.0622193
PAST SALE,February-29-2016,Single Family Residential,1220 Payne Dr,LOS ALTOS,CA,94024,2600000,3,2.0,LOS ALTOS,2084,8216,1940,701,1248,,Sold,,,http://www.redfin.com/CA/Los-Altos/1220-Payne-Dr-94024/home/659837,MLSListings,ML81546827,N,Y,37.3570364,-122.0817259
PAST SALE,November-13-2017,Single Family Residential,1125 Blue Lake Sq,MOUNTAIN VIEW,CA,94040,2300000,3,2.0,MOUNTAIN VIEW,1782,4200,1973,78,1291,371,Sold,,,http://www.redfin.com/CA/Mountain-View/1125-Blue-Lake-Sq-94040/home/1223820,MLSListings,ML81681163,N,Y,37.3586149,-122.0695578
PAST SALE,September-8-2016,Condo/Co-op,86 Third St #302,LOS ALTOS,CA,94022,1275000,2,2.0,LOS ALTOS,1102,,2016,509,1157,362,Sold,,,http://www.redfin.com/CA/Los-Altos/86-3rd-St-94022/unit-302/home/108979225,MLSListings,ML81613460,N,Y,37.3805154,-122.1173717
PAST SALE,July-7-2017,Single Family Residential,682 Arboleda Dr,LOS ALTOS,CA,94024,2900000,3,2.0,LOS ALTOS,1787,10298,1952,207,1623,,Sold,,,http://www.redfin.com/CA/Los-Altos/682-Arboleda-Dr-94024/home/1529459,MLSListings,ML81655103,N,Y,37.372706,-122.0967269
PAST SALE,June-15-2016,Single Family Residential,510 Benvenue Ave,LOS ALTOS,CA,94024,2360000,3,2.0,LOS ALTOS,1763,8197,1947,594,1339,,Sold,,,http://www.redfin.com/CA/Los-Altos/510-Benvenue-Ave-94024/home/880016,MLSListings,ML81582668,N,Y,37.3752445,-122.1018842
PAST SALE,May-11-2017,Single Family Residential,1721 Penny Way,LOS ALTOS,CA,94024,2220000,3,2.0,LOS ALTOS,1254,10283,1953,264,1770,,Sold,,,http://www.redfin.com/CA/Los-Altos/1721-Penny-Way-94024/home/1499724,MLSListings,ML81646605,N,Y,37.3459394,-122.0651506
PAST SALE,April-18-2017,Single Family Residential,1402 Todd St,MOUNTAIN VIEW,CA,94040,2200000,4,2.0,MOUNTAIN VIEW,1410,4929,1952,287,1560,,Sold,,,http://www.redfin.com/CA/Mountain-View/1402-Todd-St-94040/home/1722902,MLSListings,ML81644440,N,Y,37.3858142,-122.0917884
PAST SALE,March-25-2016,Condo/Co-op,460 Lassen St #5,LOS ALTOS,CA,94022,1106000,2,2.0,LOS ALTOS,1349,1934,1964,676,820,438,Sold,,,http://www.redfin.com/CA/Los-Altos/460-Lassen-St-94022/unit-5/home/1785781,MLSListings,ML81550123,N,Y,37.3742988,-122.1121784
PAST SALE,October-27-2016,Single Family Residential,731 Casita Way,LOS ALTOS,CA,94022,2305000,4,2.0,LOS ALTOS,1818,10985,1958,460,1268,,Sold,,,http://www.redfin.com/CA/Los-Altos/731-Casita-Way-94022/home/1710945,MLSListings,ML81611581,N,Y,37.394599,-122.1022516
PAST SALE,August-18-2016,Condo/Co-op,1 W Edith Ave Unit D129,LOS ALTOS,CA,94022,1150000,2,2.0,LOS ALTOS,1283,1285,1997,530,896,650,Sold,,,http://www.redfin.com/CA/Los-Altos/1-W-Edith-Ave-94022/unit-D129/home/1627904,MLSListings,ML81587611,N,Y,37.382437,-122.1145576
PAST SALE,December-12-2016,Single Family Residential,1741 Juarez Ave,LOS ALTOS,CA,94024,2310000,3,2.0,LOS ALTOS,1418,10400,1955,414,1629,,Sold,,,http://www.redfin.com/CA/Los-Altos/1741-Juarez-Ave-94024/home/1847333,MLSListings,ML81631468,N,Y,37.3488812,-122.074796
PAST SALE,September-9-2016,Single Family Residential,1430 RANCHITA Dr,LOS ALTOS,CA,94024,2625000,4,2.0,LOS ALTOS,1899,12349,1955,508,1382,,Sold,,,http://www.redfin.com/CA/Los-Altos/1430-Ranchita-Dr-94024/home/621861,MLSListings,ML81598068,N,Y,37.3548763,-122.073918
PAST SALE,January-23-2017,Condo/Co-op,38 3rd St #109,LOS ALTOS,CA,94022,1656000,2,2.0,LOS ALTOS,1222,1222,1995,372,1355,500,Sold,,,http://www.redfin.com/CA/Los-Altos/38-3rd-St-94022/unit-109/home/1494837,MLSListings,ML81635291,N,Y,37.380809,-122.1175369
PAST SALE,August-5-2016,Townhouse,1229 Blackberry Ter,SUNNYVALE,CA,94087,1165000,3,2.0,SUNNYVALE,1374,2744,1973,543,848,345,Sold,,,http://www.redfin.com/CA/Sunnyvale/1229-Blackberry-Ter-94087/home/655700,MLSListings,ML81594757,N,Y,37.35493,-122.060103
PAST SALE,September-21-2017,Single Family Residential,1930 Colleen Dr,LOS ALTOS,CA,94024,2750000,3,2.0,LOS ALTOS,2092,12232,1958,131,1315,,Sold,,,http://www.redfin.com/CA/Los-Altos/1930-Colleen-Dr-94024/home/765716,MLSListings,ML81675129,N,Y,37.3441577,-122.0747745
PAST SALE,August-29-2016,Single Family Residential,1406 Marinovich Way,LOS ALTOS,CA,94024,2720000,3,2.0,LOS ALTOS,1953,10258,1971,519,1393,,Sold,,,http://www.redfin.com/CA/Los-Altos/1406-Marinovich-Way-94024/home/1763438,MLSListings,ML81596284,N,Y,37.3558044,-122.0746492
PAST SALE,,Single Family Residential,684 Giralda Dr,Los Altos,CA,94024,2665000,2,2.0,,1826,10080,1951,,1459,,,,,http://www.redfin.com/CA/Los-Altos/684-Giralda-Dr-94024/home/642972,,,N,Y,37.3772431,-122.0967039
PAST SALE,June-29-2016,Condo/Co-op,22 Bay Tree Ln,LOS ALTOS,CA,94022,2395000,2,2.0,LOS ALTOS,1840,,1972,580,1302,777,Sold,,,http://www.redfin.com/CA/Los-Altos/22-Bay-Tree-Ln-94022/home/638288,MLSListings,ML81591568,N,Y,37.3664428,-122.1158118
PAST SALE,April-19-2016,Single Family Residential,709 Orange Ave,LOS ALTOS,CA,94022,3025000,3,2.0,LOS ALTOS,1917,6600,1946,651,1578,,Sold,,,http://www.redfin.com/CA/Los-Altos/709-Orange-Ave-94022/home/637389,MLSListings,ML81577615,N,Y,37.3709531,-122.1143533
PAST SALE,August-12-2016,Condo/Co-op,550 Ortega Ave Unit A401,MOUNTAIN VIEW,CA,94040,1118000,2,2.0,MOUNTAIN VIEW,1080,1001,1992,536,1035,363,Sold,,,http://www.redfin.com/CA/Mountain-View/550-Ortega-Ave-94040/unit-A401/home/2121278,MLSListings,ML81592948,N,Y,37.399132,-122.1062035
PAST SALE,September-30-2016,Condo/Co-op,86 3rd St #201,LOS ALTOS,CA,94022,1850000,3,2.0,LOS ALTOS,1310,,2016,487,1412,374,Sold,,,http://www.redfin.com/CA/Los-Altos/86-3rd-St-94022/unit-201/home/108598861,MLSListings,ML81601261,N,Y,37.3805154,-122.1173717
PAST SALE,October-3-2017,Townhouse,27 Farm Rd,LOS ALTOS,CA,94024,1580000,3,2.0,LOS ALTOS,1785,1225,1973,119,885,635,Sold,,,http://www.redfin.com/CA/Los-Altos/27-Farm-Rd-94024/home/780379,MLSListings,ML81676542,N,Y,37.341212,-122.076342
PAST SALE,September-8-2016,Condo/Co-op,86 Third St #305,LOS ALTOS,CA,94022,1895000,3,2.0,LOS ALTOS,1548,,2016,509,1224,390,Sold,,,http://www.redfin.com/CA/Los-Altos/86-3rd-St-94022/unit-305/home/108979328,MLSListings,ML81613463,N,Y,37.3805154,-122.1173717
PAST SALE,April-21-2016,Condo/Co-op,22330 Homestead Rd #202,CUPERTINO,CA,95014,1250000,3,2.0,CUPERTINO,1520,,1984,649,822,445,Sold,,,http://www.redfin.com/CA/Cupertino/22330-Homestead-Rd-95014/unit-202/home/1083964,MLSListings,ML81578509,N,Y,37.3369149,-122.06563
PAST SALE,September-8-2016,Condo/Co-op,86 Third St #203,LOS ALTOS,CA,94022,1470000,3,2.0,LOS ALTOS,1408,,2016,509,1044,382,Sold,,,http://www.redfin.com/CA/Los-Altos/86-3rd-St-94022/unit-203/home/108979168,MLSListings,ML81613453,N,Y,37.3805154,-122.1173717
PAST SALE,November-10-2016,Single Family Residential,24600 Summerhill Ave,LOS ALTOS HILLS,CA,94024,2898000,3,2.0,LOS ALTOS HILLS,1818,19201,1951,446,1594,,Sold,,,http://www.redfin.com/CA/Los-Altos/24600-Summerhill-Ave-94024/home/778168,MLSListings,ML81629743,N,Y,37.362602,-122.111892
PAST SALE,,Single Family Residential,635 Parma Way,Los Altos,CA,94024,2600000,3,2.0,,2307,10018,1952,,1127,,,,,http://www.redfin.com/CA/Los-Altos/635-Parma-Way-94024/home/1115647,,,N,Y,37.371922,-122.098756
PAST SALE,June-22-2016,Condo/Co-op,440 Cesano Ct #113,PALO ALTO,CA,94306,1114845,2,2.0,PALO ALTO,1400,1650,1981,587,796,503,Sold,,,http://www.redfin.com/CA/Palo-Alto/440-Cesano-Ct-94306/unit-113/home/12171945,MLSListings,ML81588489,N,Y,37.4055023,-122.1172665
PAST SALE,September-28-2016,Single Family Residential,1264 Miraflores Way,LOS ALTOS,CA,94024,2500000,3,2.0,LOS ALTOS,2219,11251,1952,489,1127,,Sold,,,http://www.redfin.com/CA/Los-Altos/1264-Miraflores-Way-94024/home/641586,MLSListings,ML81614346,N,Y,37.3602831,-122.0889978
PAST SALE,January-4-2018,Condo/Co-op,1 W Edith Ave Unit A102,LOS ALTOS,CA,94022,1585000,2,2.0,LOS ALTOS,1470,,1996,26,1078,713,Sold,,,http://www.redfin.com/CA/Los-Altos/1-W-Edith-Ave-94022/unit-A102/home/1855004,MLSListings,ML81686371,N,Y,37.382437,-122.1145576
PAST SALE,October-24-2016,Single Family Residential,284 Alvarado Ave,LOS ALTOS,CA,94022,2425500,3,2.0,LOS ALTOS,1720,10201,1951,463,1410,,Sold,,,http://www.redfin.com/CA/Los-Altos/284-Alvarado-Ave-94022/home/632696,MLSListings,ML81595161,N,Y,37.3920542,-122.1078054
PAST SALE,October-13-2016,Single Family Residential,1024 Mercedes Ave,LOS ALTOS,CA,94022,2505000,3,2.0,LOS ALTOS,1400,9600,1950,474,1789,,Sold,,,http://www.redfin.com/CA/Los-Altos/1024-Mercedes-Ave-94022/home/1834607,MLSListings,ML81613326,N,Y,37.4006303,-122.1186888
PAST SALE,June-15-2016,Townhouse,456 Gabilan St #6,LOS ALTOS,CA,94022,1295000,2,2.0,LOS ALTOS,1345,1777,2003,594,963,245,Sold,,,http://www.redfin.com/CA/Los-Altos/456-Gabilan-St-94022/unit-6/home/1720407,MLSListings,ML81584560,N,Y,37.3746059,-122.1109746
PAST SALE,May-18-2016,Condo/Co-op,1 W Edith Ave Unit D123,LOS ALTOS,CA,94022,1350000,2,2.0,LOS ALTOS,1353,1353,1997,622,998,680,Sold,,,http://www.redfin.com/CA/Los-Altos/1-W-Edith-Ave-94022/unit-D123/home/768722,MLSListings,ML81551033,N,Y,37.382437,-122.1145576
PAST SALE,March-16-2017,Townhouse,1961 Amalfi Way,MOUNTAIN VIEW,CA,94040,1810000,3,2.0,MOUNTAIN VIEW,1716,3258,1979,320,1055,495,Sold,,,http://www.redfin.com/CA/Mountain-View/1961-Amalfi-Way-94040/home/1542230,MLSListings,ML81637865,N,Y,37.3665261,-122.0864906
PAST SALE,May-18-2017,Condo/Co-op,100 1st St #106,LOS ALTOS,CA,94022,1900000,2,2.0,LOS ALTOS,1395,889,2015,257,1362,620,Sold,,,http://www.redfin.com/CA/Los-Altos/100-1st-St-94022/unit-106/home/95956268,MLSListings,ML81649802,N,Y,37.3805495,-122.1202179
PAST SALE,March-30-2017,Condo/Co-op,1 W Edith Ave Unit D219,LOS ALTOS,CA,94022,2325000,3,2.0,LOS ALTOS,1861,1861,1997,306,1249,755,Sold,,,http://www.redfin.com/CA/Los-Altos/1-W-Edith-Ave-94022/unit-D219/home/631677,MLSListings,ML81640612,N,Y,37.382437,-122.1145576
PAST SALE,June-7-2016,Single Family Residential,1129 Las Flores Ct,LOS ALTOS,CA,94022,3150000,3,2.0,LOS ALTOS,2188,11303,1955,602,1440,,Sold,,,http://www.redfin.com/CA/Los-Altos/1129-Las-Flores-Ct-94022/home/1561394,MLSListings,ML81585137,N,Y,37.4029471,-122.1218161
PAST SALE,February-26-2016,Single Family Residential,74 Yerba Santa Ave,LOS ALTOS,CA,94022,3050000,3,2.0,LOS ALTOS,2162,10001,1954,704,1411,,Sold,,,http://www.redfin.com/CA/Los-Altos/74-Yerba-Santa-Ave-94022/home/1669387,MLSListings,ML81549727,N,Y,37.3883346,-122.1158915
PAST SALE,,Townhouse,53 Bay Tree Ln,Los Altos,CA,94022,2300000,2,2.0,,1840,2704,1972,,1250,,,,,http://www.redfin.com/CA/Los-Altos/53-Bay-Tree-Ln-94022/home/1303445,,,N,Y,37.366821,-122.115467
PAST SALE,,Single Family Residential,1260 Country Club Dr,Los Altos,CA,94024,1120000,4,3.0,,2994,23700,1950,,374,,,,,http://www.redfin.com/CA/Los-Altos/1260-Country-Club-Dr-94024/home/1443346,,,N,Y,37.3590035,-122.0968882
PAST SALE,November-1-2016,Single Family Residential,1205 W Remington Dr,SUNNYVALE,CA,94087,1400000,4,2.0,SUNNYVALE,1726,6281,1954,455,811,,Sold,,,http://www.redfin.com/CA/Sunnyvale/1205-W-Remington-Dr-94087/home/1603165,MLSListings,ML81615288,N,Y,37.3597852,-122.0612416
PAST SALE,March-9-2016,Single Family Residential,272 Covington Rd,LOS ALTOS,CA,94024,4950000,4,2.0,LOS ALTOS,1914,43520,1947,692,2586,,Sold,,,http://www.redfin.com/CA/Los-Altos/272-Covington-Rd-94024/home/880009,MLSListings,ML81561752,N,Y,37.3689256,-122.1064703
PAST SALE,July-22-2016,Condo/Co-op,50 W Edith Ave #3,LOS ALTOS,CA,94022,1225000,2,2.0,LOS ALTOS,1502,1576,1979,557,816,400,Sold,,,http://www.redfin.com/CA/Los-Altos/50-W-Edith-Ave-94022/unit-3/home/780511,MLSListings,ML81588466,N,Y,37.381075,-122.11571
PAST SALE,,Single Family Residential,681 Giralda Dr,Los Altos,CA,94024,2500000,3,2.0,,1912,9720,1962,,1308,,,,,http://www.redfin.com/CA/Los-Altos/681-Giralda-Dr-94024/home/543737,,,N,Y,37.3776666,-122.0968303
PAST SALE,April-15-2016,Condo/Co-op,73 3rd St #11,LOS ALTOS,CA,94022,1407500,2,2.0,LOS ALTOS,1344,1459,1974,655,1047,495,Sold,,,http://www.redfin.com/CA/Los-Altos/73-3rd-St-94022/unit-11/home/935017,MLSListings,ML81565634,N,Y,37.3808488,-122.1168881
PAST SALE,June-30-2016,Single Family Residential,40 Pasa Robles Ave,LOS ALTOS,CA,94022,2150000,3,2.0,LOS ALTOS,1987,6695,1925,579,1082,,Sold,,,http://www.redfin.com/CA/Los-Altos/40-Pasa-Robles-Ave-94022/home/1198069,MLSListings,ML81585922,N,Y,37.3982624,-122.1153176
PAST SALE,December-6-2016,Single Family Residential,240 Alvarado Ave,LOS ALTOS,CA,94022,1679200,3,2.0,LOS ALTOS,1220,4231,1935,420,1376,,Sold,,,http://www.redfin.com/CA/Los-Altos/240-Alvarado-Ave-94022/home/941475,MLSListings,ML81629848,N,Y,37.3925477,-122.1090101
PAST SALE,September-23-2016,Single Family Residential,1873 Alford Ave,LOS ALTOS,CA,94024,2388000,3,2.0,LOS ALTOS,1833,10081,1953,494,1303,,Sold,,,http://www.redfin.com/CA/Los-Altos/1873-Alford-Ave-94024/home/766825,MLSListings,ML81598430,N,Y,37.3456361,-122.0679109
PAST SALE,,Single Family Residential,847 Dixon Way,Los Altos,CA,94022,1850000,3,2.0,,2290,19800,1952,,808,,,,,http://www.redfin.com/CA/Los-Altos/847-Dixon-Way-94022/home/1802193,,,N,Y,37.3979147,-122.1254986
PAST SALE,,Condo/Co-op,100 1st St Unit 206,Los Altos,CA,94022,3150000,2,2.0,,1966,,2015,,1602,,,,,http://www.redfin.com/CA/Los-Altos/100-1st-St-94022/unit-206/home/95957196,,,N,Y,37.3805495,-122.1202179
PAST SALE,September-8-2016,Condo/Co-op,86 Third St #301,LOS ALTOS,CA,94022,1540000,3,2.0,LOS ALTOS,1289,,2016,509,1195,375,Sold,,,http://www.redfin.com/CA/Los-Altos/86-3rd-St-94022/unit-301/home/108979224,MLSListings,ML81613459,N,Y,37.3805154,-122.1173717
PAST SALE,July-19-2016,Single Family Residential,170 SYLVIAN Way,LOS ALTOS,CA,94022,2710000,4,2.0,LOS ALTOS,2164,14100,1958,560,1252,,Sold,,,http://www.redfin.com/CA/Los-Altos/170-Sylvian-Way-94022/home/1057352,MLSListings,ML81591625,N,Y,37.3863882,-122.1183441
PAST SALE,July-31-2017,Condo/Co-op,1 W Edith Ave Unit B110,LOS ALTOS,CA,94022,1600000,1,2.0,LOS ALTOS,1317,1317,1996,183,1215,667,Sold,,,http://www.redfin.com/CA/Los-Altos/1-W-Edith-Ave-94022/unit-B110/home/1354827,MLSListings,ML81669664,N,Y,37.382437,-122.1145576
PAST SALE,July-14-2017,Single Family Residential,1217 Springer Rd,MOUNTAIN VIEW,CA,94040,1855260,2,2.0,MOUNTAIN VIEW,1531,7470,1954,200,1212,,Sold,,,http://www.redfin.com/CA/Mountain-View/1217-Springer-Rd-94040/home/1659725,MLSListings,ML81651560,N,Y,37.3859466,-122.0957021
PAST SALE,March-2-2016,Townhouse,1213 Blackberry Ter,SUNNYVALE,CA,94087,1080000,2,2.0,SUNNYVALE,1374,2787,1973,699,786,345,Sold,,,http://www.redfin.com/CA/Sunnyvale/1213-Blackberry-Ter-94087/home/1632969,MLSListings,ML81548572,N,Y,37.355278,-122.060473
PAST SALE,December-9-2016,Single Family Residential,3470 Bruckner Cir,MOUNTAIN VIEW,CA,94040,2320000,4,2.0,MOUNTAIN VIEW,1955,8054,1963,417,1187,,Sold,,,http://www.redfin.com/CA/Mountain-View/3470-Bruckner-Cir-94040/home/1210194,MLSListings,ML81630719,Y,Y,37.3596721,-122.0703203
PAST SALE,May-10-2016,Single Family Residential,832 Carmel Ave,LOS ALTOS,CA,94022,2398000,3,2.0,LOS ALTOS,1916,6250,1947,630,1252,,Sold,,,http://www.redfin.com/CA/Los-Altos/832-Carmel-Ave-94022/home/632278,MLSListings,ML81577695,N,Y,37.3974904,-122.1204508
PAST SALE,August-14-2017,Single Family Residential,1654 Columbia Dr,MOUNTAIN VIEW,CA,94040,2320000,3,2.0,MOUNTAIN VIEW,1845,7030,1954,169,1257,,Sold,,,http://www.redfin.com/CA/Mountain-View/1654-Columbia-Dr-94040/home/1160862,MLSListings,ML81669585,N,Y,37.3753238,-122.0953716
PAST SALE,August-14-2017,Condo/Co-op,1 W Edith Ave Unit D124,LOS ALTOS,CA,94022,1675000,3,2.0,LOS ALTOS,1861,1861,1997,169,900,783,Sold,,,http://www.redfin.com/CA/Los-Altos/1-W-Edith-Ave-94022/unit-D124/home/1708081,MLSListings,ML81670145,N,Y,37.382437,-122.1145576
PAST SALE,September-8-2016,Condo/Co-op,86 Third St #306,LOS ALTOS,CA,94022,1335000,2,2.0,LOS ALTOS,1090,,2016,509,1225,360,Sold,,,http://www.redfin.com/CA/Los-Altos/86-3rd-St-94022/unit-306/home/108979329,MLSListings,ML81613464,N,Y,37.3805154,-122.1173717
PAST SALE,,Condo/Co-op,38 3rd St Apt 202,Los Altos,CA,94022,1700000,2,2.0,,1692,,1995,,1005,,,,,http://www.redfin.com/CA/Los-Altos/38-3rd-St-94022/unit-202/home/1240035,,,N,Y,37.380809,-122.1175369
PAST SALE,,Condo/Co-op,550 Ortega Ave Apt B333,Mountain View,CA,94040,1100000,2,2.0,,1080,,1992,,1019,,,,,http://www.redfin.com/CA/Mountain-View/550-Ortega-Ave-94040/unit-B333/home/12172056,,,N,Y,37.399132,-122.1062035
PAST SALE,,Single Family Residential,1121 Suffolk Ct,Los Altos,CA,94024,2700000,3,2.0,,1928,11808,1968,,1400,,,,,http://www.redfin.com/CA/Los-Altos/1121-Suffolk-Ct-94024/home/646910,,,N,Y,37.3615981,-122.084971
PAST SALE,September-14-2016,Single Family Residential,107 E Portola Ave,LOS ALTOS,CA,94022,2050000,3,2.0,LOS ALTOS,1386,8376,1948,503,1479,,Sold,,,http://www.redfin.com/CA/Los-Altos/107-E-Portola-Ave-94022/home/636527,MLSListings,ML81600424,N,Y,37.3967269,-122.1116776
PAST SALE,November-26-2016,Single Family Residential,680 Distel Dr,LOS ALTOS,CA,94022,2500000,3,2.0,LOS ALTOS,1425,11070,1951,430,1754,,Sold,,,http://www.redfin.com/CA/Los-Altos/680-Distel-Dr-94022/home/1589627,MLSListings,ML81631464,N,Y,37.3937482,-122.1053694
PAST SALE,February-29-2016,Condo/Co-op,1 W Edith Ave Unit B108,LOS ALTOS,CA,94022,1495000,2,2.0,LOS ALTOS,1568,1742,1996,701,953,697,Sold,,,http://www.redfin.com/CA/Los-Altos/1-W-Edith-Ave-94022/unit-B108/home/941401,MLSListings,ML81547994,N,Y,37.382437,-122.1145576
PAST SALE,January-5-2018,Single Family Residential,1264 Thurston Ave,LOS ALTOS,CA,94024,2405000,3,2.0,LOS ALTOS,1490,10113,1951,25,1614,,Sold,,,http://www.redfin.com/CA/Los-Altos/1264-Thurston-Ave-94024/home/1425724,MLSListings,ML81686548,N,Y,37.3481222,-122.0787653
PAST SALE,June-7-2016,Single Family Residential,1123 Judson Dr,MOUNTAIN VIEW,CA,94040,1855000,4,2.0,MOUNTAIN VIEW,1694,5967,1951,602,1095,,Sold,,,http://www.redfin.com/CA/Mountain-View/1123-Judson-Dr-94040/home/768759,MLSListings,ML81583899,N,Y,37.3902269,-122.0996716
PAST SALE,January-18-2018,Single Family Residential,897 Highlands Cir,LOS ALTOS,CA,94024,2300000,3,2.0,LOS ALTOS,1517,12825,1966,12,1516,,Sold,,,http://www.redfin.com/CA/Los-Altos/897-Highlands-Cir-94024/home/1293559,MLSListings,ML81689424,N,Y,37.340247,-122.087018
PAST SALE,October-4-2017,Single Family Residential,620 Teresi Ln,LOS ALTOS,CA,94024,2700000,3,2.0,LOS ALTOS,1488,10080,1952,118,1815,,Sold,,,http://www.redfin.com/CA/Los-Altos/620-Teresi-Ln-94024/home/1500233,MLSListings,ML81676898,Y,Y,37.3722127,-122.0984162
PAST SALE,September-8-2016,Condo/Co-op,86 Third St #207,LOS ALTOS,CA,94022,1520000,3,2.0,LOS ALTOS,1332,,2016,509,1141,378,Sold,,,http://www.redfin.com/CA/Los-Altos/86-3rd-St-94022/unit-207/home/108979222,MLSListings,ML81613457,N,Y,37.3805154,-122.1173717
PAST SALE,October-23-2017,Single Family Residential,543 S El Monte Ave,LOS ALTOS,CA,94022,2370000,2,2.0,LOS ALTOS,1818,12561,1938,99,1304,,Sold,,,http://www.redfin.com/CA/Los-Altos/543-S-El-Monte-Ave-94022/home/1427625,MLSListings,ML81677872,N,Y,37.373274,-122.107817
PAST SALE,September-8-2016,Condo/Co-op,86 Third St #206,LOS ALTOS,CA,94022,1250000,2,2.0,LOS ALTOS,1094,,2016,509,1143,360,Sold,,,http://www.redfin.com/CA/Los-Altos/86-3rd-St-94022/unit-206/home/108979170,MLSListings,ML81613456,N,Y,37.3805154,-122.1173717
PAST SALE,November-17-2017,Single Family Residential,905 Leonello Ave,LOS ALTOS,CA,94024,2788800,3,2.0,LOS ALTOS,1915,10764,1949,74,1456,,Sold,,,http://www.redfin.com/CA/Los-Altos/905-Leonello-Ave-94024/home/764261,MLSListings,ML81679341,N,Y,37.3667752,-122.0929148
PAST SALE,December-21-2016,Condo/Co-op,654 N San Antonio Rd,LOS ALTOS,CA,94022,1125000,2,2.0,LOS ALTOS,1077,1116,1960,405,1045,450,Sold,,,http://www.redfin.com/CA/Los-Altos/654-N-San-Antonio-Rd-94022/home/1622417,MLSListings,ML81627865,N,Y,37.392867,-122.114535
PAST SALE,June-8-2017,Single Family Residential,1575 Grant Rd,LOS ALTOS,CA,94024,2875000,2,2.0,LOS ALTOS,1825,25625,1948,236,1575,,Sold,,,http://www.redfin.com/CA/Los-Altos/1575-Grant-Rd-94024/home/647901,MLSListings,ML81642978,N,Y,37.3535307,-122.0773613
PAST SALE,June-24-2016,Condo/Co-op,6 Farm Rd,LOS ALTOS,CA,94024,1375000,3,2.0,LOS ALTOS,1518,1515,1973,585,906,593,Sold,,,http://www.redfin.com/CA/Los-Altos/6-Farm-Rd-94024/home/733108,MLSListings,ML81565097,N,Y,37.34135,-122.07549
PAST SALE,May-11-2016,Single Family Residential,1457 Ranchita Dr,LOS ALTOS,CA,94024,2676125,3,2.0,LOS ALTOS,1741,10009,1959,629,1537,,Sold,,,http://www.redfin.com/CA/Los-Altos/1457-Ranchita-Dr-94024/home/1561691,MLSListings,ML81581379,N,Y,37.3555092,-122.0726293
PAST SALE,,Condo/Co-op,73 3rd St Apt 21,Los Altos,CA,94022,1221000,2,2.0,,1344,,1974,,908,,,,,http://www.redfin.com/CA/Los-Altos/73-3rd-St-94022/unit-21/home/1160647,,,N,Y,37.3808488,-122.1168881
PAST SALE,,Townhouse,41 Los Altos Sq,Los Altos,CA,94022,1350000,2,2.0,,1444,1822,1964,,935,,,,,http://www.redfin.com/CA/Los-Altos/41-Los-Altos-Sq-94022/home/1708191,,,N,Y,37.3975923,-122.1122968
PAST SALE,,Single Family Residential,1085 Golden Way,Los Altos,CA,94024,1800000,4,2.0,,1874,10920,1952,,961,,,,,http://www.redfin.com/CA/Los-Altos/1085-Golden-Way-94024/home/1751377,,,N,Y,37.3635796,-122.0906085
PAST SALE,,Single Family Residential,324 Alicia Way,Los Altos,CA,94022,2550000,3,2.0,,1491,10224,1953,,1710,,,,,http://www.redfin.com/CA/Los-Altos/324-Alicia-Way-94022/home/1500033,,,N,Y,37.3872536,-122.1070372
PAST SALE,October-18-2016,Condo/Co-op,22330 Homestead Rd #125,CUPERTINO,CA,95014,940000,2,2.0,CUPERTINO,1249,,1984,469,753,445,Sold,,,http://www.redfin.com/CA/Cupertino/22330-Homestead-Rd-95014/unit-125/home/1476407,MLSListings,ML81601398,N,Y,37.3369149,-122.06563
PAST SALE,January-24-2017,Single Family Residential,701 Meadow Ln,LOS ALTOS,CA,94022,3055000,4,2.0,LOS ALTOS,1990,11088,1959,371,1535,,Sold,,,http://www.redfin.com/CA/Los-Altos/701-Meadow-Ln-94022/home/632668,MLSListings,ML81635335,N,Y,37.3942071,-122.1253808
PAST SALE,February-19-2016,Single Family Residential,174 Lyell St,LOS ALTOS,CA,94022,2550000,3,2.0,LOS ALTOS,1342,8999,1949,711,1900,,Sold,,,http://www.redfin.com/CA/Los-Altos/174-Lyell-St-94022/home/1561445,MLSListings,ML81547330,N,Y,37.375267,-122.1102362
PAST SALE,May-3-2017,Single Family Residential,1751 Larkellen Ln,LOS ALTOS,CA,94024,2400000,3,2.0,LOS ALTOS,1708,10266,1956,272,1405,,Sold,,,http://www.redfin.com/CA/Los-Altos/1751-Larkellen-Ln-94024/home/1294020,MLSListings,ML81644519,N,Y,37.3553948,-122.064589
PAST SALE,May-2-2017,Single Family Residential,1137 Robin Way,SUNNYVALE,CA,94087,1930000,4,2.0,SUNNYVALE,1926,9196,1963,273,1002,,Sold,,,http://www.redfin.com/CA/Sunnyvale/1137-Robin-Way-94087/home/655767,MLSListings,ML81645438,N,Y,37.3575902,-122.0606087
PAST SALE,May-8-2017,Single Family Residential,1683 Ben Roe Dr,LOS ALTOS,CA,94024,2580000,4,2.0,LOS ALTOS,1744,9944,1958,267,1479,,Sold,,,http://www.redfin.com/CA/Los-Altos/1683-Ben-Roe-Dr-94024/home/1859976,MLSListings,ML81644486,N,Y,37.3487553,-122.0664265
PAST SALE,August-24-2017,Condo/Co-op,100 1st St #318,LOS ALTOS,CA,94022,2400000,2,2.0,LOS ALTOS,1476,889,2015,159,1626,628,Sold,,,http://www.redfin.com/CA/Los-Altos/100-1st-St-94022/unit-318/home/95956285,MLSListings,ML81669760,N,Y,37.3805495,-122.1202179
PAST SALE,March-3-2017,Single Family Residential,1300 Oak Ave,LOS ALTOS,CA,94024,2552000,5,2.0,LOS ALTOS,2256,10200,1952,333,1131,,Sold,,,http://www.redfin.com/CA/Los-Altos/1300-Oak-Ave-94024/home/659945,MLSListings,ML81636685,N,Y,37.3565654,-122.0775164
PAST SALE,,Single Family Residential,195 W Portola Ave,Los Altos,CA,94022,1600000,2,2.0,,1113,6678,1935,,1438,,,,,http://www.redfin.com/CA/Los-Altos/195-W-Portola-Ave-94022/home/1239950,,,N,Y,37.3970485,-122.1183474
PAST SALE,May-9-2016,Single Family Residential,638 Lincoln Ave,LOS ALTOS,CA,94022,2400000,3,2.0,LOS ALTOS,2075,8720,1945,631,1157,,Sold,,,http://www.redfin.com/CA/Los-Altos/638-Lincoln-Ave-94022/home/1057469,MLSListings,ML81576788,N,Y,37.3715912,-122.1128126
PAST SALE,April-29-2016,Condo/Co-op,553 Lassen St,LOS ALTOS,CA,94022,1305000,2,2.0,LOS ALTOS,1194,435,1988,641,1093,535,Sold,,,http://www.redfin.com/CA/Los-Altos/553-Lassen-St-94022/home/1822769,MLSListings,ML81577635,N,Y,37.373137,-122.111452
PAST SALE,April-26-2017,Single Family Residential,364 Alicia Way,LOS ALTOS,CA,94022,2700000,3,2.0,LOS ALTOS,1934,10224,1953,279,1396,,Sold,,,http://www.redfin.com/CA/Los-Altos/364-Alicia-Way-94022/home/1009157,MLSListings,ML81642530,N,Y,37.3880265,-122.1069864
PAST SALE,July-11-2017,Single Family Residential,3490 Bruckner Cir,MOUNTAIN VIEW,CA,94040,2530000,6,2.0,MOUNTAIN VIEW,2439,11235,1963,203,1037,,Sold,,,http://www.redfin.com/CA/Mountain-View/3490-Bruckner-Cir-94040/home/1855264,MLSListings,ML81653955,N,Y,37.3592013,-122.0702678
PAST SALE,March-31-2017,Single Family Residential,1871 Newcastle Dr,LOS ALTOS,CA,94024,2407000,4,2.0,LOS ALTOS,1701,10235,1959,305,1415,,Sold,,,http://www.redfin.com/CA/Los-Altos/1871-Newcastle-Dr-94024/home/1578740,MLSListings,ML81639692,N,Y,37.3457565,-122.0710096
PAST SALE,October-3-2016,Mobile/Manufactured Home,1075 Space Park Way #8,MOUNTAIN VIEW,CA,94043,225000,3,2.0,MOUNTAIN VIEW,1410,,1998,484,160,,Sold,,,http://www.redfin.com/CA/Mountain-View/1075-Mountain-View-Ave-94040/unit-8/home/1090286,MLSListings,ML81594985,N,Y,37.3846059,-122.0902512
PAST SALE,September-8-2016,Condo/Co-op,86 Third St #303,LOS ALTOS,CA,94022,1570000,3,2.0,LOS ALTOS,1408,,2016,509,1115,385,Sold,,,http://www.redfin.com/CA/Los-Altos/86-3rd-St-94022/unit-303/home/108979325,MLSListings,ML81613461,N,Y,37.3805154,-122.1173717
PAST SALE,July-12-2017,Single Family Residential,1081 Laureles Dr,LOS ALTOS,CA,94022,3030000,3,2.0,LOS ALTOS,1932,12480,1955,202,1568,,Sold,,,http://www.redfin.com/CA/Los-Altos/1081-Laureles-Dr-94022/home/1073392,MLSListings,ML81654316,N,Y,37.4019538,-122.1230032
PAST SALE,August-9-2017,Single Family Residential,1131 Bruckner Cir,MOUNTAIN VIEW,CA,94040,2710000,4,2.0,MOUNTAIN VIEW,2007,8056,1963,174,1350,,Sold,,,http://www.redfin.com/CA/Mountain-View/1131-Bruckner-Cir-94040/home/1827726,MLSListings,ML81669743,Y,Y,37.3591972,-122.0694923
PAST SALE,May-30-2017,Condo/Co-op,2080 Marich Way #23,MOUNTAIN VIEW,CA,94040,1631150,3,2.0,MOUNTAIN VIEW,1795,2072,1982,245,909,500,Sold,,,http://www.redfin.com/CA/Mountain-View/2080-Marich-Way-94040/unit-23/home/1102803,MLSListings,ML81652146,N,Y,37.3931934,-122.1022935
PAST SALE,October-14-2016,Single Family Residential,1077 Echo Dr,LOS ALTOS,CA,94024,2250000,3,2.0,LOS ALTOS,1702,14314,1972,473,1322,,Sold,,,http://www.redfin.com/CA/Los-Altos/1077-Echo-Dr-94024/home/1601997,MLSListings,ML81613277,N,Y,37.3633397,-122.1006858
PAST SALE,May-13-2016,Single Family Residential,698 Benvenue Ave,LOS ALTOS,CA,94024,2730000,4,2.0,LOS ALTOS,1910,10852,1957,627,1429,,Sold,,,http://www.redfin.com/CA/Los-Altos/698-Benvenue-Ave-94024/home/1785736,MLSListings,ML81565580,N,Y,37.3748115,-122.0987455
PAST SALE,September-8-2016,Condo/Co-op,86 Third St #304,LOS ALTOS,CA,94022,1810000,3,2.0,LOS ALTOS,1548,,2016,509,1169,395,Sold,,,http://www.redfin.com/CA/Los-Altos/86-3rd-St-94022/unit-304/home/108979327,MLSListings,ML81613462,N,Y,37.3805154,-122.1173717
PAST SALE,February-23-2016,Single Family Residential,1503 Fordham Ct,MOUNTAIN VIEW,CA,94040,1850000,3,2.0,MOUNTAIN VIEW,1335,8498,1954,707,1386,,Sold,,,http://www.redfin.com/CA/Mountain-View/1503-Fordham-Ct-94040/home/1589744,MLSListings,ML81546983,N,Y,37.3792352,-122.0916229
PAST SALE,,Single Family Residential,780 Woodstock Ln,Los Altos,CA,94022,2750000,4,2.0,,2456,11811,1962,,1120,,,,,http://www.redfin.com/CA/Los-Altos/780-Woodstock-Ln-94022/home/1427601,,,N,Y,37.3675626,-122.1147656
PAST SALE,November-30-2016,Single Family Residential,1740 Granger Ave,LOS ALTOS,CA,94024,2050000,3,2.0,LOS ALTOS,1597,10101,1953,426,1284,,Sold,,,http://www.redfin.com/CA/Los-Altos/1740-Granger-Ave-94024/home/777265,MLSListings,ML81601426,N,Y,37.3486391,-122.083412
PAST SALE,,Townhouse,10932 Sweet Oak St,Cupertino,CA,95014,1128000,3,2.0,,1044,1900,1973,,1080,,,,,http://www.redfin.com/CA/Cupertino/10932-Sweet-Oak-St-95014/home/1622410,,,N,Y,37.336645,-122.063313
PAST SALE,June-17-2016,Single Family Residential,225 W Portola Ave,LOS ALTOS,CA,94022,2300000,3,2.0,LOS ALTOS,1620,6426,1964,592,1420,,Sold,,,http://www.redfin.com/CA/Los-Altos/225-W-Portola-Ave-94022/home/632910,MLSListings,ML81584967,N,Y,37.3970625,-122.1190726
PAST SALE,November-28-2017,Single Family Residential,1510 Tiptoe Ln,LOS ALTOS,CA,94024,2600000,3,2.0,LOS ALTOS,1832,9282,1955,63,1419,,Sold,,,http://www.redfin.com/CA/Los-Altos/1510-Tiptoe-Ln-94024/home/1655207,MLSListings,ML81681910,N,Y,37.3540623,-122.0648923
PAST SALE,June-21-2016,Single Family Residential,495 Cuesta Dr,LOS ALTOS,CA,94024,2600000,3,2.0,LOS ALTOS,2420,11682,1950,588,1074,,Sold,,,http://www.redfin.com/CA/Los-Altos/495-Cuesta-Dr-94024/home/643753,MLSListings,ML81583687,N,Y,37.3739519,-122.102254
PAST SALE,October-12-2017,Condo/Co-op,550 Ortega Ave Unit A216,MOUNTAIN VIEW,CA,94040,1165000,2,2.0,MOUNTAIN VIEW,1143,1000,1992,110,1019,385,Sold,,,http://www.redfin.com/CA/Mountain-View/550-Ortega-Ave-94040/unit-A216/home/12172024,MLSListings,ML81676885,N,Y,37.399132,-122.1062035
PAST SALE,July-21-2016,Single Family Residential,640 Kingswood Way,LOS ALTOS,CA,94022,2860000,3,2.0,LOS ALTOS,2097,10001,1957,558,1364,,Sold,,,http://www.redfin.com/CA/Los-Altos/640-Kingswood-Way-94022/home/1223308,MLSListings,ML81590769,N,Y,37.3929891,-122.1182792
PAST SALE,,Single Family Residential,1310 Harwalt Dr,Los Altos,CA,94024,2850000,3,2.0,,2039,10488,1962,,1398,,,,,http://www.redfin.com/CA/Los-Altos/1310-Harwalt-Dr-94024/home/1462503,,,N,Y,37.3589248,-122.0655339
PAST SALE,April-28-2017,Single Family Residential,1255 Covington Rd,LOS ALTOS,CA,94024,2298000,3,2.0,LOS ALTOS,2124,11024,1977,277,1082,,Sold,,,http://www.redfin.com/CA/Los-Altos/1255-Covington-Rd-94024/home/647014,MLSListings,ML81643254,N,Y,37.3653751,-122.0791779
PAST SALE,August-30-2016,Single Family Residential,1216 Golden Way,LOS ALTOS,CA,94024,2295000,4,2.0,LOS ALTOS,2106,9448,1952,518,1090,,Sold,,,http://www.redfin.com/CA/Los-Altos/1216-Golden-Way-94024/home/1321512,MLSListings,ML81596981,N,Y,37.3611837,-122.0914173
PAST SALE,March-22-2017,Single Family Residential,595 Orange Ave,LOS ALTOS,CA,94022,2600000,3,2.0,LOS ALTOS,1793,6600,1922,314,1450,,Sold,,,http://www.redfin.com/CA/Los-Altos/595-Orange-Ave-94022/home/1137749,MLSListings,ML81641701,N,Y,37.3724874,-122.1160918
PAST SALE,September-14-2016,Single Family Residential,661 Teresi Ln,LOS ALTOS,CA,94024,2350000,3,2.0,LOS ALTOS,1589,10080,1953,503,1479,,Sold,,,http://www.redfin.com/CA/Los-Altos/661-Teresi-Ln-94024/home/659785,MLSListings,ML81599020,N,Y,37.3714738,-122.0978277
PAST SALE,July-14-2017,Single Family Residential,13210 E Sunset Dr,LOS ALTOS HILLS,CA,94022,3895000,0,,LOS ALTOS HILLS,1485,107593,1949,200,2623,,Sold,,,http://www.redfin.com/CA/Los-Altos-Hills/13210-E-Sunset-Dr-94022/home/639109,MLSListings,ML81667997,N,Y,37.370203,-122.1228057
PAST SALE,,Single Family Residential,660 Distel Dr,Los Altos,CA,94022,2925000,4,2.0,,1910,10200,1960,,1531,,,,,http://www.redfin.com/CA/Los-Altos/660-Distel-Dr-94022/home/897045,,,N,Y,37.3933494,-122.1056642
PAST SALE,,Condo/Co-op,4250 El Camino Real #139,Palo Alto,CA,94306,930000,2,2.0,,1141,,1983,,815,,,,,http://www.redfin.com/CA/Palo-Alto/4250-El-Camino-Real-94306/unit-139/home/635074,,,N,Y,37.4067161,-122.1218394
PAST SALE,February-24-2016,Single Family Residential,338 N Clark Ave,LOS ALTOS,CA,94022,2825000,3,2.0,LOS ALTOS,1573,13651,1950,706,1796,,Sold,,,http://www.redfin.com/CA/Los-Altos/338-N-Clark-Ave-94022/home/821437,MLSListings,ML81549079,N,Y,37.3875572,-122.1013651
PAST SALE,November-29-2016,Single Family Residential,1086 S Springer Rd,LOS ALTOS,CA,94024,2150000,3,2.0,LOS ALTOS,1955,10375,1950,427,1100,,Sold,,,http://www.redfin.com/CA/Los-Altos/1086-Springer-Rd-94024/home/644306,MLSListings,ML81627462,Y,Y,37.3634965,-122.0963472
PAST SALE,October-27-2016,Condo/Co-op,2211 Latham St #322,MOUNTAIN VIEW,CA,94040,826000,2,2.0,MOUNTAIN VIEW,1206,1250,1978,460,685,420,Sold,,,http://www.redfin.com/CA/Mountain-View/2211-Latham-St-94040/unit-322/home/2121193,MLSListings,ML81614766,N,Y,37.3973009,-122.1030065
PAST SALE,March-22-2017,Single Family Residential,977 Terrace Dr,LOS ALTOS,CA,94024,2160000,4,2.0,LOS ALTOS,2166,9148,1941,314,997,,Sold,,,http://www.redfin.com/CA/Los-Altos/977-Terrace-Dr-94024/home/1516211,MLSListings,ML81636788,N,Y,37.3509481,-122.0884083
PAST SALE,August-2-2016,Single Family Residential,601 Cuesta Dr,LOS ALTOS,CA,94024,2350000,3,2.0,LOS ALTOS,2300,12632,1948,546,1022,,Sold,,,http://www.redfin.com/CA/Los-Altos/601-Cuesta-Dr-94024/home/1802411,MLSListings,ML81590905,N,Y,37.3739483,-122.099924
PAST SALE,December-20-2016,Single Family Residential,1140 Diamond Ct,LOS ALTOS,CA,94024,2160000,3,2.0,LOS ALTOS,1529,11745,1952,406,1413,,Sold,,,http://www.redfin.com/CA/Los-Altos/1140-Diamond-Ct-94024/home/642574,MLSListings,ML81629775,N,Y,37.3625617,-122.0888756
PAST SALE,February-17-2017,Single Family Residential,1390 Holly Ave,LOS ALTOS,CA,94024,2700000,4,2.0,LOS ALTOS,1504,10395,1952,347,1795,,Sold,,,http://www.redfin.com/CA/Los-Altos/1390-Holly-Ave-94024/home/645662,MLSListings,ML81637522,N,Y,37.357203,-122.0851221
PAST SALE,August-10-2016,Single Family Residential,1130 Border Rd,LOS ALTOS,CA,94024,1750000,3,2.0,LOS ALTOS,2054,11250,1948,538,852,,Sold,,,http://www.redfin.com/CA/Los-Altos/1130-Border-Rd-94024/home/1140968,MLSListings,ML81581520,N,Y,37.3618686,-122.1001903
PAST SALE,August-25-2017,Condo/Co-op,38 3rd St #102,LOS ALTOS,CA,94022,1995000,2,2.0,LOS ALTOS,1692,1692,1995,158,1179,565,Sold,,,http://www.redfin.com/CA/Los-Altos/38-3rd-St-94022/unit-102/home/742707,MLSListings,ML81673409,N,Y,37.380809,-122.1175369
PAST SALE,January-5-2017,Single Family Residential,835 Riverside Dr,LOS ALTOS,CA,94024,2400000,3,2.0,LOS ALTOS,2157,9880,1955,390,1113,,Sold,,,http://www.redfin.com/CA/Los-Altos/835-Riverside-Dr-94024/home/1423060,MLSListings,ML81630602,N,Y,37.3679568,-122.0968698
PAST SALE,May-31-2017,Single Family Residential,520 Hawthorne Ct,LOS ALTOS,CA,94024,2950000,4,2.0,LOS ALTOS,1872,11136,1956,244,1576,,Sold,,,http://www.redfin.com/CA/Los-Altos/520-Hawthorne-Ct-94024/home/644012,MLSListings,ML81649308,N,Y,37.3782169,-122.1017973
PAST SALE,March-25-2016,Condo/Co-op,7 Bay Tree Ln,LOS ALTOS,CA,94022,2650000,2,2.0,LOS ALTOS,2137,2704,1972,676,1240,777,Sold,,,http://www.redfin.com/CA/Los-Altos/7-Bay-Tree-Ln-94022/home/638830,MLSListings,ML81563209,N,Y,37.365678,-122.116587
PAST SALE,June-9-2017,Single Family Residential,415 Distel Dr,LOS ALTOS,CA,94022,2500000,3,2.0,LOS ALTOS,1669,10605,1952,235,1498,,Sold,,,http://www.redfin.com/CA/Los-Altos/415-Distel-Dr-94022/home/632718,MLSListings,ML81649851,N,Y,37.3888262,-122.1082561
PAST SALE,January-14-2018,Single Family Residential,1486 Country Club Dr,LOS ALTOS,CA,94024,3825000,3,2.0,LOS ALTOS,2182,24677,1956,16,1753,,Sold,,,http://www.redfin.com/CA/Los-Altos/1486-Country-Club-Dr-94024/home/1804988,MLSListings,ML81687077,N,Y,37.3524861,-122.0952166
PAST SALE,October-25-2016,Single Family Residential,549 Arboleda Dr,LOS ALTOS,CA,94024,2475000,5,2.0,LOS ALTOS,1993,10232,1951,462,1242,,Sold,,,http://www.redfin.com/CA/Los-Altos/549-Arboleda-Dr-94024/home/643060,MLSListings,ML81613852,Y,Y,37.3731325,-122.1011197
PAST SALE,March-9-2017,Single Family Residential,65 Solana Dr,LOS ALTOS,CA,94022,2815000,3,2.0,LOS ALTOS,1805,10406,1952,327,1560,,Sold,,,http://www.redfin.com/CA/Los-Altos/65-Solana-Dr-94022/home/1277704,MLSListings,ML81638218,N,Y,37.382693,-122.1036426
PAST SALE,July-3-2017,Single Family Residential,799 Raymundo Ave,LOS ALTOS,CA,94024,3280000,3,2.0,LOS ALTOS,1699,17500,1948,211,1931,,Sold,,,http://www.redfin.com/CA/Los-Altos/799-Raymundo-Ave-94024/home/1346241,MLSListings,ML81653774,N,Y,37.3832379,-122.0920034
PAST SALE,April-1-2016,Condo/Co-op,4388 El Camino Real #228,LOS ALTOS,CA,94022,1326000,2,2.0,LOS ALTOS,1200,1228,2009,669,1105,425,Sold,,,http://www.redfin.com/CA/Los-Altos/4388-El-Camino-Real-94022/unit-228/home/23047561,MLSListings,ML81562278,N,Y,37.403772,-122.1176126
PAST SALE,March-28-2017,Single Family Residential,629 Benvenue Ave,LOS ALTOS,CA,94024,2805000,3,2.0,LOS ALTOS,1618,10878,1951,308,1734,,Sold,,,http://www.redfin.com/CA/Los-Altos/629-Benvenue-Ave-94024/home/1670378,MLSListings,ML81640690,N,Y,37.3757155,-122.0987963
PAST SALE,July-18-2017,Single Family Residential,1629 Notre Dame Dr,MOUNTAIN VIEW,CA,94040,2500000,3,2.0,MOUNTAIN VIEW,1616,5700,1954,196,1547,,Sold,,,http://www.redfin.com/CA/Mountain-View/1629-Notre-Dame-Dr-94040/home/1722893,MLSListings,ML81654965,N,Y,37.3759469,-122.0940225
PAST SALE,February-17-2017,Single Family Residential,78 Alma Ct,LOS ALTOS,CA,94022,2860000,2,2.0,LOS ALTOS,1537,12445,1992,347,1861,,Sold,,,http://www.redfin.com/CA/Los-Altos/78-Alma-Ct-94022/home/1212579,MLSListings,ML81635622,N,Y,37.389666,-122.1155071
PAST SALE,September-13-2017,Condo/Co-op,477 Lassen St #7,LOS ALTOS,CA,94022,1450000,2,2.0,LOS ALTOS,1179,2209,1975,139,1230,410,Sold,,,http://www.redfin.com/CA/Los-Altos/477-Lassen-St-94022/unit-7/home/1483862,MLSListings,ML81674427,N,Y,37.3743466,-122.111549
PAST SALE,March-29-2017,Townhouse,43 Woods Ln,LOS ALTOS,CA,94024,1158000,2,2.0,LOS ALTOS,1264,1264,1973,307,916,597,Sold,,,http://www.redfin.com/CA/Los-Altos/43-Woods-Ln-94024/home/784528,MLSListings,ML81637451,N,Y,37.339875,-122.075911
PAST SALE,October-11-2017,Single Family Residential,100 jordan Ave,LOS ALTOS,CA,94022,2818000,4,2.0,LOS ALTOS,2072,14850,1926,111,1360,,Sold,,,http://www.redfin.com/CA/Los-Altos/100-Jordan-Ave-94022/home/1009305,MLSListings,ML81677467,N,Y,37.3949491,-122.1121692
PAST SALE,May-10-2016,Condo/Co-op,541 Tyndall St,LOS ALTOS,CA,94022,921000,2,2.0,LOS ALTOS,956,1846,1964,630,963,286,Sold,,,http://www.redfin.com/CA/Los-Altos/541-Tyndall-St-94022/home/1822682,MLSListings,ML81579823,N,Y,37.373408,-122.112708
PAST SALE,October-27-2017,Single Family Residential,638 Benvenue Ave,LOS ALTOS,CA,94024,3000000,4,2.0,LOS ALTOS,1584,10064,1951,95,1894,,Sold,,,http://www.redfin.com/CA/Los-Altos/638-Benvenue-Ave-94024/home/689325,MLSListings,ML81681153,Y,Y,37.3752846,-122.0985327
PAST SALE,March-27-2017,Single Family Residential,22371 Hartman Dr,LOS ALTOS,CA,94024,2133875,4,2.0,LOS ALTOS,1740,11550,1957,309,1226,,Sold,,,http://www.redfin.com/CA/Los-Altos/22371-Hartman-Dr-94024/home/1226581,MLSListings,ML81638970,N,Y,37.3308485,-122.0662613
PAST SALE,August-12-2016,Single Family Residential,1668 Austin Ave,LOS ALTOS,CA,94024,2175000,3,2.0,LOS ALTOS,1382,9375,1953,536,1574,,Sold,,,http://www.redfin.com/CA/Los-Altos/1668-Austin-Ave-94024/home/1673934,MLSListings,ML81593883,Y,Y,37.3506173,-122.0742315
PAST SALE,September-30-2016,Single Family Residential,1617 Corte Via,LOS ALTOS,CA,94024,1875000,2,2.0,LOS ALTOS,1232,11251,1948,487,1522,,Sold,,,http://www.redfin.com/CA/Los-Altos/1617-Corte-Via-94024/home/1565709,MLSListings,ML81612801,N,Y,37.3499764,-122.0893306
PAST SALE,,Single Family Residential,256 Mount Hamilton Ave,Los Altos,CA,94022,2974000,3,2.0,,1679,11560,1953,,1771,,,,,http://www.redfin.com/CA/Los-Altos/256-Mount-Hamilton-Ave-94022/home/1827434,,,N,Y,37.38306,-122.1198327
PAST SALE,,Single Family Residential,980 Covington Rd,Los Altos,CA,94024,3600000,6,2.0,,2376,21250,1904,,1515,,,,,http://www.redfin.com/CA/Los-Altos/980-Covington-Rd-94024/home/642593,,,N,Y,37.3647926,-122.0875184
PAST SALE,May-12-2017,Single Family Residential,126 MOUNT HAMILTON Ave,LOS ALTOS,CA,94022,3300000,3,2.0,LOS ALTOS,1666,11970,1955,263,1981,,Sold,,,http://www.redfin.com/CA/Los-Altos/126-Mount-Hamilton-Ave-94022/home/1705445,MLSListings,ML81648422,N,Y,37.3830669,-122.1169697
PAST SALE,,Condo/Co-op,440 Cesano Ct Apt 307,Palo Alto,CA,94306,1275000,2,2.0,,1211,,1981,,1053,,,,,http://www.redfin.com/CA/Palo-Alto/440-Cesano-Ct-94306/unit-307/home/2121212,,,N,Y,37.4055023,-122.1172665
PAST SALE,,Single Family Residential,738 Edge Ln,Los Altos,CA,94024,2500000,3,2.0,,1511,10010,1954,,1655,,,,,http://www.redfin.com/CA/Los-Altos/738-Edge-Ln-94024/home/1827696,,,N,Y,37.362553,-122.094518
PAST SALE,February-23-2016,Townhouse,38 Woods Ln,LOS ALTOS,CA,94024,1300000,2,2.0,LOS ALTOS,1264,1263,1973,707,1028,574,Sold,,,http://www.redfin.com/CA/Los-Altos/38-Woods-Ln-94024/home/649649,MLSListings,ML81549320,N,Y,37.340179,-122.075605
PAST SALE,June-17-2016,Single Family Residential,789 Vista Grande Ave,LOS ALTOS,CA,94024,3290000,4,2.0,LOS ALTOS,2138,17498,1942,592,1539,,Sold,,,http://www.redfin.com/CA/Los-Altos/789-Vista-Grande-Ave-94024/home/1164843,MLSListings,ML81584462,N,Y,37.384363,-122.0922908
PAST SALE,December-16-2016,Condo/Co-op,32 Farm Rd,LOS ALTOS,CA,94024,1188000,2,2.0,LOS ALTOS,1264,1264,1973,410,940,574,Sold,,,http://www.redfin.com/CA/Los-Altos/32-Farm-Rd-94024/home/1777464,MLSListings,ML81630547,N,Y,37.340281,-122.075161
PAST SALE,February-24-2016,Single Family Residential,1249 HERITAGE Ct,LOS ALTOS,CA,94024,2520000,3,2.0,LOS ALTOS,1909,9583,1953,706,1320,,Sold,,,http://www.redfin.com/CA/Los-Altos/1249-Heritage-Ct-94024/home/1575896,MLSListings,ML81547444,N,Y,37.3567903,-122.0796163
PAST SALE,October-11-2017,Single Family Residential,1018 W Rose Cir,LOS ALTOS,CA,94024,2800000,3,2.0,LOS ALTOS,1698,9936,1959,111,1649,,Sold,,,http://www.redfin.com/CA/Los-Altos/1018-W-Rose-Cir-94024/home/1309956,MLSListings,ML81677490,N,Y,37.3646136,-122.079679
PAST SALE,April-24-2017,Single Family Residential,887 Linda Vista Way,LOS ALTOS,CA,94024,2770000,3,2.0,LOS ALTOS,1486,12360,1951,281,1864,,Sold,,,http://www.redfin.com/CA/Los-Altos/887-Linda-Vista-Way-94024/home/1392347,MLSListings,ML81642299,N,Y,37.3597912,-122.0902184
PAST SALE,,Condo/Co-op,22330 Homestead Rd Apt 309,Cupertino,CA,95014,523000,2,2.0,,1250,,1984,,418,,,,,http://www.redfin.com/CA/Cupertino/22330-Homestead-Rd-95014/unit-309/home/774601,,,N,Y,37.3369149,-122.06563
PAST SALE,February-1-2017,Condo/Co-op,8 Deep Well Ln,LOS ALTOS,CA,94022,2260000,2,2.0,LOS ALTOS,1840,2704,1972,363,1228,777,Sold,,,http://www.redfin.com/CA/Los-Altos/8-Deep-Well-Ln-94022/home/723140,MLSListings,ML81633005,N,Y,37.365769,-122.117095
PAST SALE,September-8-2016,Condo/Co-op,86 Third #202,LOS ALTOS,CA,94022,1210000,2,2.0,LOS ALTOS,1102,,2016,509,1098,362,Sold,,,http://www.redfin.com/CA/Los-Altos/86-3rd-St-94022/unit-202/home/108979128,MLSListings,ML81613452,N,Y,37.3805154,-122.1173717
PAST SALE,,Single Family Residential,99 Doud Dr,Los Altos,CA,94022,1100000,3,2.0,,1994,22590,1949,,552,,,,,http://www.redfin.com/CA/Los-Altos/99-Doud-Dr-94022/home/635792,,,N,Y,37.3833379,-122.1023263
PAST SALE,April-10-2017,Single Family Residential,25 STUART Ct,LOS ALTOS,CA,94022,2700000,3,2.0,LOS ALTOS,1904,9840,1962,295,1418,,Sold,,,http://www.redfin.com/CA/Los-Altos/25-Stuart-Ct-94022/home/684944,MLSListings,ML81640364,N,Y,37.3874237,-122.1138594
PAST SALE,September-28-2016,Single Family Residential,1102 Covington Rd,LOS ALTOS,CA,94024,2210000,3,2.0,LOS ALTOS,1880,11475,1956,489,1176,,Sold,,,http://www.redfin.com/CA/Los-Altos/1102-Covington-Rd-94024/home/645773,MLSListings,ML81599302,Y,Y,37.3644248,-122.0839863
PAST SALE,,Single Family Residential,1035 Tulane Dr,Mountain View,CA,94040,2720000,4,2.0,,2179,7910,1958,,1248,,,,,http://www.redfin.com/CA/Mountain-View/1035-Tulane-Dr-94040/home/1379014,,,N,Y,37.3762474,-122.0924759
PAST SALE,July-26-2016,Single Family Residential,877 Gardenia Way,LOS ALTOS,CA,94024,2725000,4,2.0,LOS ALTOS,2436,11155,1959,553,1119,,Sold,,,http://www.redfin.com/CA/Los-Altos/877-Gardenia-Way-94024/home/777323,MLSListings,ML81585164,N,Y,37.3674084,-122.1080098
PAST SALE,November-8-2016,Condo/Co-op,38 3rd St Unit 300-302,LOS ALTOS,CA,94022,2550000,2,2.0,LOS ALTOS,2637,2635,1995,448,967,1014,Sold,,,http://www.redfin.com/CA/Los-Altos/38-3rd-St-94022/unit-300-302/home/108544882,MLSListings,ML81599192,N,Y,37.380809,-122.1175369
PAST SALE,,Single Family Residential,1028 Tulane Dr,Mountain View,CA,94040,1950000,3,2.0,,1538,5310,1953,,1268,,,,,http://www.redfin.com/CA/Mountain-View/1028-Tulane-Dr-94040/home/1525435,,,N,Y,37.3766597,-122.0921148
PAST SALE,,Single Family Residential,231 Alicia Way,Los Altos,CA,94022,3300000,4,2.0,,1880,16065,1957,,1755,,,,,http://www.redfin.com/CA/Los-Altos/231-Alicia-Way-94022/home/1785658,,,N,Y,37.38556,-122.10628
PAST SALE,July-25-2017,Single Family Residential,1978 Churton Ave,LOS ALTOS,CA,94024,2310000,3,2.0,LOS ALTOS,1579,10000,1952,189,1463,,Sold,,,http://www.redfin.com/CA/Los-Altos/1978-Churton-Ave-94024/home/847299,MLSListings,ML81667127,N,Y,37.3423616,-122.0694535
PAST SALE,June-8-2016,Condo/Co-op,17 Bay Tree Ln,LOS ALTOS,CA,94022,2250000,2,2.0,LOS ALTOS,1840,2704,1972,601,1223,777,Sold,,,http://www.redfin.com/CA/Los-Altos/17-Bay-Tree-Ln-94022/home/1705567,MLSListings,ML81584733,N,Y,37.366756,-122.116543
PAST SALE,April-22-2016,Single Family Residential,1692 Whitham Ave,LOS ALTOS,CA,94024,2420000,3,2.0,LOS ALTOS,2247,9102,1975,648,1077,,Sold,,,http://www.redfin.com/CA/Los-Altos/1692-Whitham-Ave-94024/home/972361,MLSListings,ML81564645,N,Y,37.3484493,-122.0998794
PAST SALE,August-3-2017,Single Family Residential,1236 Miraflores Way,LOS ALTOS,CA,94024,3100000,3,2.0,LOS ALTOS,2069,11000,1953,180,1498,,Sold,,,http://www.redfin.com/CA/Los-Altos/1236-Miraflores-Way-94024/home/1667451,MLSListings,ML81668080,N,Y,37.3607601,-122.0889686
PAST SALE,May-26-2017,Condo/Co-op,550 Ortega Ave Unit B226,MOUNTAIN VIEW,CA,94040,958500,2,2.0,MOUNTAIN VIEW,1163,1000,1992,249,824,367,Sold,,,http://www.redfin.com/CA/Mountain-View/550-Ortega-Ave-94040/unit-B226/home/2121330,MLSListings,ML81643775,N,Y,37.399132,-122.1062035
PAST SALE,,Townhouse,35 Los Altos Sq,Los Altos,CA,94022,1485000,2,2.0,,1444,1822,1964,,1028,,,,,http://www.redfin.com/CA/Los-Altos/35-Los-Altos-Sq-94022/home/1397892,,,N,Y,37.397864,-122.11191
PAST SALE,January-5-2017,Single Family Residential,1921 Fordham Way,MOUNTAIN VIEW,CA,94040,2520000,4,2.0,MOUNTAIN VIEW,2010,8000,1963,390,1254,,Sold,,,http://www.redfin.com/CA/Mountain-View/1921-Fordham-Way-94040/home/644504,MLSListings,ML81632989,N,Y,37.3677127,-122.0929421
PAST SALE,December-9-2016,Condo/Co-op,226 W Edith Ave #27,LOS ALTOS,CA,94022,1090000,2,2.0,LOS ALTOS,1295,1000,1975,417,842,500,Sold,,,http://www.redfin.com/CA/Los-Altos/226-W-Edith-Ave-94022/unit-27/home/935040,MLSListings,ML81630553,N,Y,37.3809604,-122.1191276
PAST SALE,January-18-2018,Single Family Residential,1548 Ashcroft Way,SUNNYVALE,CA,94087,2070000,3,2.0,SUNNYVALE,1508,7893,1958,12,1373,,Sold,,,http://www.redfin.com/CA/Sunnyvale/1548-Ashcroft-Way-94087/home/768604,MLSListings,ML81687141,N,Y,37.342946,-122.0639325
PAST SALE,June-19-2017,Condo/Co-op,1 W Edith Unit b111,LOS ALTOS,CA,94022,1500000,2,2.0,LOS ALTOS,1618,,1996,225,927,710,Sold,,,http://www.redfin.com/CA/Los-Altos/1-W-Edith-Ave-94022/unit-B111/home/1280852,MLSListings,ML81647227,N,Y,37.382437,-122.1145576
PAST SALE,June-19-2017,Condo/Co-op,130 Lyell St,LOS ALTOS,CA,94022,1485000,3,2.0,LOS ALTOS,1405,2250,1967,225,1057,400,Sold,,,http://www.redfin.com/CA/Los-Altos/130-Lyell-St-94022/home/593841,MLSListings,ML81645670,N,Y,37.375309,-122.111116
PAST SALE,June-14-2017,Condo/Co-op,5100 El Camino Real #305,LOS ALTOS,CA,94022,1725000,3,2.0,LOS ALTOS,1302,1200,2007,230,1325,703,Sold,,,http://www.redfin.com/CA/Los-Altos/5100-El-Camino-Real-94022/unit-305/home/12174005,MLSListings,ML81650750,N,Y,37.3957275,-122.1033277
PAST SALE,October-12-2017,Single Family Residential,964 Saint Joseph Ave,LOS ALTOS,CA,94024,2800000,4,2.0,LOS ALTOS,1940,10533,1958,110,1443,,Sold,,,http://www.redfin.com/CA/Los-Altos/964-Saint-Joseph-Ave-94024/home/1297775,MLSListings,ML81678607,N,Y,37.3432588,-122.0883118
PAST SALE,February-15-2017,Single Family Residential,1515 Gilmore St,MOUNTAIN VIEW,CA,94040,2015000,3,2.0,MOUNTAIN VIEW,1306,4929,1954,349,1543,,Sold,,,http://www.redfin.com/CA/Mountain-View/1515-Gilmore-St-94040/home/1223798,MLSListings,ML81635941,Y,Y,37.3847876,-122.0934407
PAST SALE,December-20-2017,Condo/Co-op,1 W Edith Ave Unit C120,LOS ALTOS,CA,94022,1155000,1,2.0,LOS ALTOS,1047,,1997,41,1103,646,Sold,,,http://www.redfin.com/CA/Los-Altos/1-W-Edith-Ave-94022/unit-C120/home/1529015,MLSListings,ML81685677,N,Y,37.382437,-122.1145576
PAST SALE,December-16-2016,Condo/Co-op,31 Deep Well Ln,LOS ALTOS,CA,94022,2100000,2,2.0,LOS ALTOS,1840,2704,1972,410,1141,777,Sold,,,http://www.redfin.com/CA/Los-Altos/31-Deep-Well-Ln-94022/home/1303435,MLSListings,ML81632942,N,Y,37.366648,-122.117397
PAST SALE,,Single Family Residential,24327 Summerhill Ave,Los Altos,CA,94024,2400000,4,2.0,,2349,20352,1950,,1022,,,,,http://www.redfin.com/CA/Los-Altos/24327-Summerhill-Ave-94024/home/972385,,,N,Y,37.3601565,-122.1068833
PAST SALE,July-5-2017,Condo/Co-op,150 W Edith Ave #5,LOS ALTOS,CA,94022,1249000,3,2.0,LOS ALTOS,1334,1306,1968,209,936,450,Sold,,,http://www.redfin.com/CA/Los-Altos/150-W-Edith-Ave-94022/unit-5/home/1529048,MLSListings,ML81651138,N,Y,37.381039,-122.1184737
PAST SALE,June-30-2016,Single Family Residential,945 Lundy Ln,LOS ALTOS,CA,94024,1880000,3,2.0,LOS ALTOS,1486,6883,1963,579,1265,,Sold,,,http://www.redfin.com/CA/Los-Altos/945-Lundy-Ln-94024/home/1013071,MLSListings,ML81585141,N,Y,37.3496655,-122.0868129
PAST SALE,May-31-2017,Single Family Residential,831 Los Altos Ave,LOS ALTOS,CA,94022,2680000,3,2.0,LOS ALTOS,1655,10728,1965,244,1619,,Sold,,,http://www.redfin.com/CA/Los-Altos/831-Los-Altos-Ave-94022/home/632918,MLSListings,ML81647510,N,Y,37.3974215,-122.1209775
PAST SALE,December-14-2017,Condo/Co-op,2080 Marich Way #20,MOUNTAIN VIEW,CA,94040,1705000,2,2.0,MOUNTAIN VIEW,1472,901,1982,47,1158,530,Sold,,,http://www.redfin.com/CA/Mountain-View/2080-Marich-Way-94040/unit-20/home/637891,MLSListings,ML81685848,N,Y,37.3931934,-122.1022935
PAST SALE,,Condo/Co-op,100 1st St Unit 101,Los Altos,CA,94022,2100000,2,2.0,,1471,,2015,,1428,,,,,http://www.redfin.com/CA/Los-Altos/100-1st-St-94022/unit-101/home/95956263,,,N,Y,37.3805495,-122.1202179
PAST SALE,June-28-2017,Single Family Residential,1086 Solana Dr,MOUNTAIN VIEW,CA,94040,2150000,4,2.0,MOUNTAIN VIEW,1519,5759,1952,216,1415,,Sold,,,http://www.redfin.com/CA/Mountain-View/1086-Solana-Dr-94040/home/1785599,MLSListings,ML81655121,N,Y,37.3915,-122.1026235
PAST SALE,April-26-2016,Condo/Co-op,35 Deep Well Ln,LOS ALTOS,CA,94022,2500000,2,2.0,LOS ALTOS,1840,2705,1972,644,1359,777,Sold,,,http://www.redfin.com/CA/Los-Altos/35-Deep-Well-Ln-94022/home/1561542,MLSListings,ML81577528,N,Y,37.367078,-122.117611
PAST SALE,,Single Family Residential,725 Casita Way,Los Altos,CA,94022,2850000,4,2.0,,1862,15066,1958,,1531,,,,,http://www.redfin.com/CA/Los-Altos/725-Casita-Way-94022/home/1748160,,,N,Y,37.394422,-122.1020618
PAST SALE,July-18-2017,Single Family Residential,1367 RICHARDSON Ave,LOS ALTOS,CA,94024,2210000,3,2.0,LOS ALTOS,1656,14400,1955,196,1335,,Sold,,,http://www.redfin.com/CA/Los-Altos/1367-Richardson-Ave-94024/home/1766571,MLSListings,ML81649468,N,Y,37.3510184,-122.0760358
PAST SALE,March-22-2017,Condo/Co-op,1 W Edith Ave Unit D220,LOS ALTOS,CA,94022,1585000,1,2.0,LOS ALTOS,1345,1345,1997,314,1178,678,Sold,,,http://www.redfin.com/CA/Los-Altos/1-W-Edith-Ave-94022/unit-D220/home/1115435,MLSListings,ML81639972,N,Y,37.382437,-122.1145576
PAST SALE,October-4-2017,Condo/Co-op,4388 El Camino Real #319,LOS ALTOS,CA,94022,1410000,2,2.0,LOS ALTOS,1200,1227,2009,118,1175,455,Sold,,,http://www.redfin.com/CA/Los-Altos/4388-El-Camino-Real-94022/unit-319/home/23047565,MLSListings,ML81678829,N,Y,37.403772,-122.1176126
PAST SALE,December-13-2017,Single Family Residential,689 Riviera Dr,LOS ALTOS,CA,94024,2950000,4,2.0,LOS ALTOS,2124,11200,1955,48,1389,,Sold,,,http://www.redfin.com/CA/Los-Altos/689-Riviera-Dr-94024/home/1822889,MLSListings,ML81683440,N,Y,37.3793758,-122.0966428
PAST SALE,July-26-2017,Condo/Co-op,150 W Edith Ave #19,LOS ALTOS,CA,94022,1160000,2,2.0,LOS ALTOS,1086,1306,1968,188,1068,390,Sold,,,http://www.redfin.com/CA/Los-Altos/150-W-Edith-Ave-94022/unit-19/home/1073484,MLSListings,ML81667082,N,Y,37.381039,-122.1184737
PAST SALE,July-3-2017,Condo/Co-op,132 Lyell St,LOS ALTOS,CA,94022,1450000,2,2.0,LOS ALTOS,1377,2250,1967,211,1053,400,Sold,,,http://www.redfin.com/CA/Los-Altos/132-Lyell-St-94022/home/637731,MLSListings,ML81655914,N,Y,37.375209,-122.111154
PAST SALE,,Condo/Co-op,100 1st St Unit 214,Los Altos,CA,94022,2220000,2,2.0,,1386,,2015,,1602,,,,,http://www.redfin.com/CA/Los-Altos/100-1st-St-94022/unit-214/home/95956246,,,N,Y,37.3805495,-122.1202179
PAST SALE,July-3-2017,Single Family Residential,1639 Todd St,MOUNTAIN VIEW,CA,94040,2300000,3,2.0,MOUNTAIN VIEW,1355,5292,1959,211,1697,,Sold,,,http://www.redfin.com/CA/Mountain-View/1639-Todd-St-94040/home/644091,MLSListings,ML81655067,N,Y,37.3853315,-122.0954386
PAST SALE,December-22-2017,Single Family Residential,781 Parma Way,LOS ALTOS,CA,94024,3500000,4,2.0,LOS ALTOS,2294,12196,1946,39,1526,,Sold,,,http://www.redfin.com/CA/Los-Altos/781-Parma-Way-94024/home/1802437,MLSListings,ML81684704,N,Y,37.3693161,-122.0986378
PAST SALE,May-19-2017,Single Family Residential,2046 Kent Dr,LOS ALTOS,CA,94024,1960000,2,2.0,LOS ALTOS,1537,10800,1965,256,1275,,Sold,,,http://www.redfin.com/CA/Los-Altos/2046-Kent-Dr-94024/home/1140612,MLSListings,ML81631410,N,Y,37.3416284,-122.0848671
PAST SALE,August-31-2017,Condo/Co-op,226 W Edith Ave #15,LOS ALTOS,CA,94022,1200000,2,2.0,LOS ALTOS,1299,1000,1975,152,924,515,Sold,,,http://www.redfin.com/CA/Los-Altos/226-W-Edith-Ave-94022/unit-15/home/1345964,MLSListings,ML81671703,N,Y,37.3809603,-122.1191277
PAST SALE,September-6-2017,Single Family Residential,824 NASH Rd,LOS ALTOS,CA,94024,3025000,4,2.0,LOS ALTOS,3060,13650,1973,146,989,,Sold,,,http://www.redfin.com/CA/Los-Altos/824-Nash-Rd-94024/home/1401327,MLSListings,ML81674116,N,Y,37.3657426,-122.1121342
PAST SALE,May-31-2017,Condo/Co-op,477 Lassen St #4,LOS ALTOS,CA,94022,1425000,2,2.0,LOS ALTOS,1689,2209,1975,244,844,410,Sold,,,http://www.redfin.com/CA/Los-Altos/477-Lassen-St-94022/unit-4/home/1340099,MLSListings,ML81647428,N,Y,37.3743466,-122.111549
PAST SALE,September-11-2017,Condo/Co-op,101 2nd St #14,LOS ALTOS,CA,94022,1720000,2,2.0,LOS ALTOS,1521,1664,2000,141,1131,550,Sold,,,http://www.redfin.com/CA/Los-Altos/101-2nd-St-94022/unit-14/home/1179406,MLSListings,ML81673324,N,Y,37.3804772,-122.1180388
PAST SALE,November-9-2016,Single Family Residential,1024 Marilyn Dr,MOUNTAIN VIEW,CA,94040,2275000,4,2.0,MOUNTAIN VIEW,1686,11438,1950,447,1349,,Sold,,,http://www.redfin.com/CA/Mountain-View/1024-Marilyn-Dr-94040/home/1210115,MLSListings,ML81629847,N,Y,37.3811284,-122.0895138
PAST SALE,September-12-2017,Single Family Residential,1460 Oakhurst Ave,LOS ALTOS,CA,94024,3100000,3,2.0,LOS ALTOS,1758,18012,1955,140,1763,,Sold,,,http://www.redfin.com/CA/Los-Altos/1460-Oakhurst-Ave-94024/home/646822,MLSListings,ML81673218,N,Y,37.3558725,-122.0838735
PAST SALE,September-20-2017,Condo/Co-op,15 Deep Well Ln,LOS ALTOS,CA,94022,2130000,2,2.0,LOS ALTOS,1840,2704,1972,132,1158,777,Sold,,,http://www.redfin.com/CA/Los-Altos/15-Deep-Well-Ln-94022/home/607787,MLSListings,ML81669560,N,Y,37.366223,-122.116698
PAST SALE,September-22-2017,Condo/Co-op,550 Ortega Ave Unit A313,Mountain View,CA,94040,975000,2,2.0,Mountain View,1076,1000,1992,130,906,368,Sold,,,http://www.redfin.com/CA/Mountain-View/550-Ortega-Ave-94040/unit-A313/home/2121307,CRMLS,PW17175945,N,Y,37.399132,-122.1062035
PAST SALE,December-8-2016,Single Family Residential,210 Marvin Ave,LOS ALTOS,CA,94022,3825000,3,2.0,LOS ALTOS,2319,22176,1945,418,1649,,Sold,,,http://www.redfin.com/CA/Los-Altos/210-Marvin-Ave-94022/home/689115,MLSListings,ML81626753,N,Y,37.3760702,-122.1094692
PAST SALE,September-28-2017,Single Family Residential,291 Live Oak Ln,LOS ALTOS,CA,94022,3500000,3,2.0,LOS ALTOS,2077,12540,1953,124,1685,,Sold,,,http://www.redfin.com/CA/Los-Altos/291-Live-Oak-Ln-94022/home/631130,MLSListings,ML81676559,N,Y,37.3864451,-122.1205386
PAST SALE,September-26-2017,Condo/Co-op,226 W Edith Ave #19,LOS ALTOS,CA,94022,1300000,2,2.0,LOS ALTOS,1288,,1975,126,1009,515,Sold,,,http://www.redfin.com/CA/Los-Altos/226-W-Edith-Ave-94022/unit-19/home/1708132,MLSListings,ML81673449,N,Y,37.3809603,-122.1191277
PAST SALE,June-9-2017,Single Family Residential,10595 Creston Dr,LOS ALTOS,CA,94024,2325000,3,2.0,LOS ALTOS,1847,10000,1956,235,1259,,Sold,,,http://www.redfin.com/CA/Los-Altos/10595-Creston-Dr-94024/home/774313,MLSListings,ML81650421,N,Y,37.3321418,-122.0641311
PAST SALE,May-13-2016,Single Family Residential,515 Pine,LOS ALTOS,CA,94022,2775000,3,2.0,LOS ALTOS,2080,14823,1930,627,1334,,Sold,,,http://www.redfin.com/CA/Los-Altos/515-Pine-Ln-94022/home/1827447,MLSListings,ML81578659,N,Y,37.3927991,-122.1257105
PAST SALE,October-6-2017,Condo/Co-op,150 W Edith Ave #14,LOS ALTOS,CA,94022,1050000,2,2.0,LOS ALTOS,1092,1306,1968,116,962,390,Sold,,,http://www.redfin.com/CA/Los-Altos/150-W-Edith-Ave-94022/unit-14/home/1653006,MLSListings,ML81676512,N,Y,37.381039,-122.1184737
PAST SALE,April-5-2016,Condo/Co-op,50 W Edith Ave #6,LOS ALTOS,CA,94022,1350000,2,2.0,LOS ALTOS,1553,1575,1979,665,869,400,Sold,,,http://www.redfin.com/CA/Los-Altos/50-W-Edith-Ave-94022/unit-6/home/607704,MLSListings,ML81548482,N,Y,37.381075,-122.11571
PAST SALE,August-29-2017,Single Family Residential,810 Terrace Dr,LOS ALTOS,CA,94024,2820000,4,2.0,LOS ALTOS,2003,11918,1964,154,1408,,Sold,,,http://www.redfin.com/CA/Los-Altos/810-Terrace-Dr-94024/home/784435,MLSListings,ML81670685,N,Y,37.3451872,-122.0907935
PAST SALE,October-27-2017,Single Family Residential,555 University Ave,LOS ALTOS,CA,94022,2600000,3,2.0,LOS ALTOS,1542,6600,1961,95,1686,,Sold,,,http://www.redfin.com/CA/Los-Altos/555-University-Ave-94022/home/813991,MLSListings,ML81678714,N,Y,37.3731446,-122.1173365
PAST SALE,November-9-2017,Condo/Co-op,100 First St #214,LOS ALTOS,CA,94022,2220000,2,2.0,LOS ALTOS,1386,889,2015,82,1602,590,Sold,,,http://www.redfin.com/CA/Los-Altos/100-1st-St-94022/unit-214/home/72113090,MLSListings,ML81674636,N,Y,37.3805495,-122.1202179
PAST SALE,February-19-2016,Single Family Residential,640 N San Antonio Rd,LOS ALTOS,CA,94022,2100000,3,2.0,LOS ALTOS,2077,7687,1975,711,1011,,Sold,,,http://www.redfin.com/CA/Los-Altos/640-N-San-Antonio-Rd-94022/home/1239969,MLSListings,ML81546583,N,Y,37.3926034,-122.1145711
PAST SALE,August-16-2017,Condo/Co-op,150 W EDITH Ave #3,LOS ALTOS,CA,94022,950000,2,2.0,LOS ALTOS,1086,1306,1968,167,875,410,Sold,,,http://www.redfin.com/CA/Los-Altos/150-W-Edith-Ave-94022/unit-3/home/855822,MLSListings,ML81669394,N,Y,37.381039,-122.1184737
PAST SALE,April-20-2017,Single Family Residential,1246 Patlen Dr,LOS ALTOS,CA,94024,2720000,3,2.0,LOS ALTOS,1622,10626,1961,285,1677,,Sold,,,http://www.redfin.com/CA/Los-Altos/1246-Patlen-Dr-94024/home/964073,MLSListings,ML81644549,N,Y,37.3552462,-122.0799759
PAST SALE,August-31-2016,Single Family Residential,511 Orange Ave,LOS ALTOS,CA,94022,2215000,3,2.0,LOS ALTOS,1686,6651,1947,517,1314,,Sold,,,http://www.redfin.com/CA/Los-Altos/511-Orange-Ave-94022/home/1321418,MLSListings,ML81596246,N,Y,37.373819,-122.1164245
PAST SALE,August-25-2017,Single Family Residential,1016 Tulane Dr,MOUNTAIN VIEW,CA,94040,2380400,3,2.0,MOUNTAIN VIEW,1663,5300,1953,158,1431,,Sold,,,http://www.redfin.com/CA/Mountain-View/1016-Tulane-Dr-94040/home/640896,MLSListings,ML81671709,Y,Y,37.3766578,-122.0917011
PAST SALE,March-25-2016,Single Family Residential,674 Jay St,LOS ALTOS,CA,94022,2725000,3,2.0,LOS ALTOS,2022,13359,1956,676,1348,,Sold,,,http://www.redfin.com/CA/Los-Altos/674-Jay-St-94022/home/1462281,MLSListings,ML81546435,N,Y,37.3859672,-122.0972069
PAST SALE,September-14-2017,Condo/Co-op,1 W Edith Ave Unit A201,LOS ALTOS,CA,94022,1175000,1,2.0,LOS ALTOS,1048,1048,1996,138,1121,600,Sold,,,http://www.redfin.com/CA/Los-Altos/1-W-Edith-Ave-94022/unit-A201/home/1575711,MLSListings,ML81677979,N,Y,37.382437,-122.1145576
PAST SALE,September-27-2016,Single Family Residential,116 Del Monte Ave,LOS ALTOS,CA,94022,1830000,3,2.0,LOS ALTOS,1522,6695,1947,490,1202,,Sold,,,http://www.redfin.com/CA/Los-Altos/116-Del-Monte-Ave-94022/home/879844,MLSListings,ML81600389,N,Y,37.3974243,-122.1165995
PAST SALE,November-2-2017,Single Family Residential,916 Golden Way,LOS ALTOS,CA,94024,2700000,3,2.0,LOS ALTOS,1735,10764,1954,89,1556,,Sold,,,http://www.redfin.com/CA/Los-Altos/916-Golden-Way-94024/home/1785732,MLSListings,ML81681086,Y,Y,37.3665444,-122.0911899
PAST SALE,September-20-2017,Single Family Residential,1555 Ernestine Ln,MOUNTAIN VIEW,CA,94040,2300000,3,2.0,MOUNTAIN VIEW,1232,4968,1954,132,1867,,Sold,,,http://www.redfin.com/CA/Mountain-View/1555-Ernestine-Ln-94040/home/642908,MLSListings,ML81675262,N,Y,37.3860885,-122.0941952
PAST SALE,May-5-2016,Single Family Residential,1573 Bedford Ave,SUNNYVALE,CA,94087,2300000,4,2.0,SUNNYVALE,2110,8500,1957,635,1090,,Sold,,,http://www.redfin.com/CA/Sunnyvale/1573-Bedford-Ave-94087/home/768643,MLSListings,ML81577332,N,Y,37.3420694,-122.0624776
PAST SALE,September-7-2016,Single Family Residential,1050 Alegre Ave,LOS ALTOS,CA,94024,2410000,3,2.0,LOS ALTOS,1433,14758,1954,510,1682,,Sold,,,http://www.redfin.com/CA/Los-Altos/1050-Alegre-Ave-94024/home/1432667,MLSListings,ML81596778,N,Y,37.365761,-122.0853208
PAST SALE,January-3-2018,Single Family Residential,1432 Miramonte Ave,LOS ALTOS,CA,94024,2950000,4,2.0,LOS ALTOS,1961,11193,1958,27,1504,,Sold,,,http://www.redfin.com/CA/Los-Altos/1432-Miramonte-Ave-94024/home/642049,MLSListings,ML81686547,N,Y,37.3568409,-122.08754
PAST SALE,December-1-2017,Single Family Residential,598 Orange Ave,LOS ALTOS,CA,94022,2925000,4,2.0,LOS ALTOS,2300,6600,1952,60,1272,,Sold,,,http://www.redfin.com/CA/Los-Altos/598-Orange-Ave-94022/home/1653929,MLSListings,ML81681273,N,Y,37.3723324,-122.1166846
PAST SALE,September-25-2017,Single Family Residential,215 Lyell St,LOS ALTOS,CA,94022,2800000,4,2.0,LOS ALTOS,1861,11021,1954,127,1505,,Sold,,,http://www.redfin.com/CA/Los-Altos/215-Lyell-St-94022/home/635545,MLSListings,ML81675109,N,Y,37.3756814,-122.1090051
PAST SALE,October-4-2017,Single Family Residential,215 Sunkist Ln,LOS ALTOS,CA,94022,2798000,3,2.0,LOS ALTOS,1828,9280,1953,118,1531,,Sold,,,http://www.redfin.com/CA/Los-Altos/215-Sunkist-Ln-94022/home/1240045,MLSListings,ML81676582,N,Y,37.3852559,-122.1053558
PAST SALE,June-23-2017,Single Family Residential,1401 Garthwick Dr,LOS ALTOS,CA,94024,2800000,3,2.0,LOS ALTOS,1914,14040,1958,221,1463,,Sold,,,http://www.redfin.com/CA/Los-Altos/1401-Garthwick-Dr-94024/home/649839,MLSListings,ML81653032,N,Y,37.3543665,-122.0744085
PAST SALE,August-16-2016,Townhouse,1175 Blackberry Ter,SUNNYVALE,CA,94087,911000,2,2.0,SUNNYVALE,1374,2609,1973,532,663,345,Sold,,,http://www.redfin.com/CA/Sunnyvale/1175-Blackberry-Ter-94087/home/1524467,MLSListings,ML81589271,N,Y,37.356204,-122.060598
PAST SALE,October-24-2016,Condo/Co-op,73 Third St #31,LOS ALTOS,CA,94022,1355000,2,2.0,LOS ALTOS,1344,1481,1974,463,1008,495,Sold,,,http://www.redfin.com/CA/Los-Altos/73-3rd-St-94022/unit-31/home/907940,MLSListings,ML81628170,N,Y,37.3808488,-122.1168881
