SALE TYPE,SOLD DATE,PROPERTY TYPE,ADDRESS,CITY,STATE,ZIP,PRICE,BEDS,BATHS,LOCATION,SQUARE FEET,LOT SIZE,YEAR BUILT,DAYS ON MARKET,$/SQUARE FEET,HOA/MONTH,STATUS,NEXT OPEN HOUSE START TIME,NEXT OPEN HOUSE END TIME,URL (SEE http://www.redfin.com/buy-a-home/comparative-market-analysis FOR INFO ON PRICING),SOURCE,MLS#,FAVORITE,INTERESTED,LATITUDE,LONGITUDE
PAST SALE,June-16-2017,Condo/Co-op,1409 Oxford #6,Berkeley,CA,94709-1457,850000,3,2.0,Berkeley,1146,,1962,236,742,320,Sold,,,http://www.redfin.com/CA/Berkeley/1409-Oxford-St-94709/unit-6/home/1291896,EBRD/CCAR/Bay East,40779990,N,Y,37.8820149,-122.2668806
PAST SALE,October-30-2017,Single Family Residential,1310 Cedar St,Berkeley,CA,94702,1380000,4,2.0,N Berkeley,1776,5000,1964,100,777,,Sold,,,http://www.redfin.com/CA/Berkeley/1310-Cedar-St-94702/home/1630388,EBRD/CCAR/Bay East,40798850,N,Y,37.8757968,-122.2879413
PAST SALE,January-12-2018,Multi-Family (2-4 Unit),641 65Th St,Oakland,CA,94609,1620000,6,3.0,Oakland,2757,4800,1923,26,588,,Sold,,,http://www.redfin.com/CA/Oakland/641-65th-St-94609/home/531372,EBRD/CCAR/Bay East,40804715,N,Y,37.8503947,-122.2639903
PAST SALE,April-18-2017,Single Family Residential,1834 63Rd St,Berkeley,CA,94703,940000,2,1.5,Le Conte,1325,5400,1906,295,709,,Sold,,,http://www.redfin.com/CA/Berkeley/1834-63rd-St-94703/home/651697,EBRD/CCAR/Bay East,40771117,N,Y,37.8478248,-122.2697732
PAST SALE,October-16-2017,Townhouse,91 City Limits Cir,Oakland,CA,94608,755000,2,2.5,Nobe,1151,,2005,114,656,246,Sold,,,http://www.redfin.com/CA/Oakland/91-City-Limits-Cir-94608/home/2111902,EBRD/CCAR/Bay East,40795772,N,Y,37.8491645,-122.2883154
PAST SALE,October-27-2017,Single Family Residential,1523 Carleton St,Berkeley,CA,94703,1250000,3,2.0,South Berkeley,1406,4389,1927,103,889,,Sold,,,http://www.redfin.com/CA/Berkeley/1523-Carleton-St-94703/home/1120320,EBRD/CCAR/Bay East,40798017,N,Y,37.8599425,-122.2793342
PAST SALE,December-18-2017,Single Family Residential,6923 Bristol Dr,Berkeley,CA,94705,1120000,4,3.5,Claremont Hills,3601,6922,1995,51,311,,Sold,,,http://www.redfin.com/CA/Berkeley/6923-Bristol-Dr-94705/home/632760,EBRD/CCAR/Bay East,40801225,N,Y,37.8575478,-122.2237068
PAST SALE,January-3-2018,Multi-Family (2-4 Unit),1206 Allston Way,Berkeley,CA,94702,997000,3,2.0,Berkeley,1678,4000,1929,35,594,,Sold,,,http://www.redfin.com/CA/Berkeley/1206-Allston-Way-94702/home/1098677,EBRD/CCAR/Bay East,40803122,N,Y,37.8665598,-122.2886463
PAST SALE,September-20-2017,Single Family Residential,2716 Wallace St,Berkeley,CA,94702,804000,2,1.0,San Pablo Park,1185,3850,1929,140,678,,Sold,,,http://www.redfin.com/CA/Berkeley/2716-Wallace-St-94702/home/663722,EBRD/CCAR/Bay East,40791919,N,Y,37.8563749,-122.2871232
PAST SALE,October-9-2017,Single Family Residential,57 Tunnel Rd,Berkeley,CA,94705,1490000,3,2.5,Claremont,1780,5560,1930,121,837,,Sold,,,http://www.redfin.com/CA/Berkeley/57-Tunnel-Rd-94705/home/1270962,EBRD/CCAR/Bay East,40795748,N,Y,37.8570176,-122.2413433
PAST SALE,December-7-2017,Single Family Residential,1040 Keith Ave,Berkeley,CA,94708,1382650,4,3.5,North Cragmont,2240,5757,1960,62,617,,Sold,,,http://www.redfin.com/CA/Berkeley/1040-Keith-Ave-94708/home/1729870,EBRD/CCAR/Bay East,40802129,N,Y,37.8891434,-122.2646362
PAST SALE,July-28-2017,Single Family Residential,1839 63Rd St,Berkeley,CA,94703,860000,2,1.0,Santa Fe,1092,4455,1907,194,788,,Sold,,,http://www.redfin.com/CA/Berkeley/1839-63rd-St-94703/home/1309093,EBRD/CCAR/Bay East,40787457,N,Y,37.848338,-122.269522
PAST SALE,March-14-2017,Single Family Residential,1617 Woolsey St,Berkeley,CA,94703,860000,2,1.0,Lorin,1143,5130,1910,330,752,,Sold,,,http://www.redfin.com/CA/Berkeley/1617-Woolsey-St-94703/home/1198766,EBRD/CCAR/Bay East,40769686,N,Y,37.8511625,-122.2756006
PAST SALE,March-3-2017,Single Family Residential,2203 Mcgee Ave,Berkeley,CA,94703,925000,2,1.0,Central Berkeley,1005,2450,1921,341,920,,Sold,,,http://www.redfin.com/CA/Berkeley/2203-McGee-Ave-94703/home/1890012,EBRD/CCAR/Bay East,40768383,N,Y,37.868007,-122.276941
PAST SALE,,Single Family Residential,2321 California St,Berkeley,CA,94703,292000,2,1.0,,1333,5200,1923,,219,,,,,http://www.redfin.com/CA/Berkeley/2321-California-St-94703/home/1098687,,,N,Y,37.8652596,-122.2788828
PAST SALE,,Single Family Residential,3116 Harper St,Berkeley,CA,94703,650000,2,1.0,,1007,2272,1909,,645,,,,,http://www.redfin.com/CA/Berkeley/3116-Harper-St-94703/home/1745723,,,N,Y,37.8517498,-122.2720815
PAST SALE,,Single Family Residential,1135 Cragmont Ave,Berkeley,CA,94708,381500,1,1.0,,1403,6917,1982,,272,,,,,http://www.redfin.com/CA/Berkeley/1135-Cragmont-Ave-94708/home/750771,,,N,Y,37.889626,-122.25929
PAST SALE,March-7-2017,Single Family Residential,835 Oxford St,Berkeley,CA,94707,2100000,4,3.5,Indian Rock Area,2500,7398,1920,337,840,,Sold,,,http://www.redfin.com/CA/Berkeley/835-Oxford-St-94707/home/1704914,EBRD/CCAR/Bay East,40764024,N,Y,37.8925833,-122.2703653
PAST SALE,February-16-2017,Condo/Co-op,2817 Woolsey St Unit A,Berkeley,CA,94705,775000,2,1.0,Claremont/Elmwod,898,,1941,356,863,395,Sold,,,http://www.redfin.com/CA/Berkeley/2817-Woolsey-St-94705/unit-A/home/17184126,EBRD/CCAR/Bay East,40766626,N,Y,37.854522,-122.249521
PAST SALE,,Single Family Residential,123 York Ave,Kensington,CA,94708,980000,3,1.0,,1587,4300,1939,,618,,,,,http://www.redfin.com/CA/Kensington/123-York-Ave-94708/home/1881328,,,N,Y,37.9094985,-122.279404
PAST SALE,February-23-2017,Vacant Land,18 HILLER Dr,Oakland,CA,94618,600000,,,Hiller Highlands,,25406,,349,,,Sold,,,http://www.redfin.com/CA/Oakland/18-Hiller-Dr-94618/home/109927905,EBRD/CCAR/Bay East,40763869,N,Y,37.8528554,-122.2330981
PAST SALE,,Single Family Residential,1416 Neilson St,Berkeley,CA,94702,547000,2,1.0,,975,5000,1900,,561,,,,,http://www.redfin.com/CA/Berkeley/1416-Neilson-St-94702/home/686670,,,N,Y,37.8788519,-122.290289
PAST SALE,March-10-2017,Multi-Family (2-4 Unit),1299 Carlotta Ave,Berkeley,CA,94707,1700000,8,4.0,Northbrae,3452,4692,1955,334,492,,Sold,,,http://www.redfin.com/CA/Berkeley/1299-Carlotta-Ave-94707/home/694338,EBRD/CCAR/Bay East,40768358,N,Y,37.8827309,-122.2802918
PAST SALE,March-3-2017,Single Family Residential,1690 Tacoma Ave,Berkeley,CA,94707,1030000,3,1.5,Thousand Oaks,1733,4662,1928,341,594,,Sold,,,http://www.redfin.com/CA/Berkeley/1690-Tacoma-Ave-94707/home/538286,EBRD/CCAR/Bay East,40767739,N,Y,37.8919981,-122.2824406
PAST SALE,March-3-2017,Single Family Residential,7084 Westmoorland Dr,Berkeley,CA,94705,1365000,3,2.5,Claremont Hills,2137,8240,1994,341,639,,Sold,,,http://www.redfin.com/CA/Berkeley/7084-Westmoorland-Dr-94705/home/1995637,EBRD/CCAR/Bay East,40768527,N,Y,37.8605116,-122.2231741
PAST SALE,February-22-2017,Single Family Residential,1502 5Th St,Berkeley,CA,94710,815000,2,1.0,West Berkeley,1150,2700,1904,350,709,,Sold,,,http://www.redfin.com/CA/Berkeley/1502-5th-St-94710/home/2045415,EBRD/CCAR/Bay East,40767814,N,Y,37.87477,-122.301315
PAST SALE,February-28-2017,Vacant Land,6881 Sherwick,Berkeley,CA,94705,335000,,,Berkeley,,6920,,344,,,Sold,,,http://www.redfin.com/CA/Berkeley/6881-Sherwick-Dr-94705/home/22161529,EBRD/CCAR/Bay East,40748325,N,Y,37.8569456,-122.2239846
PAST SALE,,Single Family Residential,1321 Derby St,Berkeley,CA,94702,265500,2,1.0,,1034,5320,1924,,257,,,,,http://www.redfin.com/CA/Berkeley/1321-Derby-St-94702/home/662916,,,N,Y,37.8584309,-122.2837959
PAST SALE,,Multi-Family (2-4 Unit),1951 Chestnut St,Berkeley,CA,94702,6550000,,36.0,,17555,7550,1927,,373,,,,,http://www.redfin.com/CA/Berkeley/1951-Chestnut-St-94702/home/1905831,,,N,Y,37.8703278,-122.2877481
PAST SALE,March-10-2017,Single Family Residential,866 Regal Rd,Berkeley,CA,94708,2553500,5,4.5,Cragmont,3529,7800,2016,334,724,,Sold,,,http://www.redfin.com/CA/Berkeley/866-Regal-Rd-94708/home/1591753,EBRD/CCAR/Bay East,40767786,N,Y,37.894472,-122.266795
PAST SALE,February-24-2017,Condo/Co-op,2709 10th St Unit B,Berkeley,CA,94710,950000,2,2.5,West Berkeley,1563,,2004,348,608,500,Sold,,,http://www.redfin.com/CA/Berkeley/2709-Tenth-St-94710/unit-B/home/113069957,EBRD/CCAR/Bay East,40767800,N,Y,37.857458,-122.289216
PAST SALE,February-21-2017,Single Family Residential,2840 Webster,Berkeley,CA,94705,2200000,4,3.0,Elmwood,2517,6750,1911,351,874,,Sold,,,http://www.redfin.com/CA/Berkeley/2840-Webster-St-94705/home/651755,EBRD/CCAR/Bay East,40770959,N,Y,37.8558249,-122.2486148
PAST SALE,February-10-2017,Single Family Residential,728 Santa Barbara Rd,Berkeley,CA,94707-2005,1750000,5,4.0,Arlington Height,3308,9295,1925,362,529,,Sold,,,http://www.redfin.com/CA/Berkeley/728-Santa-Barbara-Rd-94707/home/1673305,EBRD/CCAR/Bay East,40764991,N,Y,37.8970613,-122.271111
PAST SALE,February-28-2017,Single Family Residential,752 Contra Costa Ave,Berkeley,CA,94707,1620000,4,3.0,Berkeley/Albany,2610,6240,1924,344,621,,Sold,,,http://www.redfin.com/CA/Berkeley/752-Contra-Costa-Ave-94707/home/1259139,San Francisco MLS,451550,N,Y,37.8954164,-122.277101
PAST SALE,February-27-2017,Single Family Residential,1061 66th St,Oakland,CA,94608,881000,2,1.0,Nobe,1021,4400,1925,345,863,,Sold,,,http://www.redfin.com/CA/Oakland/1061-66th-St-94608/home/1606391,EBRD/CCAR/Bay East,40769608,N,Y,37.849082,-122.283206
PAST SALE,March-10-2017,Single Family Residential,12 HILL Rd,Berkeley,CA,94708,1210000,2,2.0,N Berkeley,1509,7300,1998,334,802,,Sold,,,http://www.redfin.com/CA/Berkeley/12-Hill-Rd-94708/home/1818671,EBRD/CCAR/Bay East,40769133,N,Y,37.890388,-122.2519297
PAST SALE,March-13-2017,Single Family Residential,1717 Rose St,Berkeley,CA,94703,1040000,2,1.0,Berkeley,1057,3185,1923,331,984,,Sold,,,http://www.redfin.com/CA/Berkeley/1717-Rose-St-94703/home/947880,EBRD/CCAR/Bay East,40768968,N,Y,37.880583,-122.279048
PAST SALE,February-14-2017,Single Family Residential,1510 Blake St,Berkeley,CA,94703,956000,2,1.0,Berkeley,1120,5054,1926,358,854,,Sold,,,http://www.redfin.com/CA/Berkeley/1510-Blake-St-94703/home/2030283,EBRD/CCAR/Bay East,40766840,N,Y,37.8612494,-122.2801569
PAST SALE,February-23-2017,Single Family Residential,6415 Benvenue Ave,Oakland,CA,94618,1560000,3,1.5,Rockridge,1596,6500,1916,349,977,,Sold,,,http://www.redfin.com/CA/Oakland/6415-Benvenue-Ave-94618/home/531409,EBRD/CCAR/Bay East,40767691,N,Y,37.8515402,-122.2537766
PAST SALE,March-15-2017,Single Family Residential,841 Alvarado Rd,Berkeley,CA,94705,835000,2,1.0,Claremont Hills,1000,6165,1954,329,835,,Sold,,,http://www.redfin.com/CA/Berkeley/841-Alvarado-Rd-94705/home/630371,EBRD/CCAR/Bay East,40766884,N,Y,37.861021,-122.2376312
PAST SALE,March-10-2017,Single Family Residential,1191 GRIZZLY PEAK Blvd,Berkeley,CA,94708,1100000,3,2.0,Cragmont,1776,7440,1958,334,619,,Sold,,,http://www.redfin.com/CA/Berkeley/1191-Grizzly-Peak-Blvd-94708/home/1644708,EBRD/CCAR/Bay East,40769134,N,Y,37.8905252,-122.2520517
PAST SALE,February-21-2017,Single Family Residential,1415 Ada St,Berkeley,CA,94702,1450000,3,2.0,Berkeley/Albany,1608,4815,1936,351,902,,Sold,,,http://www.redfin.com/CA/Berkeley/1415-Ada-St-94702/home/1972504,San Francisco MLS,453722,N,Y,37.8794652,-122.2846951
PAST SALE,March-2-2017,Condo/Co-op,1095 67Th St #1095,Oakland,CA,94608,730000,3,2.0,Nobe,1379,,1982,342,529,175,Sold,,,http://www.redfin.com/CA/Oakland/1095-67th-St-94608/unit-1095/home/85968933,EBRD/CCAR/Bay East,40769161,N,Y,37.849701,-122.28515
PAST SALE,,Condo/Co-op,1207 66th St,Oakland,CA,94608,480500,3,2.0,,1623,,2006,,296,,,,,http://www.redfin.com/CA/Oakland/1207-66th-St-94608/home/12116489,,,N,Y,37.8484089,-122.287966
PAST SALE,February-17-2017,Multi-Family (2-4 Unit),2116 Roosevelt Ave,Berkeley,CA,94703,1300000,8,4.0,Berkeley,3486,5200,1911,355,373,,Sold,,,http://www.redfin.com/CA/Berkeley/2116-Roosevelt-Ave-94703/home/673993,EBRD/CCAR/Bay East,40766744,N,Y,37.869435,-122.276537
PAST SALE,February-17-2017,Townhouse,1523 Hearst Ave,Berkeley,CA,94703,850000,2,2.0,North Berkeley,1280,8977,1985,355,664,242,Sold,,,http://www.redfin.com/CA/Berkeley/1523-Hearst-Ave-94703/unit-B/home/1297560,EBRD/CCAR/Bay East,40767096,N,Y,37.872479,-122.2809954
PAST SALE,February-24-2017,Townhouse,11 City Limits Cir,Emeryville,CA,94608,834500,2,2.5,Emeryville,1339,,2005,348,623,246,Sold,,,http://www.redfin.com/CA/Emeryville/11-City-Limits-Cir-94608/home/2111938,EBRD/CCAR/Bay East,40767333,N,Y,37.8489264,-122.2888291
PAST SALE,March-2-2017,Single Family Residential,1332 Mcgee Ave,Berkeley,CA,94703,1597332,3,2.0,North Berkeley,1862,4200,1926,342,858,,Sold,,,http://www.redfin.com/CA/Berkeley/1332-McGee-Ave-94703/home/1871560,EBRD/CCAR/Bay East,40768728,N,Y,37.8807937,-122.2804692
PAST SALE,,Single Family Residential,1157 Oxford St,Berkeley,CA,94707,230000,4,3.0,,2344,6075,1925,,98,,,,,http://www.redfin.com/CA/Berkeley/1157-Oxford-St-94707/home/1988337,,,N,Y,37.8869188,-122.2676055
PAST SALE,February-13-2017,Single Family Residential,77 Stratford Rd,Kensington,CA,94707,1020000,3,1.5,Kensington Park,1876,5350,1929,359,544,,Sold,,,http://www.redfin.com/CA/Kensington/77-Stratford-Rd-94707/home/1193321,EBRD/CCAR/Bay East,40767844,N,Y,37.9033749,-122.2822651
PAST SALE,February-8-2017,Single Family Residential,1409 66Th St,Berkeley,CA,94702,1100000,3,2.0,South Berkeley,1116,3400,1924,364,986,,Sold,,,http://www.redfin.com/CA/Berkeley/1409-66th-St-94702/home/1931742,EBRD/CCAR/Bay East,40766478,N,Y,37.8501802,-122.2802743
PAST SALE,February-15-2017,Single Family Residential,1502 Stuart St,Berkeley,CA,94703,810000,2,2.0,South Berkeley,1344,4725,1926,357,603,,Sold,,,http://www.redfin.com/CA/Berkeley/1502-Stuart-St-94703/home/2030274,EBRD/CCAR/Bay East,40767200,N,Y,37.856801,-122.2793772
PAST SALE,March-1-2017,Single Family Residential,1470 Dwight Way,Berkeley,CA,94702,1060000,2,2.0,Berkeley,1762,5590,1940,343,602,,Sold,,,http://www.redfin.com/CA/Berkeley/1470-Dwight-Way-94702/home/1043884,EBRD/CCAR/Bay East,40767835,N,Y,37.8619362,-122.2817953
PAST SALE,,Vacant Land,6874 Buckingham Blvd,Berkeley,CA,94705,130000,,,,1559,6090,1977,,83,,,,,http://www.redfin.com/CA/Berkeley/6874-Buckingham-Blvd-94705/home/22804900,,,N,Y,37.8573975,-122.2245913
PAST SALE,March-14-2017,Multi-Family (2-4 Unit),1612 63Rd St,Berkeley,CA,94703,1180000,11,5.0,Berkeley,3882,4995,1965,330,304,,Sold,,,http://www.redfin.com/CA/Berkeley/1612-63rd-St-94703/unit-A/home/651663,EBRD/CCAR/Bay East,40762408,N,Y,37.8470726,-122.2749385
PAST SALE,,Condo/Co-op,1095 67th St,Oakland,CA,94608,730000,3,2.0,,1379,,1982,,529,,,,,http://www.redfin.com/CA/Oakland/1095-67th-St-94608/home/1225905,,,N,Y,37.849701,-122.28515
PAST SALE,March-1-2017,Single Family Residential,1421 Ashby Ave,Berkeley,CA,94702,730000,3,1.0,Berkeley,1153,5476,1952,343,633,,Sold,,,http://www.redfin.com/CA/Berkeley/1421-Ashby-Ave-94702/home/913463,EBRD/CCAR/Bay East,40767076,N,Y,37.8534299,-122.2803781
PAST SALE,February-15-2017,Single Family Residential,1314 Bancroft Way,Berkeley,CA,94702,912500,3,2.0,Berkeley,1198,2696,1904,357,762,,Sold,,,http://www.redfin.com/CA/Berkeley/1314-Bancroft-Way-94702/home/1718577,EBRD/CCAR/Bay East,40766690,N,Y,37.8651436,-122.2854881
PAST SALE,February-9-2017,Single Family Residential,1009 Allston Way,Berkeley,CA,94710,760000,3,1.75,Berkeley,1026,3000,1912,363,741,,Sold,,,http://www.redfin.com/CA/Berkeley/1009-Allston-Way-94710/home/1759884,EBRD/CCAR/Bay East,40766566,N,Y,37.8662008,-122.2931718
PAST SALE,February-17-2017,Single Family Residential,1249 Haskell St,Berkeley,CA,94702,765000,2,1.0,Berkeley,882,3270,1905,355,867,,Sold,,,http://www.redfin.com/CA/Berkeley/1249-Haskell-St-94702/home/1169536,EBRD/CCAR/Bay East,40766826,N,Y,37.851204,-122.283994
PAST SALE,February-21-2017,Single Family Residential,234 Amherst Ave,Kensington,CA,94708,1080000,2,1.0,Upper Kensington,1262,5250,1926,351,856,,Sold,,,http://www.redfin.com/CA/Kensington/234-Amherst-Ave-94708/home/1963190,EBRD/CCAR/Bay East,40768350,N,Y,37.9060004,-122.2781361
PAST SALE,February-8-2017,Single Family Residential,240 Lake Dr,Kensington,CA,94708,746000,3,1.0,Berkeley Woods,1399,5500,1948,364,533,,Sold,,,http://www.redfin.com/CA/Kensington/240-Lake-Dr-94708/home/1883785,EBRD/CCAR/Bay East,40769721,N,Y,37.909413,-122.2725646
PAST SALE,March-6-2017,Single Family Residential,6535 Whitney St,Oakland,CA,94609,1600000,4,2.5,Oak/Berk Border,1982,2750,2017,338,807,,Sold,,,http://www.redfin.com/CA/Oakland/6535-Whitney-St-94609/home/113007360,EBRD/CCAR/Bay East,40768995,N,Y,37.8509522,-122.2670452
PAST SALE,,Vacant Land,6539 Whitney St,Oakland,CA,94609,1600000,,,,,2750,,,,,,,,http://www.redfin.com/CA/Oakland/6539-Whitney-St-94609/home/22678450,,,N,Y,37.8510178,-122.2670671
PAST SALE,,Single Family Residential,29 Sunset Dr,Kensington,CA,94707,146500,4,2.0,,2121,10240,1954,,69,,,,,http://www.redfin.com/CA/Kensington/29-Sunset-Dr-94707/home/1726594,,,N,Y,37.9091155,-122.2819028
PAST SALE,,Single Family Residential,650 66th St,Oakland,CA,94609,425000,2,1.0,,1208,3570,1910,,352,,,,,http://www.redfin.com/CA/Oakland/650-66th-St-94609/home/2025534,,,N,Y,37.8519621,-122.2645516
PAST SALE,,Multi-Family (2-4 Unit),1643 Prince St,Berkeley,CA,94703,1700000,,8.0,,4012,7846,1960,,424,,,,,http://www.redfin.com/CA/Berkeley/1643-Prince-St-94703/home/657562,,,N,Y,37.8522203,-122.2746592
PAST SALE,February-27-2017,Multi-Family (2-4 Unit),3006 Martin Luther King Jr Way,Berkeley,CA,94703,878000,4,2.0,Berkeley,1704,4733,1905,345,515,,Sold,,,http://www.redfin.com/CA/Berkeley/3006-Martin-Luther-King-Junior-Way-94703/home/1953681,EBRD/CCAR/Bay East,40762050,N,Y,37.8539417,-122.2713053
PAST SALE,May-3-2017,Multi-Family (2-4 Unit),1305 66th St,Berkeley,CA,94702,745000,4,3.0,Berkeley,2057,3500,1914,280,362,,Sold,,,http://www.redfin.com/CA/Berkeley/1305-66th-St-94702/home/1120041,EBRD/CCAR/Bay East,40772790,N,Y,37.8497081,-122.2824779
PAST SALE,,Single Family Residential,1631 Woolsey St,Berkeley,CA,94703,1100000,3,2.0,,2594,5940,1919,,424,,,,,http://www.redfin.com/CA/Berkeley/1631-Woolsey-St-94703/home/1143583,,,N,Y,37.8512968,-122.2748658
PAST SALE,May-12-2017,Single Family Residential,649 65Th St,Oakland,CA,94609,1430000,3,2.0,N.Oakland,1758,4800,1918,271,813,,Sold,,,http://www.redfin.com/CA/Oakland/649-65th-St-94609/home/531631,EBRD/CCAR/Bay East,40775107,N,Y,37.8503111,-122.2642748
PAST SALE,June-21-2017,Condo/Co-op,186 City Limits Cir,Oakland,CA,94608,665000,2,1.5,Nobe,1033,,2005,231,644,246,Sold,,,http://www.redfin.com/CA/Oakland/186-City-Limits-Cir-94608/home/2111930,EBRD/CCAR/Bay East,40783595,N,Y,37.848958,-122.287791
PAST SALE,June-30-2017,Condo/Co-op,1329 66th Unit A,Berkeley,CA,94702,805000,2,2.0,Berkeley,980,4914,1926,222,821,95,Sold,,,http://www.redfin.com/CA/Berkeley/1329-66th-St-94702/unit-A/home/115705464,EBRD/CCAR/Bay East,40784480,N,Y,37.8499474,-122.2813788
PAST SALE,,Multi-Family (2-4 Unit),6140 Market St,Oakland,CA,94608,875000,7,6.0,,4274,5794,1954,,205,,,,,http://www.redfin.com/CA/Oakland/6140-Market-St-94608/home/1910378,,,N,Y,37.8460315,-122.2762469
PAST SALE,June-12-2017,Single Family Residential,580 66Th St,Oakland,CA,94609,1300000,3,2.5,Berkeley Border,1463,,2008,240,889,175,Sold,,,http://www.redfin.com/CA/Oakland/580-66th-St-94609/home/1288876,EBRD/CCAR/Bay East,40780813,N,Y,37.852018,-122.262881
PAST SALE,July-14-2017,Condo/Co-op,1329 66th St Unit B,Berkeley,CA,94702,765000,2,2.0,Berkeley,845,4914,1926,208,905,95,Sold,,,http://www.redfin.com/CA/Berkeley/1329-66th-St-94702/unit-B/home/142501045,EBRD/CCAR/Bay East,40789450,N,Y,37.8499474,-122.2813788
PAST SALE,,Multi-Family (2-4 Unit),6521 San Pablo Ave,Oakland,CA,94608,5510000,21,22.0,,17439,6133,2010,,316,,,,,http://www.redfin.com/CA/Oakland/6521-San-Pablo-Ave-94608/home/22691195,,,N,Y,37.848402,-122.2858409
PAST SALE,July-3-2017,Single Family Residential,654 Fairview St,Oakland,CA,94609,850000,2,1.0,Oak/Berk Border,911,2520,1906,219,933,,Sold,,,http://www.redfin.com/CA/Oakland/654-Fairview-St-94609/home/1936326,EBRD/CCAR/Bay East,40784449,N,Y,37.8513153,-122.2644437
PAST SALE,July-6-2017,Single Family Residential,6319 Herzog St,Oakland,CA,94608,502000,1,1.0,Oakland,598,1360,1925,216,839,,Sold,,,http://www.redfin.com/CA/Oakland/6319-Herzog-St-94608/home/1095800,EBRD/CCAR/Bay East,40772029,N,Y,37.8468386,-122.2832189
PAST SALE,,Single Family Residential,6426 Herzog St,Oakland,CA,94608,1020000,3,2.0,,1852,4000,1908,,551,,,,,http://www.redfin.com/CA/Oakland/6426-Herzog-St-94608/home/1040348,,,N,Y,37.8477039,-122.283012
PAST SALE,,Single Family Residential,1064 67th St,Oakland,CA,94608,675000,2,1.0,,909,4000,1910,,743,,,,,http://www.redfin.com/CA/Oakland/1064-67th-St-94608/home/1670512,,,N,Y,37.8502978,-122.2841131
PAST SALE,August-22-2017,Single Family Residential,3116 Ellis St,Berkeley,CA,94703,588000,1,1.0,Berkeley,560,,1905,169,1050,133,Sold,,,http://www.redfin.com/CA/Berkeley/3116-Ellis-St-94703/home/17188080,EBRD/CCAR/Bay East,40788918,N,Y,37.8515548,-122.2731768
PAST SALE,August-23-2017,Multi-Family (2-4 Unit),787 65th St,Oakland,CA,94609,1720787,4,3.0,N Oakland,2415,4800,1913,168,713,,Sold,,,http://www.redfin.com/CA/Oakland/787-65th-St-94609/home/142965964,EBRD/CCAR/Bay East,40790396,N,Y,37.8497974,-122.268181
PAST SALE,April-28-2017,Single Family Residential,1317 67th St,Berkeley,CA,94702,875000,4,3.0,Berkeley,1945,4410,1925,285,450,,Sold,,,http://www.redfin.com/CA/Berkeley/1317-67th-St-94702/home/1191000,EBRD/CCAR/Bay East,40760592,N,Y,37.8505828,-122.2821111
PAST SALE,February-2-2018,Single Family Residential,804 Page St,Berkeley,CA,94710,1125000,3,2.0,Oceanview,1500,,2017,5,750,,Sold,,,http://www.redfin.com/CA/Berkeley/804-Page-St-94710/home/144403934,EBRD/CCAR/Bay East,40804795,N,Y,37.8759648,-122.3013078
PAST SALE,August-28-2017,Single Family Residential,,Berkeley,CA,94703,1070000,3,2.0,Berkeley,1446,5130,1912,163,740,,Sold,,,http://www.redfin.com/CA/Berkeley/Undisclosed-address-94703/home/1905543,EBRD/CCAR/Bay East,40790645,N,Y,37.84643,-122.2734439
PAST SALE,August-18-2017,Single Family Residential,1312 67th St,Berkeley,CA,94702,950000,3,1.0,Berkeley,1078,5320,1924,173,881,,Sold,,,http://www.redfin.com/CA/Berkeley/1312-67th-St-94702/home/1713763,EBRD/CCAR/Bay East,40789464,N,Y,37.8502506,-122.2824215
PAST SALE,September-6-2017,Condo/Co-op,527 66Th St,Oakland,CA,94609,800000,1,1.0,N Oakland,1100,,1923,154,727,225,Sold,,,http://www.redfin.com/CA/Oakland/527-66th-St-94609/home/1038599,EBRD/CCAR/Bay East,40792316,N,Y,37.8517402,-122.2610561
PAST SALE,September-15-2017,Single Family Residential,661 62nd St,Oakland,CA,94609,900000,2,2.0,Oakland,1288,4160,1910,145,699,,Sold,,,http://www.redfin.com/CA/Oakland/661-62nd-St-94609/home/1482699,San Francisco MLS,462054,N,Y,37.8476007,-122.2674891
PAST SALE,November-6-2017,Multi-Family (2-4 Unit),828 60Th St,Oakland,CA,94608,950000,5,2.0,Oakland,2626,5400,1910,93,362,,Sold,,,http://www.redfin.com/CA/Oakland/828-60th-St-94608/home/143931015,EBRD/CCAR/Bay East,40797530,N,Y,37.8450319,-122.2717819
PAST SALE,October-5-2017,Multi-Family (2-4 Unit),1650 Tyler St,Berkeley,CA,94703,1381500,8,4.0,South Berkeley,3982,6750,1979,125,347,,Sold,,,http://www.redfin.com/CA/Berkeley/1650-Tyler-St-94703/home/1419098,EBRD/CCAR/Bay East,40793371,N,Y,37.8526692,-122.2748803
PAST SALE,November-27-2017,Single Family Residential,1332 67th St,Berkeley,CA,94702,808000,3,2.5,Berkeley/Albany,1689,4446,1926,72,478,,Sold,,,http://www.redfin.com/CA/Berkeley/1332-67th-St-94702/home/1458346,San Francisco MLS,464674,N,Y,37.8503543,-122.2814984
PAST SALE,,Single Family Residential,1822 63rd St,Berkeley,CA,94703,925000,2,1.0,,1120,5400,1907,,826,,,,,http://www.redfin.com/CA/Berkeley/1822-63rd-St-94703/home/653866,,,N,Y,37.8477792,-122.2700592
PAST SALE,November-8-2017,Single Family Residential,1830 Woolsey St,Berkeley,CA,94703,900000,2,1.0,Berkeley,890,1680,1925,91,1011,,Sold,,,http://www.redfin.com/CA/Berkeley/1830-Woolsey-St-94703/home/2006269,EBRD/CCAR/Bay East,40797669,N,Y,37.851421,-122.2711702
PAST SALE,December-12-2017,Single Family Residential,1164 66th St,Oakland,CA,94608,700000,2,1.0,Nobe,793,698,2017,57,883,310,Sold,,,http://www.redfin.com/CA/Oakland/1164-66th-St-94608/home/143937343,EBRD/CCAR/Bay East,40798805,N,Y,37.8490232,-122.2875141
PAST SALE,November-30-2017,Single Family Residential,1048 62Nd St,Oakland,CA,94608,860000,3,1.0,North Oakland,1148,8400,1922,69,749,,Sold,,,http://www.redfin.com/CA/Oakland/1048-62nd-St-94608/home/1688456,EBRD/CCAR/Bay East,40800342,N,Y,37.8455823,-122.2815892
PAST SALE,,Multi-Family (2-4 Unit),3146 King St,Berkeley,CA,94703,1900000,9,7.0,,4440,4200,1908,,428,,,,,http://www.redfin.com/CA/Berkeley/3146-King-St-94703/home/2030249,,,N,Y,37.8504717,-122.2740404
PAST SALE,January-16-2018,Single Family Residential,1227 Ashby,Berkeley,CA,94702,638000,3,2.0,Berkeley/Albany,1500,4550,1912,22,425,,Sold,,,http://www.redfin.com/CA/Berkeley/1227-Ashby-Ave-94702/home/1881880,San Francisco MLS,459054,N,Y,37.8525596,-122.2857153
PAST SALE,May-25-2017,Single Family Residential,1230 Queens Rd,Berkeley,CA,94708,1300000,4,2.0,Berkeley Hills,2247,5750,1949,258,579,,Sold,,,http://www.redfin.com/CA/Berkeley/1230-Queens-Rd-94708/home/1915829,EBRD/CCAR/Bay East,40777698,N,Y,37.8874674,-122.2539256
PAST SALE,April-9-2017,Single Family Residential,7020 Westmoorland Dr,Berkeley,CA,94705,1350000,4,3.5,Claremont Hills,3816,9146,1995,304,354,,Sold,,,http://www.redfin.com/CA/Berkeley/7020-Westmoorland-Dr-94705/home/1881593,EBRD/CCAR/Bay East,40772240,N,Y,37.8592333,-122.2242557
PAST SALE,,Vacant Land,1995 Tunnel Rd,Berkeley,CA,94705,120000,,,,,3800,,,,,,,,http://www.redfin.com/CA/Berkeley/1995-Tunnel-Rd-94705/home/22708829,,,N,Y,37.860313,-122.221322
PAST SALE,,Single Family Residential,6928 Bristol Dr,Berkeley,CA,94705,1300000,4,4.0,,3759,5199,2000,,346,,,,,http://www.redfin.com/CA/Berkeley/6928-Bristol-Dr-94705/home/1478321,,,N,Y,37.8578283,-122.2233367
PAST SALE,July-27-2017,Single Family Residential,708 Grizzly Terrace Dr,Oakland,CA,94611,1199000,4,2.5,Grizzly Pk Est.,3400,12440,1995,195,353,,Sold,,,http://www.redfin.com/CA/Oakland/708-Grizzly-Terrace-Dr-94611/home/1958221,EBRD/CCAR/Bay East,40776440,N,Y,37.8602867,-122.2158167
PAST SALE,September-27-2017,Single Family Residential,1 Dawn St,Berkeley,CA,94705,2500000,5,5.5,Claremont Hills,5435,36636,1995,133,460,,Sold,,,http://www.redfin.com/CA/Berkeley/1-Dawn-St-94705/home/143151291,EBRD/CCAR/Bay East,40792465,N,Y,37.8618401,-122.2277705
PAST SALE,September-11-2017,Single Family Residential,6850 Charing Cross,Berkeley,CA,94705-1719,1200000,4,3.5,Claremont Hills,3596,11162,2001,149,334,,Sold,,,http://www.redfin.com/CA/Berkeley/6850-Charing-Cross-Rd-94705/home/1728800,EBRD/CCAR/Bay East,40787767,N,Y,37.8553025,-122.2226372
PAST SALE,,Vacant Land,1107 Alvarado Rd,Berkeley,CA,94705,403000,,,,,5979,,,,,,,,http://www.redfin.com/CA/Berkeley/1107-Alvarado-Rd-94705/home/22721367,,,N,Y,37.862134,-122.23296
PAST SALE,December-15-2017,Condo/Co-op,2700 Le Conte Ave #203,Berkeley,CA,94709,678000,1,1.0,Oak Tops,709,,1973,54,956,399,Sold,,,http://www.redfin.com/CA/Berkeley/2700-Le-Conte-Ave-94709/unit-203/home/50249231,EBRD/CCAR/Bay East,40783169,N,Y,37.8771263,-122.2569162
PAST SALE,June-6-2017,Single Family Residential,1701 62Nd St,Berkeley,CA,94703,672000,2,1.0,Berkeley,1020,2720,1923,246,659,,Sold,,,http://www.redfin.com/CA/Berkeley/1701-62nd-St-94703/home/1682238,EBRD/CCAR/Bay East,40777228,N,Y,37.8468718,-122.2730545
PAST SALE,June-28-2017,Single Family Residential,2750 Mcgee Ave,Berkeley,CA,94703,832000,3,1.0,Central Berkeley,1330,4200,1921,224,626,,Sold,,,http://www.redfin.com/CA/Berkeley/2750-McGee-Ave-94703/home/663456,EBRD/CCAR/Bay East,40785403,N,Y,37.8578489,-122.2757326
PAST SALE,July-20-2017,Multi-Family (2-4 Unit),3341 King St,Berkeley,CA,94703,700000,2,2.0,Lorin,1824,5000,1924,202,384,,Sold,,,http://www.redfin.com/CA/Berkeley/3341-King-St-94703/home/633012,EBRD/CCAR/Bay East,40783950,N,Y,37.847072,-122.273018
PAST SALE,August-2-2017,Condo/Co-op,1175 66Th St,Oakland,CA,94608,905000,2,2.0,Nobe,1528,,2006,189,592,299,Sold,,,http://www.redfin.com/CA/Oakland/1175-66th-St-94608/home/12116481,EBRD/CCAR/Bay East,40785618,N,Y,37.8486375,-122.2868371
PAST SALE,,Multi-Family (2-4 Unit),470 65th St,Oakland,CA,94609,1605000,2,2.0,,2176,4240,1924,,738,,,,,http://www.redfin.com/CA/Oakland/470-65th-St-94609/home/1095746,,,N,Y,37.8513234,-122.259544
PAST SALE,,Multi-Family (2-4 Unit),822 60th St,Oakland,CA,94608,625000,5,2.0,,2634,5400,1900,,237,,,,,http://www.redfin.com/CA/Oakland/822-60th-St-94608/home/1855350,,,N,Y,37.8452367,-122.2716121
PAST SALE,August-22-2017,Condo/Co-op,3116 Ellis St Unit C,Berkeley,CA,94703,588000,1,1.0,Berkeley,560,,1905,169,1050,133,Sold,,,http://www.redfin.com/CA/Berkeley/3116-Ellis-St-94703/unit-C/home/12118537,EBRD/CCAR/Bay East,40788919,N,Y,37.8515548,-122.2731768
PAST SALE,August-21-2017,Single Family Residential,1211 Ward,Berkeley,CA,94702,797000,3,2.0,South Berkeley,1185,3500,1922,170,673,,Sold,,,http://www.redfin.com/CA/Berkeley/1211-Ward-St-94702/home/1938267,EBRD/CCAR/Bay East,40787858,N,Y,37.8573586,-122.2857778
PAST SALE,,Condo/Co-op,1905 Parker St,Berkeley,CA,94704,550000,1,1.0,,665,,1930,,827,,,,,http://www.redfin.com/CA/Berkeley/1905-Parker-St-94704/home/95473173,,,N,Y,37.8617475,-122.2715105
PAST SALE,August-31-2017,Single Family Residential,1064 Alcatraz Ave,Oakland,CA,94608,1160000,3,2.0,Golden Gate,1377,4200,1910,160,842,,Sold,,,http://www.redfin.com/CA/Oakland/1064-Alcatraz-Ave-94608/home/1030241,EBRD/CCAR/Bay East,40792662,N,Y,37.847443,-122.2827209
PAST SALE,September-8-2017,Single Family Residential,1106 Besito Ave,Berkeley,CA,94705,1105000,3,3.0,Claremont Hills,1947,9813,1996,152,568,,Sold,,,http://www.redfin.com/CA/Berkeley/1106-Besito-Ave-94705/home/632417,EBRD/CCAR/Bay East,40781566,N,Y,37.8610374,-122.2319626
PAST SALE,,Vacant Land,530 GRAVATT DR,OAKLAND,CA,94603,265000,,,,,9189,,,,,,,,http://www.redfin.com/CA/OAKLAND/530-GRAVATT-DR-94603/home/50263626,,,N,Y,37.860208,-122.232233
PAST SALE,,Multi-Family (2-4 Unit),1522 Woolsey St,Berkeley,CA,94703,1674500,13,6.0,,4590,6800,1962,,365,,,,,http://www.redfin.com/CA/Berkeley/1522-Woolsey-St-94703/home/2030250,,,N,Y,37.8504622,-122.2775193
PAST SALE,September-15-2017,Single Family Residential,2743 ALCATRAZ Ave,Berkeley,CA,94705,2500000,4,2.5,Claremont,2922,7832,1907,145,856,,Sold,,,http://www.redfin.com/CA/Berkeley/2743-Alcatraz-Ave-94705/home/1995778,EBRD/CCAR/Bay East,40797244,N,Y,37.8520355,-122.2506036
PAST SALE,July-26-2017,Single Family Residential,99 Evergreen Ln,Berkeley,CA,94705,1350000,4,3.5,Claremont Hills,2562,8512,1962,196,527,,Sold,,,http://www.redfin.com/CA/Berkeley/99-Evergreen-Ln-94705/home/1650308,EBRD/CCAR/Bay East,40783439,N,Y,37.8608003,-122.2394106
PAST SALE,September-26-2017,Single Family Residential,40 N Hill Ct,Oakland,CA,94618,3100000,4,3.5,Hiller Highlands,5390,21840,1994,134,575,13,Sold,,,http://www.redfin.com/CA/Oakland/40-N-Hill-Ct-94618/home/1197839,EBRD/CCAR/Bay East,40788016,N,Y,37.854227,-122.234101
PAST SALE,,Vacant Land,968 63rd St,Oakland,CA,94608,400000,,,,,5334,,,,,,,,http://www.redfin.com/CA/Oakland/968-63rd-St-94608/home/22678632,,,N,Y,37.847123,-122.278673
PAST SALE,October-3-2017,Single Family Residential,1894 Harmon St,Berkeley,CA,94703,925000,2,1.0,BERK - Berkeley,1130,5280,1925,127,819,,Sold,,,http://www.redfin.com/CA/Berkeley/1894-Harmon-St-94703/home/749830,CRMLS,PW17211708,N,Y,37.849594,-122.270012
PAST SALE,September-26-2017,Multi-Family (2-4 Unit),1707 63rd St,Berkeley,CA,94703,1358000,6,4.0,Berkeley,2950,6750,1912,134,460,,Sold,,,http://www.redfin.com/CA/Berkeley/1707-63rd-St-94703/home/1620204,EBRD/CCAR/Bay East,40793112,N,Y,37.8478499,-122.2728962
PAST SALE,February-22-2017,Single Family Residential,2435 Bonar St,Berkeley,CA,94702,1300000,3,2.0,Central Berkeley,1581,3219,1919,350,822,,Sold,,,http://www.redfin.com/CA/Berkeley/2435-Bonar-St-94702/home/671775,EBRD/CCAR/Bay East,40767189,N,Y,37.862167,-122.2857105
PAST SALE,February-23-2017,Single Family Residential,1680 GRAND VIEW Dr,Berkeley,CA,94705,1450000,5,3.5,Claremont Hills,4000,18914,1999,349,363,,Sold,,,http://www.redfin.com/CA/Berkeley/1680-Grand-View-Dr-94705/home/1881544,EBRD/CCAR/Bay East,40766181,N,Y,37.8563527,-122.2297618
PAST SALE,December-8-2017,Single Family Residential,2947 Linden Ave,Berkeley,CA,94705,2200000,4,3.0,Elmwood,2531,3330,1989,61,869,,Sold,,,http://www.redfin.com/CA/Berkeley/2947-Linden-Ave-94705/home/1498037,EBRD/CCAR/Bay East,40803184,N,Y,37.8569779,-122.2494383
PAST SALE,,Single Family Residential,41 Evergreen Ln,Berkeley,CA,94705,2275000,3,2.0,,3525,9390,2003,,645,,,,,http://www.redfin.com/CA/Berkeley/41-Evergreen-Ln-94705/home/1232883,,,N,Y,37.8600774,-122.2407662
PAST SALE,March-31-2017,Single Family Residential,1240 Carrison St,BERKELEY,CA,94702,735000,2,1.0,BERKELEY,1032,4356,1908,313,712,,Sold,,,http://www.redfin.com/CA/Berkeley/1240-Carrison-St-94702/home/2030273,MLSListings,ML81640653,N,Y,37.851479,-122.284412
PAST SALE,November-7-2017,Single Family Residential,6 Hillcrest Ct,Berkeley,CA,94705,2600000,5,4.5,Claremont,3050,6864,1914,92,852,,Sold,,,http://www.redfin.com/CA/Berkeley/6-Hillcrest-Ct-94705/home/708867,EBRD/CCAR/Bay East,40799438,N,Y,37.8532972,-122.2476678
PAST SALE,,Single Family Residential,1634 62nd St,Berkeley,CA,94703,1510000,6,4.0,,4174,6750,1920,,362,,,,,http://www.redfin.com/CA/Berkeley/1634-62nd-St-94703/home/1309059,,,N,Y,37.846298,-122.273838
PAST SALE,March-23-2017,Multi-Family (2-4 Unit),882 61St St,Oakland,CA,94608,700000,5,2.5,Oakland,1942,6750,1901,321,360,,Sold,,,http://www.redfin.com/CA/Oakland/882-61st-St-94608/home/997687,EBRD/CCAR/Bay East,40768052,N,Y,37.8457888,-122.2744535
PAST SALE,December-13-2017,Single Family Residential,1422 Fairview,Berkeley,CA,94702-2716,945000,3,1.0,South Berkeley,1012,4440,1944,56,934,,Sold,,,http://www.redfin.com/CA/Berkeley/1422-Fairview-St-94702/home/1484745,EBRD/CCAR/Bay East,40803083,N,Y,37.8493281,-122.2788644
PAST SALE,December-22-2017,Single Family Residential,2800 Piedmont Ave,Berkeley,CA,94705,1615000,2,2.0,Elmwood,1576,2560,1907,47,1025,,Sold,,,http://www.redfin.com/CA/Berkeley/2800-Piedmont-Ave-94705/home/1776940,EBRD/CCAR/Bay East,40804658,N,Y,37.8598029,-122.2513833
PAST SALE,,Multi-Family (2-4 Unit),2012 Stuart St,Berkeley,CA,94703,2050000,10,5.0,,3705,5180,1963,,553,,,,,http://www.redfin.com/CA/Berkeley/2012-Stuart-St-94703/home/1871153,,,N,Y,37.8579841,-122.2687306
PAST SALE,January-18-2018,Single Family Residential,973 63rd St,Oakland,CA,94608,665000,2,2.0,Alameda County,864,3001,1912,20,770,,Sold,,,http://www.redfin.com/CA/Oakland/973-63rd-St-94608/home/1962388,BAREIS,21720459,N,Y,37.8466762,-122.2788584
PAST SALE,,Single Family Residential,1815 Seventh St,Berkeley,CA,94710,1675000,3,2.0,,1884,6750,1906,,889,,,,,http://www.redfin.com/CA/Berkeley/1815-Seventh-St-94710/home/1864719,,,N,Y,37.8702759,-122.2970406
PAST SALE,June-30-2017,Condo/Co-op,1912 7Th St Unit B,Berkeley,CA,94710,725000,2,1.0,West Berkeley,1057,,2008,222,686,300,Sold,,,http://www.redfin.com/CA/Berkeley/1912-Seventh-St-94710/unit-B/home/22962265,EBRD/CCAR/Bay East,40781746,N,Y,37.868983,-122.2971305
PAST SALE,August-3-2017,Single Family Residential,1405 Santa Fe Ave,Berkeley,CA,94702,958000,3,1.0,Westbrae,940,5000,1918,188,1019,,Sold,,,http://www.redfin.com/CA/Berkeley/1405-Santa-Fe-Ave-94702/home/621455,EBRD/CCAR/Bay East,40787209,N,Y,37.8791687,-122.2915401
PAST SALE,,Condo/Co-op,1450 Fourth St Apt 7,Berkeley,CA,94710,550000,1,1.0,,1452,,1992,,379,,,,,http://www.redfin.com/CA/Berkeley/1450-Fourth-St-94710/unit-7/home/12352359,,,N,Y,37.8753551,-122.302975
PAST SALE,,Single Family Residential,1340 Eighth St,Berkeley,CA,94710,1001000,3,3.0,,1570,4685,1910,,638,,,,,http://www.redfin.com/CA/Berkeley/1340-Eighth-St-94710/home/1518811,,,N,Y,37.8784039,-122.2989633
PAST SALE,November-20-2017,Multi-Family (2-4 Unit),1606 10Th St,Berkeley,CA,94710,725000,3,2.0,Berkeley,1704,4777,1924,79,425,,Sold,,,http://www.redfin.com/CA/Berkeley/1606-Tenth-St-94710/home/574405,EBRD/CCAR/Bay East,40791550,N,Y,37.8745199,-122.295455
PAST SALE,November-27-2017,Single Family Residential,1500 5Th St,Berkeley,CA,94710,800000,1,1.0,Ocean View,653,2400,1914,72,1225,,Sold,,,http://www.redfin.com/CA/BERKELEY/1500-5TH-ST-94710/home/1972424,EBRD/CCAR/Bay East,40800996,N,Y,37.874861,-122.301345
PAST SALE,December-15-2017,Single Family Residential,2335 5Th St,Berkeley,CA,94710,785000,3,1.0,West Berkeley,987,4624,1905,54,795,,Sold,,,http://www.redfin.com/CA/Berkeley/2335-Fifth-St-94710/home/1165502,EBRD/CCAR/Bay East,40802090,N,Y,37.862137,-122.2967856
PAST SALE,March-11-2017,Condo/Co-op,1189 66th St,Oakland,CA,94608,740000,2,2.0,Nobe,1521,,2006,333,487,286,Sold,,,http://www.redfin.com/CA/Oakland/1189-66th-St-94608/home/12116493,EBRD/CCAR/Bay East,40767841,N,Y,37.8485736,-122.2873312
PAST SALE,August-24-2017,Single Family Residential,6959 Charing Cross Rd,Berkeley,CA,94705,1360000,4,3.5,Hiller Highlands,3824,5069,2003,167,356,,Sold,,,http://www.redfin.com/CA/Berkeley/6959-Charing-Cross-Rd-94705/home/632860,EBRD/CCAR/Bay East,40788958,N,Y,37.8571993,-122.2229343
PAST SALE,November-23-2017,Single Family Residential,6822 Charing Cross,Berkeley,CA,94705,1100000,3,2.5,Claremont Hills,2534,5000,1996,76,434,,Sold,,,http://www.redfin.com/CA/Berkeley/6822-Charing-Cross-Rd-94705/home/1497724,EBRD/CCAR/Bay East,40795918,N,Y,37.8554782,-122.2232516
PAST SALE,December-13-2017,Single Family Residential,2814 Mathews St,Berkeley,CA,94702,825000,2,1.5,Berkeley/Albany,1314,3500,1918,56,628,,Sold,,,http://www.redfin.com/CA/Berkeley/2814-Mathews-St-94702/home/659207,San Francisco MLS,464548,N,Y,37.8545357,-122.2858236
PAST SALE,March-17-2017,Single Family Residential,1000 Page St,Berkeley,CA,94710,1050000,3,2.0,Ocean View,1128,4200,1927,327,931,,Sold,,,http://www.redfin.com/CA/Berkeley/1000-Page-St-94710/home/1199933,EBRD/CCAR/Bay East,40769744,N,Y,37.8769555,-122.2968928
PAST SALE,May-1-2017,Single Family Residential,845 Page St,Berkeley,CA,94710,961000,2,2.0,Berkeley,1192,3200,1928,282,806,,Sold,,,http://www.redfin.com/CA/Berkeley/845-Page-St-94710/home/1467254,EBRD/CCAR/Bay East,40769677,N,Y,37.8767883,-122.2996644
PAST SALE,July-18-2017,Multi-Family (2-4 Unit),2422 5th St,Berkeley,CA,94710,1400000,4,2.0,West Berkeley,1652,6250,1914,204,847,,Sold,,,http://www.redfin.com/CA/Berkeley/2422-5th-St-94710/home/113714935,EBRD/CCAR/Bay East,40776808,N,Y,37.860547026,-122.2965558
PAST SALE,June-30-2017,Single Family Residential,1719 Tenth St,Berkeley,CA,94710,1470000,3,2.0,Oceanview,1670,4050,1926,222,880,,Sold,,,http://www.redfin.com/CA/Berkeley/1719-Tenth-St-94710/home/1651483,EBRD/CCAR/Bay East,40784150,N,Y,37.872578,-122.294147
PAST SALE,,Single Family Residential,2010 9TH ST,BERKELEY,CA,94710,1091000,3,2.0,,1413,,2013,,772,,,,,http://www.redfin.com/CA/BERKELEY/2010-9TH-ST-94710/home/57180186,,,N,Y,37.868112,-122.294605
PAST SALE,,Single Family Residential,1911 9TH ST,BERKELEY,CA,94710,1300000,3,2.0,,1807,,2014,,719,,,,,http://www.redfin.com/CA/BERKELEY/1911-9TH-ST-94710/home/144014223,,,N,Y,37.869578,-122.294324
PAST SALE,September-7-2017,Single Family Residential,2317 6Th St,Berkeley,CA,94710,1150000,2,2.0,West Berkeley,1134,6000,1923,153,1014,,Sold,,,http://www.redfin.com/CA/Berkeley/2317-6th-St-94710/home/1485019,EBRD/CCAR/Bay East,40791346,N,Y,37.862898,-122.295666
PAST SALE,,Multi-Family (2-4 Unit),1613 6TH ST,BERKELEY,CA,94710,2445000,13,7.0,,5136,7350,1962,,476,,,,,http://www.redfin.com/CA/BERKELEY/1613-6TH-ST-94710/home/1498223,,,N,Y,37.873661,-122.299134
PAST SALE,,Multi-Family (2-4 Unit),1412 9TH ST,BERKELEY,CA,94710,1875000,12,8.0,,5346,8450,1958,,351,,,,,http://www.redfin.com/CA/BERKELEY/1412-9TH-ST-94710/home/1566244,,,N,Y,37.877638,-122.297686
PAST SALE,,Single Family Residential,2424 Eighth St,Berkeley,CA,94710,1230000,4,1.0,,1491,6750,1915,,825,,,,,http://www.redfin.com/CA/Berkeley/2424-Eighth-St-94710/home/669668,,,N,Y,37.8612978,-122.2934847
PAST SALE,May-11-2017,Condo/Co-op,2415 8TH St,Berkeley,CA,94710,550000,2,1.0,West Berkeley,1100,6500,1904,272,500,,Sold,,,http://www.redfin.com/CA/Berkeley/2415-Eighth-St-94710/home/1807869,EBRD/CCAR/Bay East,40774227,N,Y,37.8617359,-122.2931162
PAST SALE,October-23-2017,Single Family Residential,1623 Ninth St,Berkeley,CA,94710,1440000,3,2.0,West Berkeley,1411,5200,1924,107,1021,,Sold,,,http://www.redfin.com/CA/BERKELEY/1623-9TH-ST-94710/home/1548873,EBRD/CCAR/Bay East,40797579,N,Y,37.873972,-122.295758
PAST SALE,May-16-2017,Single Family Residential,2118 8th St,Berkeley,CA,94710,1600000,5,4.0,West Berkeley,2891,5400,1906,267,553,,Sold,,,http://www.redfin.com/CA/Berkeley/2118-Eighth-St-94710/home/1644013,EBRD/CCAR/Bay East,40772034,N,Y,37.8662846,-122.295097
PAST SALE,October-31-2017,Single Family Residential,1132 Cedar St,Berkeley,CA,94702-1310,850000,2,1.0,Regents Park,870,5000,1925,99,977,,Sold,,,http://www.redfin.com/CA/Berkeley/1132-Cedar-St-94702/home/1911931,EBRD/CCAR/Bay East,40799206,N,Y,37.8752686,-122.2924228
PAST SALE,August-18-2017,Single Family Residential,1613 5th St,Berkeley,CA,94710-1714,900000,2,1.0,West Berkeley,980,6110,1987,173,918,,Sold,,,http://www.redfin.com/CA/BERKELEY/1613-5TH-ST-94710/home/674837,EBRD/CCAR/Bay East,40790651,N,Y,37.873378,-122.300281
PAST SALE,December-19-2017,Single Family Residential,806 Page St,Berkeley,CA,94710,1075000,3,2.0,Oceanview,1300,,2017,50,827,,Sold,,,http://www.redfin.com/CA/Berkeley/806-Page-St-94710/home/144278068,EBRD/CCAR/Bay East,40803127,N,Y,37.875979,-122.3012369
PAST SALE,January-3-2018,Single Family Residential,2413 C 5th,Berkeley,CA,94710,1610000,1,2.0,West Berkeley,1895,,2000,35,850,250,Sold,,,http://www.redfin.com/CA/Berkeley/2413-Fifth-St-94710/unit-A/home/22987600,EBRD/CCAR/Bay East,40803260,N,Y,37.861012,-122.296233
PAST SALE,,Multi-Family (2-4 Unit),2233 9TH ST,BERKELEY,CA,94710,1780000,8,6.0,,3888,6500,1958,,458,,,,,http://www.redfin.com/CA/BERKELEY/2233-9TH-ST-94710/home/1644024,,,N,Y,37.864916,-122.292823
PAST SALE,January-12-2018,Single Family Residential,808 Page St,Berkeley,CA,94710,1050000,3,2.0,Oceanview,1300,,2017,26,808,,Sold,,,http://www.redfin.com/CA/Berkeley/808-Page-St-94710/home/144108249,EBRD/CCAR/Bay East,40801054,N,Y,37.8759933,-122.301166
PAST SALE,January-26-2018,Single Family Residential,1011 Bancroft Way,Berkeley,CA,94710,1000000,3,2.0,Berkeley/Albany,1166,4000,1907,12,858,,Sold,,,http://www.redfin.com/CA/Berkeley/1011-Bancroft-Way-94710/home/670219,San Francisco MLS,465109,N,Y,37.864456,-122.2924349
PAST SALE,February-28-2017,Single Family Residential,1216 Peralta Ave,Berkeley,CA,94706,852000,4,2.0,Berkeley/Albany,1411,4025,1923,344,604,,Sold,,,http://www.redfin.com/CA/Berkeley/1216-Peralta-Ave-94706/home/1467339,San Francisco MLS,453721,N,Y,37.8819321,-122.2876646
PAST SALE,August-23-2017,Single Family Residential,10 Northgate Ave,Berkeley,CA,94708,1400000,3,2.5,North Berkeley,1853,7784,1975,168,756,,Sold,,,http://www.redfin.com/CA/Berkeley/10-Northgate-Ave-94708/home/681285,EBRD/CCAR/Bay East,40791842,N,Y,37.8873475,-122.2560765
PAST SALE,,Vacant Land,Grizzly Peak Blvd,Berkeley,CA,94708,305000,,,,,6996,,,,,,,,http://www.redfin.com/CA/Berkeley/Grizzly-Peak-Blvd-94708/home/22677243,,,N,Y,37.882669,-122.24687
PAST SALE,June-7-2017,Single Family Residential,1444 Glendale Ave,Berkeley,CA,94708,1025000,4,3.0,Berkeley Hills,1803,5832,1940,245,568,,Sold,,,http://www.redfin.com/CA/Berkeley/1444-Glendale-Ave-94708/home/689934,EBRD/CCAR/Bay East,40777189,N,Y,37.8828453,-122.2538177
PAST SALE,March-21-2017,Single Family Residential,1324 Santa Fe Ave,Berkeley,CA,94702,968000,3,2.0,Berkeley,2097,2436,1939,323,462,,Sold,,,http://www.redfin.com/CA/Berkeley/1324-Santa-Fe-Ave-94702/home/789631,EBRD/CCAR/Bay East,40761464,N,Y,37.8803219,-122.2915209
PAST SALE,April-19-2017,Single Family Residential,1326 Cornell Ave,Berkeley,CA,94702,1050000,2,1.0,Westbrae,888,3800,1922,294,1182,,Sold,,,http://www.redfin.com/CA/Berkeley/1326-Cornell-Ave-94702/home/1459089,EBRD/CCAR/Bay East,40771856,N,Y,37.879996,-122.293158
PAST SALE,,Multi-Family (2-4 Unit),1411 Northside Ave,Berkeley,CA,94702,1150000,4,3.0,,2872,5300,1965,,400,,,,,http://www.redfin.com/CA/Berkeley/1411-Northside-Ave-94702/home/712914,,,N,Y,37.8784995,-122.2895123
PAST SALE,June-2-2017,Single Family Residential,1225 Kains Ave,Berkeley,CA,94706,1290000,3,2.0,Westbrae,1455,5000,1932,250,887,,Sold,,,http://www.redfin.com/CA/Berkeley/1225-Kains-Ave-94706/home/686959,EBRD/CCAR/Bay East,40779653,N,Y,37.8815584,-122.29492
PAST SALE,April-25-2017,Single Family Residential,1037 Ventura Ave,Albany,CA,94706,1200000,2,1.5,Albany,1577,4050,1941,288,761,,Sold,,,http://www.redfin.com/CA/Albany/1037-Ventura-Ave-94706/home/1644679,EBRD/CCAR/Bay East,40773285,N,Y,37.8854661,-122.2838459
PAST SALE,,Multi-Family (2-4 Unit),1310 Acton St,Berkeley,CA,94706,350000,8,4.0,,2623,6700,1944,,133,,,,,http://www.redfin.com/CA/Berkeley/1310-Acton-St-94706/home/1704735,,,N,Y,37.8819902,-122.2852463
PAST SALE,August-23-2017,Single Family Residential,1336 Ordway St,Berkeley,CA,94702,1308000,3,2.0,Westbrae,1642,4480,1940,168,797,,Sold,,,http://www.redfin.com/CA/Berkeley/1336-Ordway-St-94702/home/2041036,EBRD/CCAR/Bay East,40790029,N,Y,37.8794855,-122.2874102
PAST SALE,October-26-2017,Single Family Residential,1147 CAMELIA St,Berkeley,CA,94702,1430000,3,2.5,Westbrae,1901,2520,1939,104,752,,Sold,,,http://www.redfin.com/CA/Berkeley/1147-Camelia-St-94702/home/1630602,EBRD/CCAR/Bay East,40795422,N,Y,37.8793524,-122.2930628
PAST SALE,September-14-2017,Single Family Residential,1338 Ordway St,Berkeley,CA,94702,1104000,3,1.0,Westbrae,1290,4480,1925,146,856,,Sold,,,http://www.redfin.com/CA/Berkeley/1338-Ordway-St-94702/home/1947513,EBRD/CCAR/Bay East,40792671,N,Y,37.8793944,-122.2874549
PAST SALE,November-3-2017,Multi-Family (2-4 Unit),1375 Curtis St,Berkeley,CA,94702,1300000,6,4.0,Berkeley,2964,3800,1961,96,439,,Sold,,,http://www.redfin.com/CA/Berkeley/1375-Curtis-St-94702/home/1003926,EBRD/CCAR/Bay East,40786896,N,Y,37.8790506,-122.2906575
PAST SALE,October-13-2017,Single Family Residential,930 Ordway St,Albany,CA,94706,1240000,3,1.5,Berkeley/Albany,1531,4508,1925,117,810,,Sold,,,http://www.redfin.com/CA/Albany/930-Ordway-St-94706/home/708297,San Francisco MLS,462176,N,Y,37.8896299,-122.284325
PAST SALE,October-20-2017,Single Family Residential,1340 Curtis St,Berkeley,CA,94702,1050000,2,1.0,Westbrae,1002,3600,1937,110,1048,,Sold,,,http://www.redfin.com/CA/Berkeley/1340-Curtis-St-94702/home/687896,EBRD/CCAR/Bay East,40797675,N,Y,37.8801266,-122.2907113
PAST SALE,October-27-2017,Single Family Residential,655 Vincente Ave,Berkeley,CA,94707,1100000,2,2.0,Thousand Oaks,1326,5000,1925,103,830,,Sold,,,http://www.redfin.com/CA/Berkeley/655-Vincente-Ave-94707/home/1191947,EBRD/CCAR/Bay East,40798925,N,Y,37.895815,-122.2827119
PAST SALE,August-11-2017,Single Family Residential,1216 Curtis St,Berkeley,CA,94706,1035000,2,1.5,Westbrae,1047,4500,1915,180,989,,Sold,,,http://www.redfin.com/CA/Berkeley/1216-Curtis-St-94706/home/663874,EBRD/CCAR/Bay East,40787309,N,Y,37.8824252,-122.289857
PAST SALE,December-8-2017,Single Family Residential,655 Ensenada Ave,Berkeley,CA,94707,1075000,3,2.0,Berkeley/Albany,1353,5000,1929,61,795,,Sold,,,http://www.redfin.com/CA/Berkeley/655-Ensenada-Ave-94707/home/1905995,San Francisco MLS,463818,N,Y,37.8956449,-122.285211
PAST SALE,December-5-2017,Single Family Residential,626 Curtis St,Albany,CA,94706,1189000,3,1.5,Albany,1245,5000,1923,64,955,,Sold,,,http://www.redfin.com/CA/Albany/626-Curtis-St-94706/home/1873460,EBRD/CCAR/Bay East,40802498,N,Y,37.8954645,-122.2875231
PAST SALE,,Multi-Family (2-4 Unit),1418 Northside Ave,Berkeley,CA,94702,885000,3,2.0,,1833,4200,1912,,483,,,,,http://www.redfin.com/CA/Berkeley/1418-Northside-Ave-94702/home/1803050,,,N,Y,37.8784291,-122.2899828
PAST SALE,,Single Family Residential,976 Tulare Ave,Albany,CA,94707,1221000,3,1.0,,1547,5950,1915,,789,,,,,http://www.redfin.com/CA/Albany/976-Tulare-Ave-94707/home/529354,,,N,Y,37.8877593,-122.2821359
PAST SALE,March-23-2017,Single Family Residential,1238 Campus Dr,Berkeley,CA,94708,1200000,4,2.0,North Berkeley,1898,5850,1949,321,632,,Sold,,,http://www.redfin.com/CA/Berkeley/1238-Campus-Dr-94708/home/1566357,EBRD/CCAR/Bay East,40770215,N,Y,37.8869279,-122.2550764
PAST SALE,April-10-2017,Condo/Co-op,2632 College Ave,Berkeley,CA,94704,1400000,3,1.5,Elmwood,1846,,1908,303,758,83,Sold,,,http://www.redfin.com/CA/Berkeley/2632-College-Ave-94704/home/1972220,EBRD/CCAR/Bay East,40773374,N,Y,37.862583,-122.254031
PAST SALE,,Condo/Co-op,2632 College Ave #3,Berkeley,CA,94704,1400000,2,1.0,,1380,,1908,,1014,,,,,http://www.redfin.com/CA/Berkeley/2632-College-Ave-94704/unit-3/home/1424163,,,N,Y,37.862583,-122.254031
PAST SALE,May-5-2017,Single Family Residential,1032 Overlook Rd,Berkeley,CA,94708,1625000,3,2.0,Park Hills,1819,7766,1948,278,893,21,Sold,,,http://www.redfin.com/CA/Berkeley/1032-Overlook-Rd-94708/home/1938701,EBRD/CCAR/Bay East,40777116,N,Y,37.8933873,-122.2565141
PAST SALE,May-12-2017,Single Family Residential,1190 STERLING Ave,Berkeley,CA,94708,1525000,3,3.0,North Berkeley,1902,6552,1930,271,802,,Sold,,,http://www.redfin.com/CA/Berkeley/1190-Sterling-Ave-94708/home/1609532,EBRD/CCAR/Bay East,40775487,N,Y,37.8892854,-122.2545146
PAST SALE,,Single Family Residential,2728 Haste St,Berkeley,CA,94704,1500000,14,6.0,,4560,6700,1918,,329,,,,,http://www.redfin.com/CA/Berkeley/2728-Haste-St-94704/home/1643824,,,N,Y,37.8665774,-122.2526792
PAST SALE,,Condo/Co-op,1801 University Ave Unit 305,Berkeley,CA,94703,420000,1,1.0,,620,,1998,,677,,,,,http://www.redfin.com/CA/Berkeley/1801-University-Ave-94703/unit-305/home/1818135,,,N,Y,37.8715498,-122.2750624
PAST SALE,June-2-2017,Single Family Residential,1101 MILLER Ave,Berkeley,CA,94708,1100000,2,1.0,Cragmont,1214,5340,1939,250,906,,Sold,,,http://www.redfin.com/CA/Berkeley/1101-Miller-Ave-94708/home/705196,EBRD/CCAR/Bay East,40777649,N,Y,37.8921201,-122.2565558
PAST SALE,July-9-2017,Vacant Land,0 Queens Rd,Berkeley,CA,94708,520000,,,Berkeley,,7778,,213,,,Sold,,,http://www.redfin.com/CA/Berkeley/Queens-Rd-94708/home/22679764,EBRD/CCAR/Bay East,40784490,N,Y,37.885716,-122.253511
PAST SALE,March-31-2017,Single Family Residential,164 Hill Rd,Berkeley,CA,94708,2658000,5,4.0,Berkeley Hills,3142,5800,1950,313,846,,Sold,,,http://www.redfin.com/CA/Berkeley/164-Hill-Rd-94708/home/1915841,EBRD/CCAR/Bay East,40773336,N,Y,37.8866218,-122.2499733
PAST SALE,September-8-2017,Condo/Co-op,73 Panoramic Way,Berkeley,CA,94704,585000,1,1.0,Berkeley/Albany,732,,,152,799,332,Sold,,,http://www.redfin.com/CA/Berkeley/73-Panoramic-Way-94704/home/12351046,San Francisco MLS,459378,N,Y,37.8689151,-122.2489163
PAST SALE,August-15-2017,Single Family Residential,1107 Park Hills Rd,Berkeley,CA,94708,1480000,4,3.0,Park Hills,2525,6867,1949,176,586,25,Sold,,,http://www.redfin.com/CA/Berkeley/1107-Park-Hills-Rd-94708/home/1938563,EBRD/CCAR/Bay East,40788949,N,Y,37.8923143,-122.2534422
PAST SALE,August-24-2017,Single Family Residential,2601 Regent St,Berkeley,CA,94704,1050000,2,2.0,Elmwood,1122,2904,1925,167,936,,Sold,,,http://www.redfin.com/CA/Berkeley/2601-Regent-St-94704/home/668718,EBRD/CCAR/Bay East,40788803,N,Y,37.8632521,-122.2573589
PAST SALE,August-22-2017,Single Family Residential,1281 QUEENS Rd,Berkeley,CA,94708,1195000,3,2.5,Berkeley Hills,2196,5095,1948,169,544,,Sold,,,http://www.redfin.com/CA/Berkeley/1281-Queens-Rd-94708/home/690844,EBRD/CCAR/Bay East,40788134,N,Y,37.8862205,-122.2535412
PAST SALE,September-29-2017,Single Family Residential,2779 HILGARD Ave,Berkeley,CA,94709,2500000,4,2.5,North Berkeley,3916,50309,1911,131,638,,Sold,,,http://www.redfin.com/CA/Berkeley/2779-Hilgard-Ave-94709/home/22699984,EBRD/CCAR/Bay East,40796321,N,Y,37.879866,-122.255305
PAST SALE,August-30-2017,Vacant Land,1531 Summit Rd,Berkeley,CA,94708,430000,,,Berkeley,,7269,,161,,,Sold,,,http://www.redfin.com/CA/Berkeley/1531-Summit-Rd-94708/home/22677242,EBRD/CCAR/Bay East,40777124,N,Y,37.8824759,-122.24693
PAST SALE,,Condo/Co-op,77 Panoramic Way,Berkeley,CA,94704,585000,1,1.0,,732,,1908,,799,,,,,http://www.redfin.com/CA/Berkeley/77-Panoramic-Way-94704/home/22962260,,,N,Y,37.8689829,-122.2490628
PAST SALE,,Condo/Co-op,77 Panoramic Way,Berkeley,CA,94704,750000,2,1.0,,1174,,1908,,639,,,,,http://www.redfin.com/CA/Berkeley/77-Panoramic-Way-94704/home/22962261,,,N,Y,37.8689829,-122.2490628
PAST SALE,August-31-2017,Single Family Residential,1534 Summit Rd,Berkeley,CA,94708,1410000,4,3.5,Berkeley Hills,2133,5010,1960,160,661,,Sold,,,http://www.redfin.com/CA/Berkeley/1534-Summit-Rd-94708/home/633803,EBRD/CCAR/Bay East,40790733,N,Y,37.8820683,-122.2467837
PAST SALE,October-20-2017,Single Family Residential,1430 Grizzly Peak Blvd,Berkeley,CA,94708,1000000,5,2.5,Berkeley Hills,2276,5575,1926,110,439,,Sold,,,http://www.redfin.com/CA/Berkeley/1430-Grizzly-Peak-Blvd-94708/home/1673229,EBRD/CCAR/Bay East,40795896,N,Y,37.8842363,-122.2481267
PAST SALE,November-20-2017,Single Family Residential,15 Columbia Cir,Berkeley,CA,94708,826600,2,1.5,Berkeley Hills,1174,6912,1948,79,704,,Sold,,,http://www.redfin.com/CA/Berkeley/15-Columbia-Cir-94708/home/1808224,EBRD/CCAR/Bay East,40801376,N,Y,37.8849901,-122.2509667
PAST SALE,November-16-2017,Single Family Residential,1484 Grizzly Peak Blvd,Berkeley,CA,94708,1659000,4,3.5,Grizzly Peak,3077,6185,1988,83,539,,Sold,,,http://www.redfin.com/CA/Berkeley/1484-Grizzly-Peak-Blvd-94708/home/1424513,EBRD/CCAR/Bay East,40797569,N,Y,37.8823868,-122.2487922
PAST SALE,,Single Family Residential,530 Gravatt Dr,Berkeley,CA,94705,1625000,3,3.0,,4238,10773,2009,,383,,,,,http://www.redfin.com/CA/Berkeley/530-Gravatt-Dr-94705/home/22671497,,,N,Y,37.8603489,-122.2326645
PAST SALE,October-10-2017,Multi-Family (2-4 Unit),66 Panoramic Way,Berkeley,CA,94704,1500000,6,3.0,Berkeley,3172,7834,1912,120,473,,Sold,,,http://www.redfin.com/CA/Berkeley/66-Panoramic-Way-94704/home/1620746,EBRD/CCAR/Bay East,40786590,N,Y,37.8684078,-122.2484093
PAST SALE,April-11-2017,Single Family Residential,2296 VIRGINIA St,Berkeley,CA,94709,1817000,4,2.5,North Berkeley,2527,4480,1927,302,719,,Sold,,,http://www.redfin.com/CA/Berkeley/2296-Virginia-St-94709/home/1947453,EBRD/CCAR/Bay East,40773406,N,Y,37.8775143,-122.2644739
PAST SALE,April-28-2017,Single Family Residential,1107 Colusa Ave,Berkeley,CA,94707,1555000,4,2.0,Northbrae,1984,6000,1920,285,784,,Sold,,,http://www.redfin.com/CA/Berkeley/1107-Colusa-Ave-94707/home/1170613,EBRD/CCAR/Bay East,40775144,N,Y,37.8868013,-122.2779667
PAST SALE,April-28-2017,Condo/Co-op,1313 HENRY St,Berkeley,CA,94709,1180000,3,2.5,North Berkeley,1696,,1992,285,696,310,Sold,,,http://www.redfin.com/CA/Berkeley/1313-Henry-St-94709/unit-C/home/688962,EBRD/CCAR/Bay East,40773399,N,Y,37.883247,-122.270526
PAST SALE,May-22-2017,Condo/Co-op,1561 EUCLID Ave #1,Berkeley,CA,94708,808000,1,1.0,North Berkeley,1100,,1924,261,735,290,Sold,,,http://www.redfin.com/CA/Berkeley/1561-Euclid-Ave-94708/unit-1/home/683099,EBRD/CCAR/Bay East,40778721,N,Y,37.8801986,-122.2611685
PAST SALE,May-17-2017,Multi-Family (2-4 Unit),1419 Milvia St,Berkeley,CA,94709,1360000,4,3.0,Gourmet Ghetto,2770,7830,1924,266,491,,Sold,,,http://www.redfin.com/CA/Berkeley/1419-Milvia-St-94709/home/594811,EBRD/CCAR/Bay East,40777632,N,Y,37.881135,-122.2714905
PAST SALE,May-26-2017,Single Family Residential,1386 EUCLID Ave,Berkeley,CA,94708,1675000,4,2.0,North Berkeley,2572,3564,1924,257,651,,Sold,,,http://www.redfin.com/CA/Berkeley/1386-Euclid-Ave-94708/home/1591414,EBRD/CCAR/Bay East,40778166,N,Y,37.883106,-122.261998
PAST SALE,June-30-2017,Single Family Residential,1621 JOSEPHINE St,Berkeley,CA,94703,1250000,4,2.0,Berkeley,1391,5535,1910,222,899,,Sold,,,http://www.redfin.com/CA/Berkeley/1621-Josephine-St-94703/home/1365266,EBRD/CCAR/Bay East,40782853,N,Y,37.877001,-122.27443
PAST SALE,April-7-2017,Condo/Co-op,1731 Francisco St Unit A,Berkeley,CA,94703,950000,3,2.0,North Berkeley,1247,,1910,306,762,359,Sold,,,http://www.redfin.com/CA/Berkeley/1731-Francisco-St-94703/unit-A/home/22962230,EBRD/CCAR/Bay East,40771783,N,Y,37.8749064,-122.2765997
PAST SALE,,Condo/Co-op,2459 Hilgard Ave,Berkeley,CA,94709,875000,2,1.0,,1221,,1924,,717,,,,,http://www.redfin.com/CA/Berkeley/2459-Hilgard-Ave-94709/home/22962240,,,N,Y,37.878788,-122.261619
PAST SALE,July-18-2017,Single Family Residential,1158 Glen Ave,Berkeley,CA,94708,865000,3,1.5,North Berkeley,1855,4455,1926,204,466,,Sold,,,http://www.redfin.com/CA/Berkeley/1158-Glen-Ave-94708/home/1447835,EBRD/CCAR/Bay East,40781230,N,Y,37.8874715,-122.2646416
PAST SALE,September-1-2017,Condo/Co-op,2535 Ridge Rd Unit A,Berkeley,CA,94709,585000,1,1.0,N Berkeley,575,5750,1950,159,1017,250,Sold,,,http://www.redfin.com/CA/Berkeley/2535-Ridge-Rd-94709/unit-A/home/1845045,EBRD/CCAR/Bay East,40784800,N,Y,37.8764006,-122.2589134
PAST SALE,October-17-2017,Single Family Residential,1590 Le Roy Ave,Berkeley,CA,94708,1450000,3,2.0,North Berkeley,1978,3440,1926,113,733,,Sold,,,http://www.redfin.com/CA/Berkeley/1590-Le-Roy-Ave-94708/home/680181,EBRD/CCAR/Bay East,40796280,N,Y,37.8801104,-122.259064
PAST SALE,October-13-2017,Single Family Residential,1128 WALNUT St,Berkeley,CA,94707,1177000,5,2.0,North Berkeley,2500,5720,1918,117,471,,Sold,,,http://www.redfin.com/CA/Berkeley/1128-Walnut-St-94707/home/1245709,EBRD/CCAR/Bay East,40794330,N,Y,37.887102,-122.269364
PAST SALE,October-31-2017,Single Family Residential,2229 VINE St,Berkeley,CA,94709,2630000,4,2.5,Gourmet Ghetto,2706,3960,1906,99,972,,Sold,,,http://www.redfin.com/CA/Berkeley/2229-Vine-St-94709/home/1927020,EBRD/CCAR/Bay East,40800558,N,Y,37.8808753,-122.2657695
PAST SALE,November-16-2017,Multi-Family (2-4 Unit),1682 Oxford St,Berkeley,CA,94709,1650000,4,4.0,Berkeley,2396,5925,1940,83,689,,Sold,,,http://www.redfin.com/CA/Berkeley/1682-Oxford-St-94709/home/925854,EBRD/CCAR/Bay East,40799532,N,Y,37.8772532,-122.2669377
PAST SALE,January-8-2018,Single Family Residential,1413 Holly St,Berkeley,CA,94703,1649000,2,1.0,Monterey/Hopkins,1273,5200,1925,30,1295,,Sold,,,http://www.redfin.com/CA/Berkeley/1413-Holly-St-94703/home/685990,EBRD/CCAR/Bay East,40802911,N,Y,37.8787413,-122.2814986
PAST SALE,February-5-2018,Single Family Residential,1912 Rose St,Berkeley,CA,94709,1250000,6,2.0,Gourmet Ghetto,2523,3200,1901,2,495,,Sold,,,http://www.redfin.com/CA/Berkeley/1912-Rose-St-94709/home/1644319,EBRD/CCAR/Bay East,40805403,N,Y,37.8813646,-122.2734273
PAST SALE,April-4-2017,Single Family Residential,411 Kentucky Ave,Berkeley,CA,94707,1550000,4,2.0,Thousand Oaks,2186,6162,1926,309,709,,Sold,,,http://www.redfin.com/CA/Berkeley/411-Kentucky-Ave-94707/home/965997,EBRD/CCAR/Bay East,40773820,N,Y,37.903695,-122.272337
PAST SALE,April-17-2017,Single Family Residential,374 Ocean View Ave,Kensington,CA,94707,1200000,3,2.0,Lower Kensington,1981,4200,1949,296,606,,Sold,,,http://www.redfin.com/CA/Kensington/374-Ocean-View-Ave-94707/home/744361,EBRD/CCAR/Bay East,40773435,N,Y,37.9014468,-122.2851517
PAST SALE,June-12-2017,Single Family Residential,298 Lexington Rd,Kensington,CA,94707,1090000,4,1.5,Lower Kensington,1705,5400,1964,240,639,,Sold,,,http://www.redfin.com/CA/Kensington/298-Lexington-Rd-94707/home/1979715,EBRD/CCAR/Bay East,40781575,N,Y,37.9023989,-122.2841774
PAST SALE,September-1-2017,Single Family Residential,26 SUNSET Dr,Kensington,CA,94707,3200000,3,2.5,Kensington,3636,87556,1927,159,880,,Sold,,,http://www.redfin.com/CA/Kensington/26-Sunset-Dr-94707/home/1193517,EBRD/CCAR/Bay East,40774669,N,Y,37.9077074,-122.2818828
PAST SALE,August-15-2017,Single Family Residential,430 KENTUCKY Ave,Berkeley,CA,94707,1460000,3,3.0,N. Berkeley,2510,11592,1937,176,582,,Sold,,,http://www.redfin.com/CA/Berkeley/430-Kentucky-Ave-94707/home/704577,EBRD/CCAR/Bay East,40789178,N,Y,37.9033578,-122.2728411
PAST SALE,September-6-2017,Single Family Residential,71 Rincon Rd,Kensington,CA,94707,925000,3,2.0,Kensington Park,1224,7500,1950,154,756,,Sold,,,http://www.redfin.com/CA/Kensington/71-Rincon-Rd-94707/home/986479,EBRD/CCAR/Bay East,40791794,N,Y,37.9138589,-122.2825062
PAST SALE,September-21-2017,Single Family Residential,136 Windsor Ave,Kensington,CA,94708,1300000,4,3.0,Berkeley Heights,2732,5400,1977,139,476,,Sold,,,http://www.redfin.com/CA/Kensington/136-Windsor-Ave-94708/home/707481,EBRD/CCAR/Bay East,40792755,N,Y,37.9087648,-122.2787176
PAST SALE,October-18-2017,Single Family Residential,19 Franciscan Way,Kensington,CA,94707,885000,4,2.5,Kensington,2387,9020,1963,112,371,,Sold,,,http://www.redfin.com/CA/Kensington/19-Franciscan-Way-94707/home/707315,EBRD/CCAR/Bay East,40791782,N,Y,37.9135627,-122.2871209
PAST SALE,October-19-2017,Single Family Residential,317 COLUSA Ave,Kensington,CA,94707,1205000,3,2.0,Kensington,1789,4400,1925,111,674,,Sold,,,http://www.redfin.com/CA/Kensington/317-Colusa-Ave-94707/home/1490130,EBRD/CCAR/Bay East,40795907,N,Y,37.9013068,-122.2881284
PAST SALE,November-29-2017,Single Family Residential,36 Stratford Rd,Kensington,CA,94707,980000,3,1.5,Baja Kensington,1602,4968,1941,70,612,,Sold,,,http://www.redfin.com/CA/Kensington/36-Stratford-Rd-94707/home/1289114,EBRD/CCAR/Bay East,40800985,N,Y,37.9033832,-122.2842307
PAST SALE,December-13-2017,Single Family Residential,14 AVON Rd,Kensington,CA,94707,991250,2,1.0,Kensington Park,1076,2600,1938,56,921,,Sold,,,http://www.redfin.com/CA/Kensington/14-Avon-Rd-94707/home/1702895,EBRD/CCAR/Bay East,40797489,N,Y,37.905126,-122.283584
PAST SALE,March-20-2017,Single Family Residential,1282 Hearst Ave,Berkeley,CA,94702,720000,2,1.0,Berkeley,1036,4120,1924,324,695,,Sold,,,http://www.redfin.com/CA/Berkeley/1282-Hearst-Ave-94702/home/846142,EBRD/CCAR/Bay East,40769037,N,Y,37.8710724,-122.287205
PAST SALE,March-21-2017,Condo/Co-op,1905 Parker St #2,Berkeley,CA,94704,650000,2,2.0,Berkeley,830,,1930,323,783,350,Sold,,,http://www.redfin.com/CA/Berkeley/1905-Parker-St-94704/unit-2/home/58166290,EBRD/CCAR/Bay East,40769934,N,Y,37.8617475,-122.2715105
PAST SALE,March-24-2017,Multi-Family (2-4 Unit),2403 Valley St,BERKELEY,CA,94702,1020000,4,,BERKELEY,2909,7940,1923,320,351,,Sold,,,http://www.redfin.com/CA/Berkeley/2403-Valley-St-94702/home/620919,MLSListings,ML81636343,N,Y,37.86348,-122.283835
PAST SALE,April-1-2017,Single Family Residential,2145 Grant St,Berkeley,CA,94703,1275000,3,2.0,Berkeley,1273,6500,1924,312,1002,,Sold,,,http://www.redfin.com/CA/Berkeley/2145-Grant-St-94703/home/674756,EBRD/CCAR/Bay East,40771095,N,Y,37.8689339,-122.2749105
PAST SALE,March-31-2017,Condo/Co-op,1658 California St #1,Berkeley,CA,94703,750000,2,1.0,North Berkeley,1300,,1913,313,577,,Sold,,,http://www.redfin.com/CA/Berkeley/1658-California-St-94703/unit-1/home/1857688,EBRD/CCAR/Bay East,40771771,N,Y,37.8753416,-122.280474
PAST SALE,April-24-2017,Single Family Residential,1311 Ward St,Berkeley,CA,94702,795000,3,2.0,San Pablo Park,,3500,1924,289,,,Sold,,,http://www.redfin.com/CA/Berkeley/1311-Ward-St-94702/home/663645,EBRD/CCAR/Bay East,40770003,N,Y,37.8576049,-122.2839813
PAST SALE,April-12-2017,Townhouse,1529 Hearst Ave,Berkeley,CA,94703,1320000,4,2.0,North Berkeley,1970,8977,1985,301,670,242,Sold,,,http://www.redfin.com/CA/Berkeley/1529-Hearst-Ave-94703/home/676746,EBRD/CCAR/Bay East,40773277,N,Y,37.872568,-122.280978
PAST SALE,May-1-2017,Single Family Residential,2825 Dohr St,Berkeley,CA,94702,885000,3,1.0,San Pablo Park,1084,3300,1953,282,816,,Sold,,,http://www.redfin.com/CA/Berkeley/2825-Dohr-St-94702/home/1258540,EBRD/CCAR/Bay East,40774620,N,Y,37.8548973,-122.2808081
PAST SALE,May-2-2017,Single Family Residential,1 Virginia Gdns,Berkeley,CA,94702,980000,2,1.0,N Berkeley,1172,4000,1939,281,836,,Sold,,,http://www.redfin.com/CA/Berkeley/1-Virginia-Gdns-94702/home/1893004,EBRD/CCAR/Bay East,40774856,N,Y,37.8744782,-122.2868723
PAST SALE,June-2-2017,Single Family Residential,2412 Acton St,Berkeley,CA,94702,1509000,3,2.0,Central Berkeley,1293,3880,1924,250,1167,,Sold,,,http://www.redfin.com/CA/Berkeley/2412-Acton-St-94702/home/1291695,EBRD/CCAR/Bay East,40777673,N,Y,37.8633889,-122.283463
PAST SALE,May-25-2017,Single Family Residential,2873 Sacramento St,Berkeley,CA,94702,640000,2,1.0,Berkeley,920,2170,1927,258,696,,Sold,,,http://www.redfin.com/CA/Berkeley/2873-Sacramento-St-94702/home/657864,EBRD/CCAR/Bay East,40777476,N,Y,37.855474,-122.279184
PAST SALE,April-25-2017,Single Family Residential,1704 Stuart St,Berkeley,CA,94703,1050000,3,2.0,Lorin,1442,4120,1924,288,728,,Sold,,,http://www.redfin.com/CA/Berkeley/1704-Stuart-St-94703/home/869027,EBRD/CCAR/Bay East,40774325,N,Y,37.8573052,-122.2750769
PAST SALE,October-20-2017,Single Family Residential,6624 Dover St,Oakland,CA,94609,810000,2,1.0,North Oakland,1002,4592,1908,110,808,,Sold,,,http://www.redfin.com/CA/Oakland/6624-Dover-St-94609/home/1756903,EBRD/CCAR/Bay East,40797548,N,Y,37.8516398,-122.268632
PAST SALE,,Single Family Residential,3233 Ellis St,Berkeley,CA,94703,110000,3,1.0,,1876,6240,1905,,59,,,,,http://www.redfin.com/CA/Berkeley/3233-Ellis-St-94703/home/1776782,,,N,Y,37.8492139,-122.272461
PAST SALE,,Multi-Family (2-4 Unit),1729 Martin Luther King Junior Way,Berkeley,CA,94709,1015000,5,5.0,,2303,2542,1910,,441,,,,,http://www.redfin.com/CA/Berkeley/1729-Martin-Luther-King-Junior-Way-94709/home/712603,,,N,Y,37.8750088,-122.2731673
PAST SALE,May-17-2017,Single Family Residential,1253 Hearst Ave,Berkeley,CA,94702,970000,2,1.0,North Berkeley,811,4257,1913,266,1196,,Sold,,,http://www.redfin.com/CA/Berkeley/1253-Hearst-Ave-94702/home/1460574,EBRD/CCAR/Bay East,40776097,N,Y,37.8712244,-122.2889172
PAST SALE,June-16-2017,Single Family Residential,1606 Curtis St,Berkeley,CA,94702,855000,1,1.0,Berkeley,,2800,1910,236,,,Sold,,,http://www.redfin.com/CA/Berkeley/1606-Curtis-St-94702/home/686270,EBRD/CCAR/Bay East,40780177,N,Y,37.8753191,-122.2906704
PAST SALE,June-27-2017,Single Family Residential,2315 West St,Berkeley,CA,94702,950000,2,1.0,Poets Corner,,4000,1942,225,,,Sold,,,http://www.redfin.com/CA/Berkeley/2315-West-St-94702/home/1714093,EBRD/CCAR/Bay East,40781909,N,Y,37.8648982,-122.2850317
PAST SALE,,Vacant Land,1698 University Ave,Berkeley,CA,94703,5323000,,,,1982,10000,1975,,2686,,,,,http://www.redfin.com/CA/Berkeley/1698-University-Ave-94703/home/28555561,,,N,Y,37.870659,-122.277747
PAST SALE,July-5-2017,Condo/Co-op,2168 Jefferson Ave #48,Berkeley,CA,94703,350000,2,2.0,Berkeley,1063,164718,1994,217,329,375,Sold,,,http://www.redfin.com/CA/Berkeley/2168-Jefferson-Ave-94703/unit-48/home/1988125,EBRD/CCAR/Bay East,40780571,N,Y,37.868569,-122.279004
PAST SALE,August-3-2017,Single Family Residential,1600 Ward,Berkeley,CA,94703-2308,1440000,5,2.0,Berkeley,,2330,1923,188,,,Sold,,,http://www.redfin.com/CA/Berkeley/1600-Ward-St-94703/home/40256481,EBRD/CCAR/Bay East,40774414,N,Y,37.8579868,-122.2775917
PAST SALE,July-14-2017,Single Family Residential,1805 Allston Way,Berkeley,CA,94703-1707,1200000,3,2.0,Central Berkeley,1567,3400,1910,208,766,,Sold,,,http://www.redfin.com/CA/Berkeley/1805-Allston-Way-94703/home/1467046,EBRD/CCAR/Bay East,40783328,N,Y,37.868729,-122.27465
PAST SALE,,Single Family Residential,2420 Jefferson Ave,Berkeley,CA,94703,315500,2,1.0,,1202,4940,1926,,262,,,,,http://www.redfin.com/CA/Berkeley/2420-Jefferson-Ave-94703/home/1926883,,,N,Y,37.8637493,-122.2781331
PAST SALE,March-31-2017,Single Family Residential,2800 Martin Luther King Jr Way,Berkeley,CA,94703,925000,4,1.5,Berkeley,2366,5400,1906,313,391,,Sold,,,http://www.redfin.com/CA/Berkeley/2800-Martin-Luther-King-Junior-Way-94703/home/2000727,EBRD/CCAR/Bay East,40769534,N,Y,37.8578168,-122.2717438
PAST SALE,April-3-2017,Single Family Residential,2147 Mcgee Ave,Berkeley,CA,94703,650000,1,1.0,Central Berkeley,736,4563,1943,310,883,,Sold,,,http://www.redfin.com/CA/Berkeley/2147-McGee-Ave-94703/home/674672,EBRD/CCAR/Bay East,40772199,N,Y,37.868608,-122.2770047
PAST SALE,July-20-2017,Multi-Family (2-4 Unit),1275 Hearst Ave,Berkeley,CA,94702,965000,4,2.0,Berkeley,1700,7325,1924,202,568,,Sold,,,http://www.redfin.com/CA/Berkeley/1275-Hearst-Ave-94702/home/677267,EBRD/CCAR/Bay East,40783288,N,Y,37.8714673,-122.2875128
PAST SALE,July-25-2017,Single Family Residential,1710 Russell St,Berkeley,CA,94703-2120,858000,2,1.0,Berkeley Bowl,824,2010,1905,197,1041,,Sold,,,http://www.redfin.com/CA/Berkeley/1710-Russell-St-94703/home/657213,EBRD/CCAR/Bay East,40785428,N,Y,37.8556119,-122.2738347
PAST SALE,,Single Family Residential,1635 Curtis St,Berkeley,CA,94702,825000,3,1.0,,981,3000,1933,,841,,,,,http://www.redfin.com/CA/Berkeley/1635-Curtis-St-94702/home/1291964,,,N,Y,37.87445,-122.2899841
PAST SALE,September-11-2017,Multi-Family (2-4 Unit),1337 Hearst Ave,Berkeley,CA,94702,533500,2,2.0,Berkeley,1388,3300,1923,149,384,,Sold,,,http://www.redfin.com/CA/Berkeley/1337-Hearst-Ave-94702/home/2000843,EBRD/CCAR/Bay East,40787980,N,Y,37.871584,-122.28626
PAST SALE,,Single Family Residential,1402 Carleton St,Berkeley,CA,94702,665000,3,1.0,,1044,3432,1921,,637,,,,,http://www.redfin.com/CA/Berkeley/1402-Carleton-St-94702/home/661868,,,N,Y,37.8592169,-122.2819424
PAST SALE,August-18-2017,Single Family Residential,1307 Blake St,Berkeley,CA,94702,930000,2,1.0,South Berkeley,1062,3500,1922,173,876,,Sold,,,http://www.redfin.com/CA/Berkeley/1307-Blake-St-94702/home/661118,EBRD/CCAR/Bay East,40787877,N,Y,37.86099,-122.2849129
PAST SALE,September-20-2017,Single Family Residential,1274 A Delaware St,Berkeley,CA,94702,650000,1,1.0,Berkeley/Albany,600,2030,1926,140,1083,,Sold,,,http://www.redfin.com/CA/Berkeley/1274A-Delaware-St-94702/home/143026467,San Francisco MLS,460871,N,Y,37.871903,-122.2875857
PAST SALE,August-21-2017,Single Family Residential,2904 Harper St,Berkeley,CA,94703,1125000,4,2.0,Berkeley Bowl,1703,4880,1914,170,661,,Sold,,,http://www.redfin.com/CA/Berkeley/2904-Harper-St-94703/home/1817984,EBRD/CCAR/Bay East,40788841,N,Y,37.8557029,-122.2725611
PAST SALE,August-22-2017,Single Family Residential,1461 Virginia St,Berkeley,CA,94702,1325000,4,1.5,N Berkeley,1604,3600,1929,169,826,,Sold,,,http://www.redfin.com/CA/Berkeley/1461-Virginia-St-94702/home/1578596,EBRD/CCAR/Bay East,40789742,N,Y,37.8749427,-122.2835184
PAST SALE,September-1-2017,Single Family Residential,2730 Grant St,Berkeley,CA,94703,834000,2,1.5,Berkeley,1224,4080,1909,159,681,,Sold,,,http://www.redfin.com/CA/Berkeley/2730-Grant-St-94703/home/661887,EBRD/CCAR/Bay East,40792621,N,Y,37.8584139,-122.2735444
PAST SALE,,Single Family Residential,1711 Stuart St,Berkeley,CA,94703,800000,5,2.0,,2604,5400,1910,,307,,,,,http://www.redfin.com/CA/Berkeley/1711-Stuart-St-94703/home/1478890,,,N,Y,37.8577304,-122.2748809
PAST SALE,August-28-2017,Multi-Family (2-4 Unit),1605 Julia St,Berkeley,CA,94703-2017,565000,,,Berkeley,1006,2960,1956,163,562,,Sold,,,http://www.redfin.com/CA/Berkeley/1605-Julia-St-94703/home/1810407,EBRD/CCAR/Bay East,40788279,N,Y,37.8546566,-122.2768316
PAST SALE,October-13-2017,Single Family Residential,2214 Roosevelt Ave,Berkeley,CA,94703,1148000,3,2.0,Berkeley,1678,4290,1910,117,684,,Sold,,,http://www.redfin.com/CA/Berkeley/2214-Roosevelt-Ave-94703/home/673085,EBRD/CCAR/Bay East,40791524,N,Y,37.8676993,-122.2763222
PAST SALE,September-14-2017,Single Family Residential,1307 Ward St,Berkeley,CA,94702,990000,3,1.5,San Pablo Park,1192,3500,1924,146,831,,Sold,,,http://www.redfin.com/CA/Berkeley/1307-Ward-St-94702/home/666522,EBRD/CCAR/Bay East,40792751,N,Y,37.8575629,-122.2842287
PAST SALE,September-25-2017,Single Family Residential,1525 Parker St,Berkeley,CA,94703,1100000,3,2.0,Berkeley,1289,4389,1921,135,853,,Sold,,,http://www.redfin.com/CA/Berkeley/1525-Parker-St-94703/home/1729334,EBRD/CCAR/Bay East,40793234,N,Y,37.8608114,-122.2795411
PAST SALE,October-12-2017,Condo/Co-op,2808 Adeline St #3,Berkeley,CA,94703,795000,2,1.0,Berkeley Bowl,1236,,1905,118,643,255,Sold,,,http://www.redfin.com/CA/Berkeley/2808-Adeline-St-94703/unit-3/home/2042943,EBRD/CCAR/Bay East,40791925,N,Y,37.8579436,-122.268366
PAST SALE,March-31-2017,Single Family Residential,1813 Derby St,Berkeley,CA,94703,1085000,4,3.0,Berkeley Central,2030,6220,1925,313,534,,Sold,,,http://www.redfin.com/CA/Berkeley/1813-Derby-St-94703/home/1003196,EBRD/CCAR/Bay East,40770651,N,Y,37.8597788,-122.2728687
PAST SALE,October-12-2017,Single Family Residential,1148 Francisco St,Berkeley,CA,94702,1525000,3,2.0,Berkeley,1572,5032,1923,118,970,,Sold,,,http://www.redfin.com/CA/Berkeley/1148-Francisco-St-94702/home/815644,EBRD/CCAR/Bay East,40798075,N,Y,37.8727063,-122.2909275
PAST SALE,October-17-2017,Condo/Co-op,1419 Ashby Ave Unit D,Berkeley,CA,94702,700000,3,2.0,San Pablo Park,1016,5558,2012,113,689,225,Sold,,,http://www.redfin.com/CA/Berkeley/1419-Ashby-Ave-94702/unit-D/home/50263652,EBRD/CCAR/Bay East,40794431,N,Y,37.8534252,-122.2805089
PAST SALE,October-19-2017,Single Family Residential,2753 Dohr St,Berkeley,CA,94702,965000,4,2.5,San Pablo Park,1958,4000,1941,111,493,,Sold,,,http://www.redfin.com/CA/Berkeley/2753-Dohr-St-94702/home/1620527,EBRD/CCAR/Bay East,40789481,N,Y,37.8569328,-122.2812202
PAST SALE,October-17-2017,Single Family Residential,1458 Cedar St,Berkeley,CA,94702,950000,2,1.0,Berkeley,1072,5985,1951,113,886,,Sold,,,http://www.redfin.com/CA/Berkeley/1458-Cedar-St-94702/home/1545373,EBRD/CCAR/Bay East,40795298,N,Y,37.876367,-122.2840457
PAST SALE,November-3-2017,Single Family Residential,2815 Stanton St,Berkeley,CA,94702,1100000,3,2.5,Berkeley,1750,4134,1922,96,629,,Sold,,,http://www.redfin.com/CA/Berkeley/2815-Stanton-St-94702/home/1915333,EBRD/CCAR/Bay East,40798643,N,Y,37.8555298,-122.2800785
PAST SALE,November-21-2017,Multi-Family (2-4 Unit),1201 Bancroft Way,Berkeley,CA,94702,1223000,3,2.0,Berkeley,2051,3200,1922,78,596,,Sold,,,http://www.redfin.com/CA/Berkeley/1201-Bancroft-Way-94702/home/1279388,EBRD/CCAR/Bay East,40800363,N,Y,37.8650956,-122.2885145
PAST SALE,November-13-2017,Single Family Residential,1524 Stuart St,Berkeley,CA,94703,1280000,4,3.0,Central Berkeley,1756,2204,2017,86,729,,Sold,,,http://www.redfin.com/CA/Berkeley/1524-Stuart-St-94703/home/659355,EBRD/CCAR/Bay East,40797710,N,Y,37.8568818,-122.2787177
PAST SALE,November-9-2017,Single Family Residential,2820 Dohr St,Berkeley,CA,94702,1035000,2,2.0,Berkeley,968,3500,1922,90,1069,,Sold,,,http://www.redfin.com/CA/Berkeley/2820-Dohr-St-94702/home/659303,EBRD/CCAR/Bay East,40797946,N,Y,37.8550221,-122.2813432
PAST SALE,,Multi-Family (2-4 Unit),1737 Channing Way,Berkeley,CA,94703,200000,2,2.0,,1722,5000,1906,,116,,,,,http://www.redfin.com/CA/Berkeley/1737-Channing-Way-94703/home/1343503,,,N,Y,37.865065,-122.274807
PAST SALE,November-22-2017,Single Family Residential,2217 Sacramento,Berkeley,CA,94702-1906,643000,2,1.0,Central Berkeley,828,2370,1924,77,777,,Sold,,,http://www.redfin.com/CA/Berkeley/2217-Sacramento-St-94702/home/1832807,EBRD/CCAR/Bay East,40798455,N,Y,37.8668819,-122.281251
PAST SALE,November-22-2017,Single Family Residential,1518 Ward St,Berkeley,CA,94703,1425000,3,2.0,Berkeley,2089,5400,1916,77,682,,Sold,,,http://www.redfin.com/CA/Berkeley/1518-Ward-St-94703/home/620829,EBRD/CCAR/Bay East,40799383,N,Y,37.8577437,-122.2791123
PAST SALE,November-30-2017,Single Family Residential,1165 Virginia St,Berkeley,CA,94702,730000,2,1.5,North/West,632,2800,1923,69,1155,,Sold,,,http://www.redfin.com/CA/Berkeley/1165-Virginia-St-94702/home/686286,EBRD/CCAR/Bay East,40802015,N,Y,37.8739979,-122.2906495
PAST SALE,November-30-2017,Multi-Family (2-4 Unit),1226 Russell St,Berkeley,CA,94702,940000,5,3.0,San Pablo Park,1850,3040,1918,69,508,,Sold,,,http://www.redfin.com/CA/Berkeley/1226-Russell-St-94702/home/965069,EBRD/CCAR/Bay East,40801073,N,Y,37.8536635,-122.2857112
PAST SALE,December-8-2017,Single Family Residential,1618 Belvedere Ave,Berkeley,CA,94702,780000,2,1.0,North Berkeley,912,2500,1952,61,855,,Sold,,,http://www.redfin.com/CA/Berkeley/1618-Belvedere-Ave-94702/home/1822799,EBRD/CCAR/Bay East,40802346,N,Y,37.8750142,-122.2897433
PAST SALE,May-15-2017,Single Family Residential,1620 Dwight Way,Berkeley,CA,94703,850000,2,2.0,Central Berkeley,1006,4810,1928,268,845,,Sold,,,http://www.redfin.com/CA/Berkeley/1620-Dwight-Way-94703/home/1406710,EBRD/CCAR/Bay East,40772603,N,Y,37.8624171,-122.2778595
PAST SALE,,Condo/Co-op,1692 Dwight Way,Berkeley,CA,94703,595000,2,1.0,,1057,5080,1930,,563,,,,,http://www.redfin.com/CA/Berkeley/1692-Dwight-Way-94703/home/1810495,,,N,Y,37.862582,-122.2766472
PAST SALE,,Multi-Family (2-4 Unit),1622 Francisco St,Berkeley,CA,94703,1275000,2,2.0,,1760,5410,1900,,724,,,,,http://www.redfin.com/CA/Berkeley/1622-Francisco-St-94703/home/678107,,,N,Y,37.8742054,-122.2790845
PAST SALE,November-30-2017,Single Family Residential,1280 Bancroft Way,Berkeley,CA,94702,1075000,2,1.0,Poets Corner,1068,3150,1929,69,1007,,Sold,,,http://www.redfin.com/CA/Berkeley/1280-Bancroft-Way-94702/home/1080449,EBRD/CCAR/Bay East,40801753,N,Y,37.8649404,-122.286925
PAST SALE,January-12-2018,Multi-Family (2-4 Unit),1639 Julia St,Berkeley,CA,94703,700000,3,2.0,Berkeley,1199,4843,1904,26,584,,Sold,,,http://www.redfin.com/CA/Berkeley/1639-Julia-St-94703/home/837769,EBRD/CCAR/Bay East,40802625,N,Y,37.854852,-122.2753239
PAST SALE,,Condo/Co-op,2709 Tenth St Apt B,Berkeley,CA,94710,950000,2,2.0,,1563,,2004,,608,,,,,http://www.redfin.com/CA/Berkeley/2709-Tenth-St-94710/unit-B/home/1239316,,,N,Y,37.857458,-122.289216
PAST SALE,,Single Family Residential,1407 Carleton St,Berkeley,CA,94702,510000,5,2.0,,2326,7448,1913,,219,,,,,http://www.redfin.com/CA/Berkeley/1407-Carleton-St-94702/home/553491,,,N,Y,37.8596111,-122.2818969
PAST SALE,,Single Family Residential,1875 San Lorenzo Ave,Berkeley,CA,94707,650000,3,2.0,,1944,5000,1922,,334,,,,,http://www.redfin.com/CA/Berkeley/1875-San-Lorenzo-Ave-94707/home/1912004,,,N,Y,37.8952707,-122.2799761
PAST SALE,April-14-2017,Single Family Residential,1827 Capistrano Ave,Berkeley,CA,94707,1700000,3,2.0,Thousand Oaks,1875,5000,1925,299,907,,Sold,,,http://www.redfin.com/CA/Berkeley/1827-Capistrano-Ave-94707/home/2026615,EBRD/CCAR/Bay East,40773978,N,Y,37.8942794,-122.280361
PAST SALE,April-19-2017,Single Family Residential,956 CRESTON Rd,Berkeley,CA,94708,1120101,2,2.0,North Berkeley,1942,6825,1951,294,577,,Sold,,,http://www.redfin.com/CA/Berkeley/956-Creston-Rd-94708/home/1498700,EBRD/CCAR/Bay East,40773016,N,Y,37.896263,-122.259774
PAST SALE,May-1-2017,Single Family Residential,160 Southampton Ave,Berkeley,CA,94707,2550000,4,2.5,North Berkeley,4160,13200,1928,282,613,,Sold,,,http://www.redfin.com/CA/Berkeley/160-Southampton-Ave-94707/home/1344164,EBRD/CCAR/Bay East,40775827,N,Y,37.8963254,-122.2731974
PAST SALE,,Single Family Residential,1855 Capistrano Ave,Berkeley,CA,94707,961000,3,1.0,,1716,5000,1925,,560,,,,,http://www.redfin.com/CA/Berkeley/1855-Capistrano-Ave-94707/home/699571,,,N,Y,37.8947308,-122.2794509
PAST SALE,June-5-2017,Single Family Residential,1020 CRAGMONT Ave,Berkeley,CA,94708,1710000,5,3.0,North Berkeley,2739,7740,1925,247,624,,Sold,,,http://www.redfin.com/CA/Berkeley/1020-Cragmont-Ave-94708/home/705988,EBRD/CCAR/Bay East,40780618,N,Y,37.8900568,-122.26485
PAST SALE,May-9-2017,Single Family Residential,759 KEELER Ave,Berkeley,CA,94708,1180000,3,2.0,Berkeley Hills,1450,5640,1936,274,814,,Sold,,,http://www.redfin.com/CA/Berkeley/759-Keeler-Ave-94708/home/1590489,EBRD/CCAR/Bay East,40776391,N,Y,37.8980458,-122.2637587
PAST SALE,May-19-2017,Single Family Residential,60 Acacia Ave,Berkeley,CA,94708,1210000,3,3.0,North Cragmont,1731,6150,1932,264,699,,Sold,,,http://www.redfin.com/CA/Berkeley/60-Acacia-Ave-94708/home/1511209,EBRD/CCAR/Bay East,40777076,N,Y,37.9005415,-122.2680984
PAST SALE,June-1-2017,Single Family Residential,691 Vincente Ave,Berkeley,CA,94707,1805000,4,2.5,Thousand Oaks,2917,6100,1928,251,619,,Sold,,,http://www.redfin.com/CA/Berkeley/691-Vincente-Ave-94707/home/2006633,EBRD/CCAR/Bay East,40779815,N,Y,37.8948939,-122.2819676
PAST SALE,July-6-2017,Single Family Residential,533 Spruce St,Berkeley,CA,94707,1350000,3,3.0,North Cragmont,2010,3510,1936,216,672,,Sold,,,http://www.redfin.com/CA/Berkeley/533-Spruce-St-94707/home/1651807,EBRD/CCAR/Bay East,40781101,N,Y,37.901199,-122.269332
PAST SALE,June-8-2017,Single Family Residential,1851 San Ramon Ave,Berkeley,CA,94707,1420000,3,2.0,Thousand Oaks,1624,3876,1927,244,874,,Sold,,,http://www.redfin.com/CA/Berkeley/1851-San-Ramon-Ave-94707/home/983375,EBRD/CCAR/Bay East,40779741,N,Y,37.8987067,-122.2790328
PAST SALE,June-12-2017,Single Family Residential,640 SANTA BARBARA Rd,Berkeley,CA,94707,2026000,4,3.5,Thousand Oaks,2961,8600,1932,240,684,,Sold,,,http://www.redfin.com/CA/Berkeley/640-Santa-Barbara-Rd-94707/home/1401084,EBRD/CCAR/Bay East,40779987,N,Y,37.8988043,-122.2729029
PAST SALE,July-3-2017,Single Family Residential,20 Bonnie Ln,Berkeley,CA,94708,1125000,3,2.0,Berkeley Hills,2115,5120,1935,219,532,,Sold,,,http://www.redfin.com/CA/Berkeley/20-Bonnie-Ln-94708/home/1938680,EBRD/CCAR/Bay East,40781312,N,Y,37.8958497,-122.2645107
PAST SALE,June-30-2017,Single Family Residential,735 The ALAMEDA,Berkeley,CA,94707,2100000,4,2.5,Thousand Oaks,2436,6120,1933,222,862,,Sold,,,http://www.redfin.com/CA/Berkeley/735-The-Alameda-94707/home/1166569,EBRD/CCAR/Bay East,40781831,N,Y,37.8949094,-122.2773958
PAST SALE,July-18-2017,Single Family Residential,1849 Tacoma Ave,Berkeley,CA,94707,1250000,3,2.0,Thousand Oaks,1617,4000,1923,204,773,,Sold,,,http://www.redfin.com/CA/Berkeley/1849-Tacoma-Ave-94707/home/1993894,EBRD/CCAR/Bay East,40787685,N,Y,37.8941163,-122.2791193
PAST SALE,July-27-2017,Single Family Residential,867 ARLINGTON Ave,Berkeley,CA,94707,1700000,4,3.0,Thousand Oaks,2760,5940,1924,195,616,,Sold,,,http://www.redfin.com/CA/Berkeley/867-Arlington-Ave-94707/home/2006610,EBRD/CCAR/Bay East,40785828,N,Y,37.8929685,-122.2743057
PAST SALE,July-27-2017,Single Family Residential,1069 Sterling Ave,Berkeley,CA,94708,1000000,3,1.5,Berkeley Hills,1290,8112,1949,195,775,,Sold,,,http://www.redfin.com/CA/Berkeley/1069-Sterling-Ave-94708/home/1200729,EBRD/CCAR/Bay East,40783397,N,Y,37.8916194,-122.2585609
PAST SALE,August-25-2017,Single Family Residential,777 Euclid Ave,Berkeley,CA,94708-1348,1625000,4,3.0,North Berkeley,2604,4000,1935,166,624,,Sold,,,http://www.redfin.com/CA/Berkeley/777-Euclid-Ave-94708/home/2000950,EBRD/CCAR/Bay East,40790293,N,Y,37.8966175,-122.265411
PAST SALE,,Single Family Residential,1099 Euclid Ave,Berkeley,CA,94708,1430000,3,2.0,,2143,5460,1957,,667,,,,,http://www.redfin.com/CA/Berkeley/1099-Euclid-Ave-94708/home/1882403,,,N,Y,37.8897296,-122.2622526
PAST SALE,August-29-2017,Single Family Residential,969 Indian Rock Ave,Berkeley,CA,94707,1150000,3,2.0,Indian Rock Area,2150,5376,1923,162,535,,Sold,,,http://www.redfin.com/CA/Berkeley/969-Indian-Rock-Ave-94707/home/926436,EBRD/CCAR/Bay East,40791312,N,Y,37.8911322,-122.2718267
PAST SALE,October-12-2017,Single Family Residential,738 Wildcat Canyon Rd,Berkeley,CA,94708,1055000,4,3.0,Berkeley Hills,2010,6867,1960,118,525,,Sold,,,http://www.redfin.com/CA/Berkeley/738-Wildcat-Canyon-Rd-94708/home/1459440,EBRD/CCAR/Bay East,40797179,N,Y,37.8988483,-122.2588138
PAST SALE,September-6-2017,Single Family Residential,581 Woodmont Ave,Berkeley,CA,94708,1512000,4,3.5,Berkeley,2624,14036,1950,154,576,,Sold,,,http://www.redfin.com/CA/Berkeley/581-Woodmont-Ave-94708/home/1435982,EBRD/CCAR/Bay East,40792996,N,Y,37.9024726,-122.265592
PAST SALE,,Single Family Residential,1005 Sierra St,Berkeley,CA,94707,1250000,2,2.0,,1753,6100,1918,,713,,,,,http://www.redfin.com/CA/Berkeley/1005-Sierra-St-94707/home/697582,,,N,Y,37.8885363,-122.2801812
PAST SALE,October-17-2017,Single Family Residential,530 Grizzly Peak Blvd,Berkeley,CA,94708,1600000,4,2.5,North Berkeley,2185,5058,1978,113,732,,Sold,,,http://www.redfin.com/CA/Berkeley/530-Grizzly-Peak-Blvd-94708/home/702319,EBRD/CCAR/Bay East,40798566,N,Y,37.9023327,-122.2678373
PAST SALE,October-6-2017,Single Family Residential,804 Santa Barbara Rd,Berkeley,CA,94707,2100000,3,3.5,North Berkeley,2752,13529,1926,124,763,,Sold,,,http://www.redfin.com/CA/Berkeley/804-Santa-Barbara-Rd-94707/home/916073,EBRD/CCAR/Bay East,40795680,N,Y,37.8949602,-122.2703896
PAST SALE,,Single Family Residential,1009 Keith Ave,Berkeley,CA,94708,1290000,3,2.0,,2066,7850,1926,,624,,,,,http://www.redfin.com/CA/Berkeley/1009-Keith-Ave-94708/home/1657455,,,N,Y,37.8903199,-122.2663485
PAST SALE,November-20-2017,Single Family Residential,899 Arlington Ave,Berkeley,CA,94707,1600000,4,2.0,North Berkeley,2132,4876,1928,79,750,,Sold,,,http://www.redfin.com/CA/Berkeley/899-Arlington-Ave-94707/home/2001466,EBRD/CCAR/Bay East,40798939,N,Y,37.8921174,-122.2737209
PAST SALE,October-18-2017,Single Family Residential,1983 Yosemite Rd,Berkeley,CA,94707,1300000,2,1.5,Thousand Oaks,1609,4440,1922,112,808,,Sold,,,http://www.redfin.com/CA/Berkeley/1983-Yosemite-Rd-94707/home/2037463,EBRD/CCAR/Bay East,40797434,N,Y,37.8952793,-122.275739
PAST SALE,December-27-2017,Single Family Residential,1863 Thousand Oaks Blvd,Berkeley,CA,94707,1310000,3,2.0,Thousand Oaks,2856,5000,1947,42,459,,Sold,,,http://www.redfin.com/CA/Berkeley/1863-Thousand-Oaks-Blvd-94707/home/698806,EBRD/CCAR/Bay East,40803426,N,Y,37.897464,-122.2796373
PAST SALE,December-6-2017,Single Family Residential,1076 Sterling Ave,Berkeley,CA,94708,1000000,3,2.0,Berkeley Hills,1587,4960,1956,63,630,,Sold,,,http://www.redfin.com/CA/Berkeley/1076-Sterling-Ave-94708/home/1915937,EBRD/CCAR/Bay East,40798558,N,Y,37.8911474,-122.2585151
PAST SALE,January-3-2018,Vacant Land,1074 Sterling Ave,Berkeley,CA,94708,450000,,,Berkeley Hills,,5309,,35,,,Sold,,,http://www.redfin.com/CA/Berkeley/1074-Sterling-Ave-94708/home/143931551,EBRD/CCAR/Bay East,40798557,N,Y,37.8912986,-122.2586115
PAST SALE,January-25-2018,Single Family Residential,771 SAN DIEGO Rd,Berkeley,CA,94707,1695000,3,2.5,Thousand Oaks,2205,8216,1955,13,769,,Sold,,,http://www.redfin.com/CA/Berkeley/771-San-Diego-Rd-94707/home/1259148,EBRD/CCAR/Bay East,40800047,N,Y,37.8960069,-122.2723643
PAST SALE,January-8-2018,Single Family Residential,822 Mendocino Ave,Berkeley,CA,94707,2500000,5,4.5,Berkeley/Albany,3756,5512,1912,30,666,,Sold,,,http://www.redfin.com/CA/Berkeley/822-Mendocino-Ave-94707/home/1904305,San Francisco MLS,465473,N,Y,37.8928027,-122.275691
PAST SALE,,Vacant Land,Sterling Ave,Berkeley,CA,94708,450000,,,,,5309,,,,,,,,http://www.redfin.com/CA/Berkeley/Sterling-Ave-94708/home/22673420,,,N,Y,37.891112,-122.258803
PAST SALE,,Single Family Residential,1636 Kains Ave,Berkeley,CA,94702,965000,5,2.0,,2024,3300,1921,,477,,,,,http://www.redfin.com/CA/Berkeley/1636-Kains-Ave-94702/home/1518829,,,N,Y,37.8740069,-122.2929671
PAST SALE,October-10-2017,Single Family Residential,6119 Dover St,Oakland,CA,94609,1168000,5,2.0,N Oakland,2514,4534,1912,120,465,,Sold,,,http://www.redfin.com/CA/Oakland/6119-Dover-St-94609/home/531447,EBRD/CCAR/Bay East,40794643,N,Y,37.8468101,-122.2688589
PAST SALE,June-8-2017,Single Family Residential,27 NORWOOD Ave,Kensington,CA,94707,1530000,3,3.0,Kensington,2750,8500,1948,244,556,,Sold,,,http://www.redfin.com/CA/Kensington/27-Norwood-Ave-94707/home/1447986,EBRD/CCAR/Bay East,40779748,N,Y,37.9123767,-122.2840558
PAST SALE,June-21-2017,Single Family Residential,38 Franciscan Way,Kensington,CA,94707,945000,4,3.0,Blakemont,2660,10010,1952,231,355,,Sold,,,http://www.redfin.com/CA/Kensington/38-Franciscan-Way-94707/home/725661,EBRD/CCAR/Bay East,40779689,N,Y,37.9124224,-122.2869432
PAST SALE,March-17-2017,Single Family Residential,494 Boynton Ave,Berkeley,CA,94707,1185000,3,2.0,Thousand Oaks,1641,4800,1953,327,722,,Sold,,,http://www.redfin.com/CA/Berkeley/494-Boynton-Ave-94707/home/1673340,EBRD/CCAR/Bay East,40769310,N,Y,37.9008661,-122.2743063
PAST SALE,April-26-2017,Single Family Residential,1946 Yosemite Rd,Berkeley,CA,94707,1525000,3,2.5,Thousand Oaks,2167,4692,1925,287,704,,Sold,,,http://www.redfin.com/CA/Berkeley/1946-Yosemite-Rd-94707/home/1964415,EBRD/CCAR/Bay East,40775608,N,Y,37.8963155,-122.2767431
PAST SALE,May-23-2017,Single Family Residential,2504 Grant St,Berkeley,CA,94703,843000,3,3.0,Central Berkeley,1434,3920,1920,260,588,,Sold,,,http://www.redfin.com/CA/Berkeley/2504-Grant-St-94703/home/1291559,EBRD/CCAR/Bay East,40779589,N,Y,37.8627953,-122.2745778
PAST SALE,March-16-2017,Single Family Residential,1611 Harmon St,Berkeley,CA,94703,1025000,4,3.0,Berkeley,2300,6750,1909,328,446,,Sold,,,http://www.redfin.com/CA/Berkeley/1611-Harmon-St-94703/home/650205,EBRD/CCAR/Bay East,40769295,N,Y,37.849368,-122.2755239
PAST SALE,,Single Family Residential,1315 Channing Way,Berkeley,CA,94702,729000,2,1.0,,849,4725,1926,,859,,,,,http://www.redfin.com/CA/Berkeley/1315-Channing-Way-94702/home/673635,,,N,Y,37.8636306,-122.2855058
