SALE TYPE,SOLD DATE,PROPERTY TYPE,ADDRESS,CITY,STATE,ZIP,PRICE,BEDS,BATHS,LOCATION,SQUARE FEET,LOT SIZE,YEAR BUILT,DAYS ON MARKET,$/SQUARE FEET,HOA/MONTH,STATUS,NEXT OPEN HOUSE START TIME,NEXT OPEN HOUSE END TIME,URL (SEE http://www.redfin.com/buy-a-home/comparative-market-analysis FOR INFO ON PRICING),SOURCE,MLS#,FAVORITE,INTERESTED,LATITUDE,LONGITUDE
PAST SALE,November-13-2017,Condo/Co-op,1001 Laurel St #206,SAN CARLOS,CA,94070,1015000,2,2.0,SAN CARLOS,1138,51504,2009,78,892,480,Sold,,,http://www.redfin.com/CA/San-Carlos/1001-Laurel-St-94070/unit-206/home/28919204,MLSListings,ML81680502,N,Y,37.5013588,-122.2541747
PAST SALE,May-31-2017,Townhouse,434 Portofino Dr #304,SAN CARLOS,CA,94070,1290000,2,2.5,SAN CARLOS,1822,72872,1988,244,708,475,Sold,,,http://www.redfin.com/CA/San-Carlos/434-Portofino-Dr-94070/unit-304/home/2047142,MLSListings,ML81650191,N,Y,37.489561,-122.276218
PAST SALE,August-17-2016,Single Family Residential,2430 Eaton Ave,San Carlos,CA,94070,1600000,3,2.0,San Carlos,1736,7154,1949,531,922,,Sold,,,http://www.redfin.com/CA/San-Carlos/2430-Eaton-Ave-94070/home/1725850,San Francisco MLS,447800,N,Y,37.4844004,-122.2571532
PAST SALE,October-20-2016,Single Family Residential,1345 Howard Ave,SAN CARLOS,CA,94070,1600000,4,2.0,SAN CARLOS,1740,5279,1951,467,920,,Sold,,,http://www.redfin.com/CA/San-Carlos/1345-Howard-Ave-94070/home/1991689,MLSListings,ML81598251,N,Y,37.4972133,-122.2523164
PAST SALE,October-7-2016,Single Family Residential,1525 Greenwood Ave,SAN CARLOS,CA,94070,1265000,2,1.0,SAN CARLOS,1030,5040,1945,480,1228,,Sold,,,http://www.redfin.com/CA/San-Carlos/1525-Greenwood-Ave-94070/home/1161660,MLSListings,ML81600743,N,Y,37.4970054,-122.2547539
PAST SALE,May-11-2016,Single Family Residential,1637 Cedar St,SAN CARLOS,CA,94070,2275000,4,3.0,SAN CARLOS,2260,4521,1927,629,1007,,Sold,,,http://www.redfin.com/CA/San-Carlos/1637-Cedar-St-94070/home/1566988,MLSListings,ML81578052,N,Y,37.4918909,-122.2525835
PAST SALE,May-6-2016,Single Family Residential,1272 Howard Ave,SAN CARLOS,CA,94070,1339500,3,2.0,SAN CARLOS,1365,5200,1948,634,981,,Sold,,,http://www.redfin.com/CA/San-Carlos/1272-Howard-Ave-94070/home/1220740,MLSListings,ML81584264,N,Y,37.4977927,-122.2520626
PAST SALE,February-17-2016,Condo/Co-op,728 Elm St #106,SAN CARLOS,CA,94070,710000,2,2.0,SAN CARLOS,1010,23241,1965,713,703,500,Sold,,,http://www.redfin.com/CA/San-Carlos/728-Elm-St-94070/unit-106/home/17308270,MLSListings,ML81545792,N,Y,37.5029452,-122.2608774
PAST SALE,December-6-2016,Single Family Residential,1345 Geneva Ave,SAN CARLOS,CA,94070,1140000,2,1.0,SAN CARLOS,920,4040,1937,420,1239,,Sold,,,http://www.redfin.com/CA/San-Carlos/1345-Geneva-Ave-94070/home/2027178,MLSListings,ML81631303,N,Y,37.4953968,-122.2544195
PAST SALE,May-5-2016,Condo/Co-op,775 Chestnut St #17,SAN CARLOS,CA,94070,675000,1,1.0,SAN CARLOS,903,33171,1974,635,748,516,Sold,,,http://www.redfin.com/CA/San-Carlos/775-Chestnut-St-94070/unit-17/home/2059440,MLSListings,ML81565886,N,Y,37.5023859,-122.2610324
PAST SALE,June-22-2016,Single Family Residential,1028 Inverness Dr,SAN CARLOS,CA,94070,1100000,4,2.0,SAN CARLOS,1850,5000,1948,587,595,,Sold,,,http://www.redfin.com/CA/San-Carlos/1028-Inverness-Dr-94070/home/771020,MLSListings,ML81591850,N,Y,37.5118529,-122.26224
PAST SALE,,Single Family Residential,955 Montgomery St,San Carlos,CA,94070,870000,2,1.0,,1000,5000,1952,,870,,,,,http://www.redfin.com/CA/San-Carlos/955-Montgomery-St-94070/home/1143549,,,N,Y,37.5090631,-122.2561802
PAST SALE,July-1-2016,Single Family Residential,915 Hall St,SAN CARLOS,CA,94070,880000,2,1.0,SAN CARLOS,950,5000,1947,578,926,,Sold,,,http://www.redfin.com/CA/San-Carlos/915-Hall-St-94070/home/1070144,MLSListings,ML81585511,N,Y,37.5087051,-122.2541203
PAST SALE,October-14-2016,Vacant Land,520 El Camino Real,SAN CARLOS,CA,94070,3000000,,,SAN CARLOS,,8875,,473,,,Sold,,,http://www.redfin.com/CA/San-Carlos/520-El-Camino-Real-94070/home/107336098,MLSListings,ML81590643,N,Y,37.5080474,-122.2615793
PAST SALE,April-14-2016,Single Family Residential,10 Cottage Ln,SAN CARLOS,CA,94070,1500000,3,2.5,SAN CARLOS,1660,4948,1961,656,904,,Sold,,,http://www.redfin.com/CA/San-Carlos/10-Cottage-Ln-94070/home/1952270,MLSListings,ML81561658,Y,Y,37.5086351,-122.2788939
PAST SALE,April-14-2016,Single Family Residential,1047 Cherry St,SAN CARLOS,CA,94070,820000,2,1.0,SAN CARLOS,900,5000,1939,656,911,,Sold,,,http://www.redfin.com/CA/San-Carlos/1047-Cherry-St-94070/home/772027,MLSListings,ML81577307,N,Y,37.5070281,-122.2576079
PAST SALE,March-11-2016,Single Family Residential,251 Coronado Ave,SAN CARLOS,CA,94070,1770000,3,2.5,SAN CARLOS,1940,9535,1981,690,912,,Sold,,,http://www.redfin.com/CA/San-Carlos/251-Coronado-Ave-94070/home/1220371,MLSListings,ML81547264,N,Y,37.4969199,-122.2774933
PAST SALE,June-3-2016,Single Family Residential,1681 Sunnyslope Ave,BELMONT,CA,94002,1400000,3,2.0,BELMONT,1690,5248,1949,606,828,,Sold,,,http://www.redfin.com/CA/Belmont/1681-Sunnyslope-Ave-94002/home/2053314,MLSListings,ML81582683,N,Y,37.5123252,-122.2703841
PAST SALE,,Condo/Co-op,757 Elm St #107,San Carlos,CA,94070,738000,2,2.0,,1000,,1982,,738,,,,,http://www.redfin.com/CA/San-Carlos/757-Elm-St-94070/unit-107/home/987605,,,N,Y,37.503302,-122.2603585
PAST SALE,April-22-2016,Single Family Residential,2634 Graceland Ave,SAN CARLOS,CA,94070,2800000,4,3.5,SAN CARLOS,3110,10900,1975,648,900,,Sold,,,http://www.redfin.com/CA/San-Carlos/2634-Graceland-Ave-94070/home/1554006,MLSListings,ML81564823,N,Y,37.4869571,-122.2683304
PAST SALE,,Single Family Residential,2785 Eaton Ave,San Carlos,CA,94070,3000000,4,3.0,,3032,8077,1949,,989,,,,,http://www.redfin.com/CA/San-Carlos/2785-Eaton-Ave-94070/home/1792797,,,N,Y,37.484382,-122.264208
PAST SALE,August-10-2016,Single Family Residential,14 Garden Ln,SAN CARLOS,CA,94070,1210000,3,2.0,SAN CARLOS,1280,10998,1961,538,945,,Sold,,,http://www.redfin.com/CA/San-Carlos/14-Garden-Ln-94070/home/786603,MLSListings,ML81588770,N,Y,37.5074869,-122.2788432
PAST SALE,May-5-2016,Townhouse,4 Marigold Ln,SAN CARLOS,CA,94070,1412000,2,2.5,SAN CARLOS,2040,1633,1988,635,692,531,Sold,,,http://www.redfin.com/CA/San-Carlos/4-Marigold-Ln-94070/home/2058010,MLSListings,ML81565852,N,Y,37.493746,-122.29464
PAST SALE,December-1-2016,Single Family Residential,232 Beverly Dr,SAN CARLOS,CA,94070,1740000,4,3.0,SAN CARLOS,1947,6400,1941,425,894,,Sold,,,http://www.redfin.com/CA/San-Carlos/232-Beverly-Dr-94070/home/2058005,MLSListings,ML81630116,N,Y,37.4994898,-122.2817173
PAST SALE,April-22-2016,Single Family Residential,15 Garden Ln,SAN CARLOS,CA,94070,1310000,3,2.5,SAN CARLOS,1480,9790,1961,648,885,,Sold,,,http://www.redfin.com/CA/San-Carlos/15-Garden-Ln-94070/home/1886301,MLSListings,ML81550639,N,Y,37.507365,-122.278204
PAST SALE,July-6-2016,Single Family Residential,110 Edgehill Dr,SAN CARLOS,CA,94070,1700000,3,2.0,SAN CARLOS,1860,8189,1945,573,914,,Sold,,,http://www.redfin.com/CA/San-Carlos/110-Edgehill-Dr-94070/home/1406270,MLSListings,ML81583179,N,Y,37.4921748,-122.2591471
PAST SALE,October-26-2016,Single Family Residential,1358 Woodland Ave,SAN CARLOS,CA,94070,1318800,2,1.0,SAN CARLOS,1090,4038,1938,461,1210,,Sold,,,http://www.redfin.com/CA/San-Carlos/1358-Woodland-Ave-94070/home/2024694,MLSListings,ML81614841,N,Y,37.4953761,-122.2538476
PAST SALE,,Single Family Residential,159 Belvedere Ave,San Carlos,CA,94070,1600000,3,2.0,,1460,6095,1941,,1096,,,,,http://www.redfin.com/CA/San-Carlos/159-Belvedere-Ave-94070/home/805837,,,N,Y,37.4937499,-122.252296
PAST SALE,October-24-2016,Single Family Residential,1920 Howard Ave,SAN CARLOS,CA,94070,1555000,4,2.0,SAN CARLOS,1750,5898,1950,463,889,,Sold,,,http://www.redfin.com/CA/San-Carlos/1920-Howard-Ave-94070/home/794967,MLSListings,ML81615023,N,Y,37.494448,-122.257339
PAST SALE,November-4-2016,Single Family Residential,706 Cedar St,SAN CARLOS,CA,94070,2325000,4,3.0,SAN CARLOS,2580,5898,1939,452,901,,Sold,,,http://www.redfin.com/CA/San-Carlos/706-Cedar-St-94070/home/2059071,MLSListings,ML81614499,N,Y,37.5017348,-122.2627838
PAST SALE,April-14-2016,Single Family Residential,115 G St,REDWOOD CITY,CA,94063,950000,3,1.0,REDWOOD CITY,970,5566,1950,656,979,,Sold,,,http://www.redfin.com/CA/Redwood-City/115-G-St-94063/home/804379,MLSListings,ML81580308,N,Y,37.4943808,-122.2433431
PAST SALE,,Single Family Residential,156 Plymouth Ave,San Carlos,CA,94070,2487500,4,3.0,,2246,4960,1942,,1108,,,,,http://www.redfin.com/CA/San-Carlos/156-Plymouth-Ave-94070/home/1332363,,,N,Y,37.4995372,-122.2801727
PAST SALE,April-22-2016,Single Family Residential,2611 Thornhill Dr,San Carlos,CA,94070,1213000,2,1.0,San Mateo County,990,4400,1935,648,1225,,Sold,,,http://www.redfin.com/CA/San-Carlos/2611-Thornhill-Dr-94070/home/796535,BAREIS,21607444,N,Y,37.4881856,-122.2651931
PAST SALE,October-6-2016,Single Family Residential,8 El Sereno Dr,SAN CARLOS,CA,94070,2150000,3,3.5,SAN CARLOS,2080,4900,1937,481,1034,,Sold,,,http://www.redfin.com/CA/San-Carlos/8-El-Sereno-Dr-94070/home/1881719,MLSListings,ML81600721,N,Y,37.4932278,-122.2500402
PAST SALE,May-17-2016,Single Family Residential,422 Palomar Dr,REDWOOD CITY,CA,94062,1725000,4,3.0,REDWOOD CITY,3000,15999,1977,623,575,,Sold,,,http://www.redfin.com/CA/Redwood-City/422-Palomar-Dr-94062/home/1973834,MLSListings,ML81576893,N,Y,37.4798665,-122.2661037
PAST SALE,May-31-2016,Single Family Residential,1322 Crestview Dr,SAN CARLOS,CA,94070,2100000,5,3.0,SAN CARLOS,3390,12318,1973,609,619,,Sold,,,http://www.redfin.com/CA/San-Carlos/1322-Crestview-Dr-94070/home/1341149,MLSListings,ML81584115,N,Y,37.4786823,-122.2814851
PAST SALE,June-10-2016,Single Family Residential,1617 Sunnyslope Ave,BELMONT,CA,94002,1560000,3,2.0,BELMONT,1936,8140,1962,599,806,,Sold,,,http://www.redfin.com/CA/Belmont/1617-Sunnyslope-Ave-94002/home/1616081,MLSListings,ML81581673,Y,Y,37.5134195,-122.2710139
PAST SALE,September-14-2016,Condo/Co-op,3366 Brittan Ave #10,SAN CARLOS,CA,94070,785000,2,2.0,SAN CARLOS,1040,,1973,503,755,459,Sold,,,http://www.redfin.com/CA/San-Carlos/3366-Brittan-Ave-94070/unit-10/home/2020995,MLSListings,ML81598435,N,Y,37.483285,-122.287134
PAST SALE,August-3-2016,Condo/Co-op,3343 Brittan Ave #3,SAN CARLOS,CA,94070,759000,2,2.0,SAN CARLOS,1040,,1973,545,730,459,Sold,,,http://www.redfin.com/CA/San-Carlos/3343-Brittan-Ave-94070/unit-3/home/981910,MLSListings,ML81593889,N,Y,37.4808,-122.285864
PAST SALE,April-15-2016,Single Family Residential,190 Dolton Ave,SAN CARLOS,CA,94070,2348000,5,3.5,SAN CARLOS,3710,12911,1962,655,633,,Sold,,,http://www.redfin.com/CA/San-Carlos/190-Dolton-Ave-94070/home/790598,MLSListings,ML81550387,N,Y,37.4973638,-122.2859186
PAST SALE,August-25-2016,Single Family Residential,1108 Royal Ln,SAN CARLOS,CA,94070,1390000,3,2.5,SAN CARLOS,2720,2256,1985,523,511,446,Sold,,,http://www.redfin.com/CA/San-Carlos/1108-Royal-Ln-94070/home/795647,MLSListings,ML81584187,N,Y,37.4818574,-122.2845362
PAST SALE,October-28-2016,Condo/Co-op,408 Portofino Dr #2,SAN CARLOS,CA,94070,866250,2,1.0,SAN CARLOS,1570,10900,1961,459,552,334,Sold,,,http://www.redfin.com/CA/San-Carlos/408-Portofino-Dr-94070/unit-2/home/12477858,MLSListings,ML81612604,N,Y,37.49095,-122.277826
PAST SALE,November-29-2016,Single Family Residential,3101 Melendy Dr,SAN CARLOS,CA,94070,1788888,3,2.0,SAN CARLOS,2080,10798,1965,427,860,,Sold,,,http://www.redfin.com/CA/San-Carlos/3101-Melendy-Dr-94070/home/793064,MLSListings,ML81628276,Y,Y,37.4895467,-122.2782106
PAST SALE,,Single Family Residential,335 Portofino Dr,San Carlos,CA,94070,1450000,3,2.0,,1800,10602,1962,,806,,,,,http://www.redfin.com/CA/San-Carlos/335-Portofino-Dr-94070/home/1792701,,,N,Y,37.4918005,-122.2790124
PAST SALE,,Single Family Residential,1035 Orange Ave,San Carlos,CA,94070,575000,2,1.0,,1180,5550,1947,,487,,,,,http://www.redfin.com/CA/San-Carlos/1035-Orange-Ave-94070/home/790997,,,N,Y,37.4965313,-122.2595231
PAST SALE,,Single Family Residential,782 Elm St,San Carlos,CA,94070,1755500,3,1.0,,1460,7000,1946,,1202,,,,,http://www.redfin.com/CA/San-Carlos/782-Elm-St-94070/home/1844730,,,N,Y,37.5026189,-122.2604015
PAST SALE,August-30-2016,Single Family Residential,1973 Saint Francis Way,San Carlos,CA,94070,1515000,3,2.0,San Carlos,1630,6050,1940,518,929,,Sold,,,http://www.redfin.com/CA/San-Carlos/1973-Saint-Francis-Way-94070/home/1931600,San Francisco MLS,447562,N,Y,37.4887897,-122.2525094
PAST SALE,,Single Family Residential,936 Walnut St,San Carlos,CA,94070,1450000,2,2.0,,1090,6000,1926,,1330,,,,,http://www.redfin.com/CA/San-Carlos/936-Walnut-St-94070/home/2055224,,,N,Y,37.5010208,-122.2562743
PAST SALE,April-28-2016,Condo/Co-op,1001 Laurel St #227,SAN CARLOS,CA,94070,1048000,3,2.0,SAN CARLOS,1232,,2009,642,851,496,Sold,,,http://www.redfin.com/CA/San-Carlos/1001-Laurel-St-94070/unit-227/home/28919208,MLSListings,ML81566219,N,Y,37.5013588,-122.2541747
PAST SALE,,Multi-Family (2-4 Unit),435 Walnut St,San Carlos,CA,94070,9150000,32,2.0,,13826,15500,1953,,662,,,,,http://www.redfin.com/CA/San-Carlos/435-Walnut-St-94070/home/1830195,,,N,Y,37.5077076,-122.2638322
PAST SALE,February-24-2016,Condo/Co-op,222 Laurel St #100,SAN CARLOS,CA,94070,750000,2,2.0,SAN CARLOS,1361,20560,1963,706,551,520,Sold,,,http://www.redfin.com/CA/San-Carlos/222-Laurel-St-94070/unit-100/home/113739522,MLSListings,ML81546514,N,Y,37.5103846,-122.2659757
PAST SALE,November-21-2016,Condo/Co-op,3316 Brittan Ave #18,SAN CARLOS,CA,94070,859000,3,2.0,SAN CARLOS,1239,1239,1973,435,693,535,Sold,,,http://www.redfin.com/CA/San-Carlos/3316-Brittan-Ave-94070/unit-18/home/984432,MLSListings,ML81627760,N,Y,37.4827973,-122.285178
PAST SALE,July-22-2016,Single Family Residential,2108 Eaton Ave,SAN CARLOS,CA,94070,2092250,4,3.0,SAN CARLOS,2690,6150,1945,557,778,,Sold,,,http://www.redfin.com/CA/San-Carlos/2108-Eaton-Ave-94070/home/1881696,MLSListings,ML81592447,N,Y,37.485576,-122.2545171
PAST SALE,July-18-2016,Single Family Residential,1601 Arroyo Ave,SAN CARLOS,CA,94070,1835000,3,2.0,SAN CARLOS,1784,7440,1940,561,1029,,Sold,,,http://www.redfin.com/CA/San-Carlos/1601-Arroyo-Ave-94070/home/1133978,MLSListings,ML81584987,N,Y,37.5003379,-122.2596717
PAST SALE,,Single Family Residential,744 Cedar St,San Carlos,CA,94070,1600000,3,2.0,,1550,5500,1939,,1032,,,,,http://www.redfin.com/CA/San-Carlos/744-Cedar-St-94070/home/1850045,,,N,Y,37.5009076,-122.2624286
PAST SALE,April-1-2016,Single Family Residential,50 Avondale Ave,REDWOOD CITY,CA,94062,2019600,4,3.5,REDWOOD CITY,3018,6394,2010,669,669,,Sold,,,http://www.redfin.com/CA/Redwood-City/50-Avondale-Ave-94062/home/21967871,MLSListings,ML81562470,N,Y,37.4920944,-122.2436767
PAST SALE,November-16-2016,Single Family Residential,113 Mirabel Pl,SAN CARLOS,CA,94070,1825000,4,3.5,SAN CARLOS,2291,3567,2014,440,797,234,Sold,,,http://www.redfin.com/CA/San-Carlos/113-Mirabel-Pl-94070/home/104010897,MLSListings,ML81601210,N,Y,37.5022239,-122.2643524
PAST SALE,February-24-2017,Townhouse,10 Chicory Ln,SAN CARLOS,CA,94070,1380000,3,2.5,SAN CARLOS,2031,,1979,340,679,575,Sold,,,http://www.redfin.com/CA/San-Carlos/10-Chicory-Ln-94070/home/1965933,MLSListings,ML81638565,N,Y,37.4946355,-122.2976283
PAST SALE,February-14-2017,Vacant Land,747 Crestview Dr,SAN CARLOS,CA,94070,1295000,,,SAN CARLOS,,10500,,350,,,Sold,,,http://www.redfin.com/CA/San-Carlos/747-Crestview-Dr-94070/home/111727960,MLSListings,ML81633141,N,Y,37.48951,-122.288752
PAST SALE,August-5-2016,Single Family Residential,820 Buckland Ave,SAN CARLOS,CA,94070,1490750,3,2.0,SAN CARLOS,1550,7200,1960,543,962,,Sold,,,http://www.redfin.com/CA/San-Carlos/820-Buckland-Ave-94070/home/1122840,MLSListings,ML81591139,N,Y,37.5119825,-122.2782923
PAST SALE,August-30-2016,Townhouse,10 Tulip Ln,SAN CARLOS,CA,94070,1174000,2,2.0,SAN CARLOS,1990,1624,1989,518,590,531,Sold,,,http://www.redfin.com/CA/San-Carlos/10-Tulip-Ln-94070/home/1487514,MLSListings,ML81596302,N,Y,37.492415,-122.291997
PAST SALE,February-22-2016,Single Family Residential,2220 San Carlos Ave,SAN CARLOS,CA,94070,1588000,3,3.0,SAN CARLOS,1940,6500,1951,708,819,,Sold,,,http://www.redfin.com/CA/San-Carlos/2220-San-Carlos-Ave-94070/home/1991618,MLSListings,ML81534744,N,Y,37.502492,-122.2770633
PAST SALE,October-31-2016,Single Family Residential,274 Vine St,SAN CARLOS,CA,94070,1700000,3,2.0,SAN CARLOS,1840,5000,1938,456,924,,Sold,,,http://www.redfin.com/CA/San-Carlos/274-Vine-St-94070/home/1608392,MLSListings,ML81626867,N,Y,37.5070378,-122.2694256
PAST SALE,December-8-2016,Single Family Residential,228 Shelford Ave,SAN CARLOS,CA,94070,1648000,4,2.0,SAN CARLOS,2320,8250,1974,418,710,,Sold,,,http://www.redfin.com/CA/San-Carlos/228-Shelford-Ave-94070/home/1591197,MLSListings,ML81628501,N,Y,37.5100077,-122.277609
PAST SALE,October-7-2016,Single Family Residential,1733 Alameda de Las Pulgas,SAN CARLOS,CA,94070,1090000,3,1.5,SAN CARLOS,1230,3400,1946,480,886,,Sold,,,http://www.redfin.com/CA/San-Carlos/1733-Alameda-de-las-Pulgas-94070/home/797546,MLSListings,ML81600903,N,Y,37.484943,-122.2578489
PAST SALE,January-19-2017,Single Family Residential,1705 El Verano Way,BELMONT,CA,94002,1315000,3,2.0,BELMONT,1220,8122,1956,376,1078,,Sold,,,http://www.redfin.com/CA/Belmont/1705-El-Verano-Way-94002/home/1192112,MLSListings,ML81635188,N,Y,37.5110181,-122.2886949
PAST SALE,September-8-2016,Single Family Residential,2147 Edgewood Rd,REDWOOD CITY,CA,94062,1640000,4,3.0,REDWOOD CITY,1700,21000,1927,509,965,,Sold,,,http://www.redfin.com/CA/Emerald-Hills/2147-Edgewood-Rd-94062/home/1173286,MLSListings,ML81594488,N,Y,37.4739509,-122.2755645
PAST SALE,May-10-2016,Single Family Residential,570 Alameda De Las Pulgas,SAN CARLOS,CA,94070,1425000,2,1.0,SAN CARLOS,1170,5501,1940,630,1218,,Sold,,,http://www.redfin.com/CA/San-Carlos/570-Alameda-de-las-Pulgas-94070/home/2049500,MLSListings,ML81578325,Y,Y,37.5009584,-122.2703901
PAST SALE,February-26-2016,Single Family Residential,1925 Howard Ave,SAN CARLOS,CA,94070,1380000,3,1.5,SAN CARLOS,1140,4560,1949,704,1211,,Sold,,,http://www.redfin.com/CA/San-Carlos/1925-Howard-Ave-94070/home/1983798,MLSListings,ML81547138,N,Y,37.4940604,-122.2570617
PAST SALE,February-18-2016,Single Family Residential,2015 Eaton Ave,SAN CARLOS,CA,94070,1950000,4,3.0,SAN CARLOS,3400,13800,1951,712,574,,Sold,,,http://www.redfin.com/CA/San-Carlos/2015-Eaton-Ave-94070/home/800743,MLSListings,ML81545838,N,Y,37.4870475,-122.2523261
PAST SALE,February-16-2016,Single Family Residential,27 Bayport Ct,SAN CARLOS,CA,94070,1670000,4,3.0,SAN CARLOS,1830,5350,1987,714,913,,Sold,,,http://www.redfin.com/CA/San-Carlos/27-Bayport-Ct-94070/home/1340755,MLSListings,ML81545852,N,Y,37.5101275,-122.2585784
PAST SALE,March-14-2016,Single Family Residential,1124 Royal Ln,SAN CARLOS,CA,94070,1510000,3,2.5,SAN CARLOS,2880,3177,1985,687,524,420,Sold,,,http://www.redfin.com/CA/San-Carlos/1124-Royal-Ln-94070/home/1323347,MLSListings,ML81565109,N,Y,37.4811221,-122.2845919
PAST SALE,January-17-2017,Condo/Co-op,3319 La Mesa Dr #12,SAN CARLOS,CA,94070,810000,2,2.0,SAN CARLOS,1040,,1973,378,779,474,Sold,,,http://www.redfin.com/CA/San-Carlos/3319-La-Mesa-Dr-94070/unit-12/home/985185,MLSListings,ML81633956,N,Y,37.48035,-122.282845
PAST SALE,March-18-2016,Condo/Co-op,3335 La Mesa Dr #3,SAN CARLOS,CA,94070,617000,1,1.0,SAN CARLOS,741,,1973,683,833,382,Sold,,,http://www.redfin.com/CA/San-Carlos/3335-La-Mesa-Dr-94070/unit-3/home/1327127,MLSListings,ML81550437,N,Y,37.48035,-122.282845
PAST SALE,March-15-2017,Condo/Co-op,3331 La Mesa Dr #2,SAN CARLOS,CA,94070,760235,2,2.0,SAN CARLOS,1040,,1973,321,731,475,Sold,,,http://www.redfin.com/CA/San-Carlos/3331-La-Mesa-Dr-94070/unit-2/home/982999,MLSListings,ML81638342,N,Y,37.48035,-122.282845
PAST SALE,June-10-2016,Single Family Residential,1620 El Verano Way,BELMONT,CA,94002,1400000,3,2.0,BELMONT,1925,16321,1959,599,727,,Sold,,,http://www.redfin.com/CA/Belmont/1620-El-Verano-Way-94002/home/1453088,MLSListings,ML81580257,N,Y,37.5117427,-122.2878221
PAST SALE,,Single Family Residential,1320 Talbryn Dr,Belmont,CA,94002,3400000,1,1.0,,1050,58806,1955,,3238,,,,,http://www.redfin.com/CA/Belmont/1320-Talbryn-Dr-94002/home/1109934,,,N,Y,37.5138927,-122.2787266
PAST SALE,December-29-2016,Single Family Residential,607 Dartmouth Ave,SAN CARLOS,CA,94070,1711000,3,2.5,SAN CARLOS,1780,8750,1954,397,961,,Sold,,,http://www.redfin.com/CA/San-Carlos/607-Dartmouth-Ave-94070/home/781810,MLSListings,ML81633099,N,Y,37.5094363,-122.2827148
PAST SALE,December-16-2016,Single Family Residential,261 Highland Ave,SAN CARLOS,CA,94070,1375000,3,2.0,SAN CARLOS,1210,6599,1962,410,1136,,Sold,,,http://www.redfin.com/CA/San-Carlos/261-Highland-Ave-94070/home/2019768,MLSListings,ML81631478,N,Y,37.5072996,-122.2759908
PAST SALE,,Condo/Co-op,3327 La Mesa Dr Apt 11,San Carlos,CA,94070,875000,2,2.0,,1040,,1974,,841,,,,,http://www.redfin.com/CA/San-Carlos/3327-La-Mesa-Dr-94070/unit-11/home/985300,,,N,Y,37.48035,-122.282845
PAST SALE,,Single Family Residential,964 Blandford Blvd,Redwood City,CA,94062,2550000,3,4.0,,2700,10293,1931,,944,,,,,http://www.redfin.com/CA/Redwood-City/964-Blandford-Blvd-94062/home/1886462,,,N,Y,37.483782,-122.2524356
PAST SALE,December-21-2016,Single Family Residential,166 Oakview Dr,SAN CARLOS,CA,94070,1400000,2,2.0,SAN CARLOS,1330,4400,1953,405,1053,,Sold,,,http://www.redfin.com/CA/San-Carlos/166-Oakview-Dr-94070/home/1936030,MLSListings,ML81630863,N,Y,37.4889225,-122.2602152
PAST SALE,March-9-2017,Single Family Residential,2125 Saint Francis Way,SAN CARLOS,CA,94070,1950000,5,3.0,SAN CARLOS,2440,6050,1951,327,799,,Sold,,,http://www.redfin.com/CA/San-Carlos/2125-Saint-Francis-Way-94070/home/1881669,MLSListings,ML81637043,Y,Y,37.4866844,-122.2560508
PAST SALE,August-12-2016,Single Family Residential,1100 Woodland Ave,SAN CARLOS,CA,94070,1749000,6,4.0,SAN CARLOS,2500,5488,1947,536,700,,Sold,,,http://www.redfin.com/CA/San-Carlos/1100-Woodland-Ave-94070/home/801387,MLSListings,ML81578928,N,Y,37.4975357,-122.2562912
PAST SALE,October-6-2016,Single Family Residential,225 Alberta Ave,SAN CARLOS,CA,94070,1700000,3,2.0,SAN CARLOS,1667,5600,1947,481,1020,,Sold,,,http://www.redfin.com/CA/San-Carlos/225-Alberta-Ave-94070/home/800605,MLSListings,ML81612015,N,Y,37.4886863,-122.2545825
PAST SALE,December-15-2016,Single Family Residential,1529 Cedar St,SAN CARLOS,CA,94070,1450000,3,1.0,SAN CARLOS,1260,4600,1949,411,1151,,Sold,,,http://www.redfin.com/CA/San-Carlos/1529-Cedar-St-94070/home/1315222,MLSListings,ML81630820,N,Y,37.4925382,-122.2533674
PAST SALE,February-24-2016,Single Family Residential,1647 Walnut St,SAN CARLOS,CA,94070,1260000,2,1.0,SAN CARLOS,1160,4400,1948,706,1086,,Sold,,,http://www.redfin.com/CA/San-Carlos/1647-Walnut-St-94070/home/1183509,MLSListings,ML81547771,N,Y,37.494269,-122.247513
PAST SALE,December-8-2016,Other,1510 El Camino Real,SAN CARLOS,CA,94070,1400000,2,,SAN CARLOS,2400,2526,2016,418,583,,Sold,,,http://www.redfin.com/CA/San-Carlos/1510-El-Camino-Real-94070/home/108372333,MLSListings,ML81595586,N,Y,37.4961911,-122.247761
PAST SALE,,Single Family Residential,1985 Eaton Ave,San Carlos,CA,94070,1610000,3,2.0,,1340,8500,1941,,1201,,,,,http://www.redfin.com/CA/San-Carlos/1985-Eaton-Ave-94070/home/2042983,,,N,Y,37.4872141,-122.2514961
PAST SALE,,Single Family Residential,888 Blandford Blvd,Redwood City,CA,94062,2500000,3,2.0,,2010,11088,1939,,1244,,,,,http://www.redfin.com/CA/Redwood-City/888-Blandford-Blvd-94062/home/803038,,,N,Y,37.485374,-122.251162
PAST SALE,November-18-2016,Single Family Residential,1079 Hewitt Dr,SAN CARLOS,CA,94070,1559000,3,2.0,SAN CARLOS,1650,8590,1967,438,945,,Sold,,,http://www.redfin.com/CA/San-Carlos/1079-Hewitt-Dr-94070/home/1624435,MLSListings,ML81627765,N,Y,37.4899803,-122.2708312
PAST SALE,June-13-2016,Single Family Residential,117 Wilshire Ct,SAN CARLOS,CA,94070,1210000,3,3.0,SAN CARLOS,1130,5501,1954,596,1071,,Sold,,,http://www.redfin.com/CA/San-Carlos/117-Wilshire-Ct-94070/home/791227,MLSListings,ML81581857,N,Y,37.4893647,-122.2689488
PAST SALE,September-14-2016,Single Family Residential,74 Cedar St,SAN CARLOS,CA,94070,1300000,2,1.0,SAN CARLOS,1150,7590,1950,503,1130,,Sold,,,http://www.redfin.com/CA/San-Carlos/74-Cedar-St-94070/home/2044332,MLSListings,ML81597209,N,Y,37.5100595,-122.2704335
PAST SALE,,Multi-Family (2-4 Unit),418 Laurel St,San Carlos,CA,94070,4850000,15,1.0,,12724,15500,1967,,381,,,,,http://www.redfin.com/CA/San-Carlos/418-Laurel-St-94070/home/790582,,,N,Y,37.508187,-122.26371
PAST SALE,May-4-2016,Single Family Residential,760 Tamarack Ave,SAN CARLOS,CA,94070,1720000,4,2.0,SAN CARLOS,1898,6398,1948,636,906,,Sold,,,http://www.redfin.com/CA/San-Carlos/760-Tamarack-Ave-94070/home/2044399,MLSListings,ML81563582,N,Y,37.4986249,-122.2682778
PAST SALE,October-26-2016,Single Family Residential,964 Lupin Way,SAN CARLOS,CA,94070,1299000,4,2.0,SAN CARLOS,1760,7500,1957,461,738,,Sold,,,http://www.redfin.com/CA/San-Carlos/964-Lupin-Way-94070/home/1478172,MLSListings,ML81600968,N,Y,37.4935446,-122.2644498
PAST SALE,May-24-2016,Single Family Residential,973 Alameda,SAN CARLOS,CA,94070,1360000,3,2.0,SAN CARLOS,1050,5227,1948,616,1295,,Sold,,,http://www.redfin.com/CA/San-Carlos/973-Alameda-de-las-Pulgas-94070/home/1926123,MLSListings,ML81583923,Y,Y,37.4924158,-122.2660955
PAST SALE,February-23-2016,Condo/Co-op,656 Cedar St #3,SAN CARLOS,CA,94070,990000,2,2.5,SAN CARLOS,1440,1000,1985,707,688,250,Sold,,,http://www.redfin.com/CA/San-Carlos/656-Cedar-St-94070/unit-3/home/993139,MLSListings,ML81561976,N,Y,37.5026207,-122.2640735
PAST SALE,April-29-2016,Single Family Residential,1001 Rosewood Ave,SAN CARLOS,CA,94070,1650000,3,2.0,SAN CARLOS,1570,6600,1941,641,1051,,Sold,,,http://www.redfin.com/CA/San-Carlos/1001-Rosewood-Ave-94070/home/799723,MLSListings,ML81578209,N,Y,37.4996615,-122.2567694
PAST SALE,,Single Family Residential,915 Rosewood Ave,San Carlos,CA,94070,1850000,3,1.0,,1840,6000,1936,,1005,,,,,http://www.redfin.com/CA/San-Carlos/915-Rosewood-Ave-94070/home/800163,,,N,Y,37.5010211,-122.2583012
PAST SALE,July-6-2016,Condo/Co-op,772 Walnut St #5,SAN CARLOS,CA,94070,815000,2,1.5,SAN CARLOS,970,19000,1970,573,840,370,Sold,,,http://www.redfin.com/CA/San-Carlos/772-Walnut-St-94070/unit-5/home/1949698,MLSListings,ML81586555,N,Y,37.5032957,-122.2597973
PAST SALE,June-10-2016,Townhouse,17 Iris Ln,SAN CARLOS,CA,94070,1350000,3,2.5,SAN CARLOS,2510,1829,1988,599,538,531,Sold,,,http://www.redfin.com/CA/San-Carlos/17-Iris-Ln-94070/home/1201527,MLSListings,ML81582913,N,Y,37.493438,-122.294703
PAST SALE,November-4-2016,Townhouse,21 Calypso Ln,SAN CARLOS,CA,94070,1250000,3,2.5,SAN CARLOS,1709,1742,1979,452,731,575,Sold,,,http://www.redfin.com/CA/San-Carlos/21-Calypso-Ln-94070/home/1115159,MLSListings,ML81614851,N,Y,37.4922602,-122.29354
PAST SALE,April-7-2016,Townhouse,8 Buttercup Ln,SAN CARLOS,CA,94070,1205000,2,2.5,SAN CARLOS,1793,,1981,663,672,575,Sold,,,http://www.redfin.com/CA/San-Carlos/8-Buttercup-Ln-94070/unit-348/home/989086,MLSListings,ML81561275,N,Y,37.4984589,-122.2995357
PAST SALE,July-19-2016,Single Family Residential,890 Crestview Dr,SAN CARLOS,CA,94070,1890000,4,3.0,SAN CARLOS,2565,8925,1972,560,737,,Sold,,,http://www.redfin.com/CA/San-Carlos/890-Crestview-Dr-94070/home/1505854,MLSListings,ML81590278,N,Y,37.4860278,-122.2878149
PAST SALE,,Single Family Residential,1048 Sylvan Dr,San Carlos,CA,94070,850000,2,1.0,,820,5000,1948,,1037,,,,,http://www.redfin.com/CA/San-Carlos/1048-Sylvan-Dr-94070/home/771061,,,N,Y,37.5108493,-122.262205
PAST SALE,February-23-2017,Single Family Residential,941 Holly St,SAN CARLOS,CA,94070,1040000,2,1.0,SAN CARLOS,960,5850,1940,341,1083,,Sold,,,http://www.redfin.com/CA/San-Carlos/941-Holly-St-94070/home/1212120,MLSListings,ML81635129,N,Y,37.5111113,-122.258628
PAST SALE,October-28-2016,Single Family Residential,1300 Magnolia Ave,SAN CARLOS,CA,94070,1575000,2,2.0,SAN CARLOS,2000,7440,1921,459,788,,Sold,,,http://www.redfin.com/CA/San-Carlos/1300-Magnolia-Ave-94070/home/787643,MLSListings,ML81625857,Y,Y,37.5079957,-122.2650525
PAST SALE,May-2-2016,Single Family Residential,103 F St,REDWOOD CITY,CA,94063,935000,3,1.0,REDWOOD CITY,960,6970,1950,638,974,,Sold,,,http://www.redfin.com/CA/Redwood-City/103-F-St-94063/home/804387,MLSListings,ML81534506,N,Y,37.493983,-122.2434671
PAST SALE,December-13-2016,Single Family Residential,231 Exeter Ave,SAN CARLOS,CA,94070,1900000,4,3.0,SAN CARLOS,2730,7819,1961,413,696,,Sold,,,http://www.redfin.com/CA/San-Carlos/231-Exeter-Ave-94070/home/1340935,MLSListings,ML81614663,N,Y,37.500824,-122.2809175
PAST SALE,May-16-2016,Single Family Residential,23 Williams Ln,SAN CARLOS,CA,94070,2100000,3,2.0,SAN CARLOS,1810,7683,1960,624,1160,,Sold,,,http://www.redfin.com/CA/San-Carlos/23-Williams-Ln-94070/home/2021764,MLSListings,ML81585848,N,Y,37.5052989,-122.2777845
PAST SALE,August-11-2016,Vacant Land,0 Lynton Ave,SAN CARLOS,CA,94070,60000,,,SAN CARLOS,,9320,,537,,,Sold,,,http://www.redfin.com/CA/San-Carlos/Lynton-Ave-94070/home/21630961,MLSListings,ML81578117,N,Y,37.4977742,-122.2878957
PAST SALE,July-14-2016,Single Family Residential,2424 San Carlos Ave,SAN CARLOS,CA,94070,1300000,3,1.0,SAN CARLOS,1170,8001,1941,565,1111,,Sold,,,http://www.redfin.com/CA/San-Carlos/2424-San-Carlos-Ave-94070/home/1935875,MLSListings,ML81590110,Y,Y,37.5035559,-122.2793861
PAST SALE,July-11-2016,Single Family Residential,103 Club Dr,SAN CARLOS,CA,94070,1650000,3,2.5,SAN CARLOS,1931,12025,1958,568,854,,Sold,,,http://www.redfin.com/CA/San-Carlos/103-Club-Dr-94070/home/790060,MLSListings,ML81587579,N,Y,37.501033,-122.2841348
PAST SALE,September-23-2016,Single Family Residential,1066 Porto Marino Dr,SAN CARLOS,CA,94070,1810000,3,2.0,SAN CARLOS,1760,7300,1959,494,1028,,Sold,,,http://www.redfin.com/CA/San-Carlos/1066-Porto-Marino-Dr-94070/home/790774,MLSListings,ML81599771,N,Y,37.4887129,-122.2739004
PAST SALE,December-15-2016,Single Family Residential,2607 Graceland Ave,SAN CARLOS,CA,94070,2600000,3,3.0,SAN CARLOS,2400,18238,1954,411,1083,,Sold,,,http://www.redfin.com/CA/San-Carlos/2607-Graceland-Ave-94070/home/2054279,MLSListings,ML81630306,N,Y,37.4876142,-122.2675279
PAST SALE,April-12-2016,Single Family Residential,393 Ridge Rd,SAN CARLOS,CA,94070,1380000,3,1.5,SAN CARLOS,1310,5450,1948,658,1053,,Sold,,,http://www.redfin.com/CA/San-Carlos/393-Ridge-Rd-94070/home/1469844,MLSListings,ML81561668,N,Y,37.4876805,-122.2636858
PAST SALE,March-29-2016,Single Family Residential,338 Hill Way,SAN CARLOS,CA,94070,1910000,4,3.0,SAN CARLOS,2509,8001,1939,672,761,,Sold,,,http://www.redfin.com/CA/San-Carlos/338-Hill-Way-94070/home/793713,MLSListings,ML81577477,N,Y,37.4872338,-122.26227
PAST SALE,August-2-2016,Single Family Residential,1341 Alameda,SAN CARLOS,CA,94070,1300000,4,2.0,SAN CARLOS,1680,6163,1963,546,774,,Sold,,,http://www.redfin.com/CA/San-Carlos/170-Wildwood-Ave-94070/home/1416066,MLSListings,ML81591117,N,Y,37.48889,-122.262531
PAST SALE,June-29-2016,Condo/Co-op,416 PORTOFINO Dr #206,SAN CARLOS,CA,94070,879000,2,2.5,SAN CARLOS,1320,36677,1991,580,666,485,Sold,,,http://www.redfin.com/CA/San-Carlos/416-Portofino-Dr-94070/unit-206/home/1128279,MLSListings,ML81579199,N,Y,37.4902,-122.2773172
PAST SALE,November-3-2016,Single Family Residential,916 Tamarack Ave,SAN CARLOS,CA,94070,2391000,5,3.0,SAN CARLOS,2711,5501,1947,453,882,,Sold,,,http://www.redfin.com/CA/San-Carlos/916-Tamarack-Ave-94070/home/1359945,MLSListings,ML81614600,N,Y,37.4948318,-122.2651789
PAST SALE,September-30-2016,Single Family Residential,840 Bauer Ct,SAN CARLOS,CA,94070,2475000,4,3.5,SAN CARLOS,2550,13700,1957,487,971,,Sold,,,http://www.redfin.com/CA/San-Carlos/840-Bauer-Ct-94070/home/788067,MLSListings,ML81591418,N,Y,37.494303,-122.2685013
PAST SALE,May-16-2016,Single Family Residential,2504 Melendy Dr,SAN CARLOS,CA,94070,2355000,4,3.0,SAN CARLOS,2580,11778,1989,624,913,,Sold,,,http://www.redfin.com/CA/San-Carlos/2504-Melendy-Dr-94070/home/1979531,MLSListings,ML81579003,N,Y,37.4937702,-122.2718481
PAST SALE,January-6-2017,Single Family Residential,167 F St,REDWOOD CITY,CA,94063,885000,3,1.0,REDWOOD CITY,970,5000,1950,389,912,,Sold,,,http://www.redfin.com/CA/Redwood-City/167-F-St-94063/home/1667121,MLSListings,ML81633705,N,Y,37.4947411,-122.2424152
PAST SALE,December-22-2016,Single Family Residential,206 Sycamore St,SAN CARLOS,CA,94070,1198000,2,1.0,SAN CARLOS,1080,7840,1952,404,1109,,Sold,,,http://www.redfin.com/CA/San-Carlos/206-Sycamore-St-94070/home/2002034,MLSListings,ML81630911,N,Y,37.5067542,-122.2702811
PAST SALE,May-28-2016,Condo/Co-op,1 Elm St #301,SAN CARLOS,CA,94070,895000,2,2.0,SAN CARLOS,1180,1306,1981,612,758,420,Sold,,,http://www.redfin.com/CA/San-Carlos/1-Elm-St-94070/unit-301/home/986912,MLSListings,ML81581771,N,Y,37.5124978,-122.2694072
PAST SALE,October-28-2016,Single Family Residential,529 Sycamore St,SAN CARLOS,CA,94070,1351000,3,2.0,SAN CARLOS,2210,5445,1940,459,611,,Sold,,,http://www.redfin.com/CA/San-Carlos/529-Sycamore-St-94070/home/1752745,MLSListings,ML81625635,N,Y,37.5036227,-122.2666963
PAST SALE,November-28-2016,Single Family Residential,477 Emerald Ave,SAN CARLOS,CA,94070,2225000,4,3.0,SAN CARLOS,2560,5262,1947,428,869,,Sold,,,http://www.redfin.com/CA/San-Carlos/477-Emerald-Ave-94070/home/1926167,MLSListings,ML81628697,N,Y,37.4866395,-122.257417
PAST SALE,November-15-2016,Single Family Residential,1661 Brittan Ave,SAN CARLOS,CA,94070,1200000,2,1.0,SAN CARLOS,1030,5797,1945,441,1165,,Sold,,,http://www.redfin.com/CA/San-Carlos/1661-Brittan-Ave-94070/home/1836164,MLSListings,ML81628495,N,Y,37.4970816,-122.2570643
PAST SALE,February-24-2017,Single Family Residential,86 Madrona St,SAN CARLOS,CA,94070,3235000,5,4.0,SAN CARLOS,3750,19915,2016,340,863,,Sold,,,http://www.redfin.com/CA/San-Carlos/86-Madrona-St-94070/home/108551341,MLSListings,ML81596244,N,Y,37.505229,-122.27155
PAST SALE,September-6-2016,Single Family Residential,29 Hillcrest Rd,SAN CARLOS,CA,94070,1825000,4,2.5,SAN CARLOS,2480,6320,1999,511,736,,Sold,,,http://www.redfin.com/CA/San-Carlos/29-Hillcrest-Rd-94070/home/1423746,MLSListings,ML81613084,N,Y,37.5096774,-122.2723612
PAST SALE,March-4-2016,Single Family Residential,147 Windsor Dr,SAN CARLOS,CA,94070,905000,1,1.0,SAN CARLOS,762,4499,1946,697,1188,,Sold,,,http://www.redfin.com/CA/San-Carlos/147-Windsor-Dr-94070/home/783570,MLSListings,ML81545797,N,Y,37.4974334,-122.2797284
PAST SALE,July-22-2016,Single Family Residential,109 Arundel,SAN CARLOS,CA,94070,2425000,4,3.5,SAN CARLOS,2603,5600,2016,557,932,,Sold,,,http://www.redfin.com/CA/San-Carlos/109-Arundel-Rd-94070/home/788653,MLSListings,ML81585571,N,Y,37.5037741,-122.2705559
PAST SALE,November-7-2016,Single Family Residential,2444 San Carlos Ave,SAN CARLOS,CA,94070,1160000,2,2.0,SAN CARLOS,1030,8481,1947,449,1126,,Sold,,,http://www.redfin.com/CA/San-Carlos/2444-San-Carlos-Ave-94070/home/1433695,MLSListings,ML81626726,Y,Y,37.5041719,-122.2797601
PAST SALE,February-15-2017,Single Family Residential,142 Plymouth Ave,SAN CARLOS,CA,94070,2180000,3,2.5,SAN CARLOS,2116,6676,1940,349,1030,,Sold,,,http://www.redfin.com/CA/San-Carlos/142-Plymouth-Ave-94070/home/1632746,MLSListings,ML81635031,Y,Y,37.5000957,-122.2798042
PAST SALE,October-3-2016,Single Family Residential,2428 San Carlos Ave,SAN CARLOS,CA,94070,1345000,3,2.0,SAN CARLOS,1480,8001,1947,484,909,,Sold,,,http://www.redfin.com/CA/San-Carlos/2428-San-Carlos-Ave-94070/home/782376,MLSListings,ML81598652,N,Y,37.5036789,-122.2794785
PAST SALE,October-17-2016,Single Family Residential,578 Cedar St,SAN CARLOS,CA,94070,1803000,4,2.0,SAN CARLOS,2075,6500,1924,470,869,,Sold,,,http://www.redfin.com/CA/San-Carlos/578-Cedar-St-94070/home/1583114,MLSListings,ML81599974,N,Y,37.5040176,-122.2656328
PAST SALE,September-13-2016,Single Family Residential,107 Dartmouth Ave,SAN CARLOS,CA,94070,1710000,3,3.0,SAN CARLOS,2980,11199,1961,504,574,,Sold,,,http://www.redfin.com/CA/San-Carlos/107-Dartmouth-Ave-94070/home/1931532,MLSListings,ML81599357,N,Y,37.5089746,-122.275242
PAST SALE,February-7-2017,Single Family Residential,60 Dartmouth Ave,SAN CARLOS,CA,94070,2750000,4,4.0,SAN CARLOS,2445,8118,1955,357,1125,,Sold,,,http://www.redfin.com/CA/San-Carlos/60-Dartmouth-Ave-94070/home/1048047,MLSListings,ML81638044,N,Y,37.5096924,-122.27474
PAST SALE,March-18-2016,Single Family Residential,184 Lyndhurst Ave,SAN CARLOS,CA,94070,1745000,3,2.0,SAN CARLOS,1660,7649,1956,683,1051,,Sold,,,http://www.redfin.com/CA/San-Carlos/184-Lyndhurst-Ave-94070/home/2024628,MLSListings,ML81562539,N,Y,37.5112056,-122.2781587
PAST SALE,November-18-2016,Single Family Residential,16 Miramonte Ct,SAN CARLOS,CA,94070,1608000,3,2.0,SAN CARLOS,1756,6050,1956,438,916,,Sold,,,http://www.redfin.com/CA/San-Carlos/16-Miramonte-Ct-94070/home/2001940,MLSListings,ML81628349,N,Y,37.5090088,-122.2743057
PAST SALE,February-12-2016,Single Family Residential,10 Valley Rd,SAN CARLOS,CA,94070,1835000,4,3.0,SAN CARLOS,1810,6344,1951,718,1014,,Sold,,,http://www.redfin.com/CA/San-Carlos/10-Valley-Rd-94070/home/1070076,MLSListings,ML81547042,N,Y,37.5078554,-122.2704446
PAST SALE,February-28-2017,Single Family Residential,70 Shelford Ave,SAN CARLOS,CA,94070,1750000,3,2.0,SAN CARLOS,1554,12480,1962,336,1126,,Sold,,,http://www.redfin.com/CA/San-Carlos/70-Shelford-Ave-94070/home/1014333,MLSListings,ML81635625,Y,Y,37.507596,-122.2787196
PAST SALE,October-7-2016,Condo/Co-op,222 Laurel St #108,SAN CARLOS,CA,94070,525000,1,1.0,SAN CARLOS,702,20560,1963,480,748,342,Sold,,,http://www.redfin.com/CA/San-Carlos/222-Laurel-St-94070/unit-108/home/113739189,MLSListings,ML81597808,N,Y,37.5103846,-122.2659757
PAST SALE,August-26-2016,Townhouse,2 Tulip Ln,SAN CARLOS,CA,94070,1310000,2,2.0,SAN CARLOS,1990,1128,1989,522,658,531,Sold,,,http://www.redfin.com/CA/San-Carlos/2-Tulip-Ln-94070/home/1709160,MLSListings,ML81592282,N,Y,37.492064,-122.291257
PAST SALE,June-2-2016,Townhouse,17 Tulip Ln,SAN CARLOS,CA,94070,1605000,3,2.5,SAN CARLOS,2310,1598,1989,607,695,531,Sold,,,http://www.redfin.com/CA/San-Carlos/17-Tulip-Ln-94070/home/1694420,MLSListings,ML81580563,N,Y,37.49269,-122.291311
PAST SALE,,Condo/Co-op,7 Lilly Ln,San Carlos,CA,94070,1150000,2,2.0,,1709,,1979,,673,,,,,http://www.redfin.com/CA/San-Carlos/7-Lilly-Ln-94070/home/1206498,,,N,Y,37.4914815,-122.292266
PAST SALE,May-6-2016,Townhouse,11 Lilly Ln,SAN CARLOS,CA,94070,1300000,3,2.5,SAN CARLOS,2031,,1979,634,640,575,Sold,,,http://www.redfin.com/CA/San-Carlos/11-Lilly-Ln-94070/home/1646640,MLSListings,ML81577988,N,Y,37.4913597,-122.2925752
PAST SALE,December-9-2016,Single Family Residential,100 Palm Ave,SAN CARLOS,CA,94070,1302000,2,2.0,SAN CARLOS,1340,7056,1947,417,972,,Sold,,,http://www.redfin.com/CA/San-Carlos/100-Palm-Ave-94070/home/1919807,MLSListings,ML81629490,N,Y,37.5036711,-122.2700305
PAST SALE,June-20-2016,Condo/Co-op,731 Chestnut St #104,SAN CARLOS,CA,94070,945000,2,2.5,SAN CARLOS,1085,15328,1982,589,871,415,Sold,,,http://www.redfin.com/CA/San-Carlos/731-Chestnut-St-94070/unit-104/home/1311099,MLSListings,ML81584410,N,Y,37.502888,-122.26163
PAST SALE,May-6-2016,Single Family Residential,11 Cortez Rd,REDWOOD CITY,CA,94062,1630000,4,3.0,REDWOOD CITY,2150,10950,1961,634,758,,Sold,,,http://www.redfin.com/CA/Redwood-City/11-Cortez-Ave-94062/home/1231168,MLSListings,ML81578360,N,Y,37.4786724,-122.265058
PAST SALE,February-10-2017,Condo/Co-op,3358 Brittan Ave #11,SAN CARLOS,CA,94070,802000,2,2.0,SAN CARLOS,1040,,1973,354,771,475,Sold,,,http://www.redfin.com/CA/San-Carlos/3358-Brittan-Ave-94070/unit-11/home/1138137,MLSListings,ML81635259,N,Y,37.483285,-122.2871427
PAST SALE,October-26-2016,Single Family Residential,2425 Melendy Dr,SAN CARLOS,CA,94070,2060000,3,3.0,SAN CARLOS,2341,9301,1957,461,880,,Sold,,,http://www.redfin.com/CA/San-Carlos/2425-Melendy-Dr-94070/home/1201578,MLSListings,ML81614695,N,Y,37.4929726,-122.2688489
PAST SALE,February-14-2017,Single Family Residential,136 Lyndhurst Ave,SAN CARLOS,CA,94070,1700000,3,2.0,SAN CARLOS,1670,5712,1964,350,1018,,Sold,,,http://www.redfin.com/CA/San-Carlos/136-Lyndhurst-Ave-94070/home/784351,MLSListings,ML81635508,Y,Y,37.5108183,-122.2777302
PAST SALE,May-24-2016,Single Family Residential,339 Cedar St,SAN CARLOS,CA,94070,2610000,4,3.0,SAN CARLOS,2923,5400,2016,616,893,,Sold,,,http://www.redfin.com/CA/San-Carlos/339-Cedar-St-94070/home/787603,MLSListings,ML81563941,N,Y,37.5065014,-122.2678165
PAST SALE,May-23-2016,Single Family Residential,1005 Buckland Ave,SAN CARLOS,CA,94070,1542000,3,3.0,SAN CARLOS,2100,12959,1955,617,734,,Sold,,,http://www.redfin.com/CA/San-Carlos/1005-Buckland-Ave-94070/home/1133302,MLSListings,ML81586981,N,Y,37.5097577,-122.2738817
PAST SALE,April-28-2016,Single Family Residential,125 Chestnut St,SAN CARLOS,CA,94070,1900000,3,2.0,SAN CARLOS,1920,6325,1947,642,990,,Sold,,,http://www.redfin.com/CA/San-Carlos/125-Chestnut-St-94070/home/1881370,MLSListings,ML81566056,N,Y,37.5097878,-122.2685126
PAST SALE,April-29-2016,Single Family Residential,1622 King St,BELMONT,CA,94002,1445000,4,3.0,BELMONT,1780,5702,1966,641,812,,Sold,,,http://www.redfin.com/CA/Belmont/1622-King-St-94002/home/768368,MLSListings,ML81565915,Y,Y,37.5132895,-122.2702155
PAST SALE,,Single Family Residential,335 Cedar St,San Carlos,CA,94070,1467000,3,2.0,,1220,6810,1930,,1202,,,,,http://www.redfin.com/CA/San-Carlos/335-Cedar-St-94070/home/1387987,,,N,Y,37.5066707,-122.2678798
PAST SALE,,Single Family Residential,910 Hall St,San Carlos,CA,94070,937000,2,2.0,,1230,5000,1947,,762,,,,,http://www.redfin.com/CA/San-Carlos/910-Hall-St-94070/home/1405841,,,N,Y,37.5090425,-122.2542727
PAST SALE,,Single Family Residential,341 Chestnut St,San Carlos,CA,94070,750000,3,2.0,,1440,5600,1956,,521,,,,,http://www.redfin.com/CA/San-Carlos/341-Chestnut-St-94070/home/1487534,,,N,Y,37.5074931,-122.266377
PAST SALE,April-27-2016,Condo/Co-op,633 Elm St #118,SAN CARLOS,CA,94070,960000,2,2.0,SAN CARLOS,1096,,2003,643,876,380,Sold,,,http://www.redfin.com/CA/San-Carlos/633-Elm-St-94070/unit-118/home/2058765,MLSListings,ML81565911,N,Y,37.5048088,-122.2620109
PAST SALE,May-5-2016,Single Family Residential,1257 Magnolia Ave,SAN CARLOS,CA,94070,2500000,4,3.5,SAN CARLOS,3210,9120,1937,635,779,,Sold,,,http://www.redfin.com/CA/San-Carlos/1257-Magnolia-Ave-94070/home/790573,MLSListings,ML81584067,N,Y,37.508381,-122.2643966
PAST SALE,July-29-2016,Condo/Co-op,222 Laurel St #106,SAN CARLOS,CA,94070,420000,1,1.0,SAN CARLOS,468,20560,1963,550,897,342,Sold,,,http://www.redfin.com/CA/San-Carlos/222-Laurel-St-94070/unit-106/home/987560,MLSListings,ML81590980,N,Y,37.5103846,-122.2659757
PAST SALE,August-25-2016,Condo/Co-op,222 Laurel St #208,SAN CARLOS,CA,94070,521000,1,1.0,SAN CARLOS,702,702,1963,523,742,342,Sold,,,http://www.redfin.com/CA/San-Carlos/222-Laurel-St-94070/unit-208/home/1457421,MLSListings,ML81587842,N,Y,37.5103846,-122.2659757
PAST SALE,,Single Family Residential,10 Flower St,Redwood City,CA,94063,1000000,3,1.0,,980,5512,1951,,1020,,,,,http://www.redfin.com/CA/Redwood-City/10-Flower-St-94063/home/1541275,,,N,Y,37.4967318,-122.2398229
PAST SALE,July-1-2016,Multi-Family (5+ Unit),1120 Eaton Ave,SAN CARLOS,CA,94070,8300000,3,,SAN CARLOS,18771,10497,1961,578,442,,Sold,,,http://www.redfin.com/CA/San-Carlos/1120-Eaton-Ave-94070/home/2021846,MLSListings,ML81588425,N,Y,37.4936448,-122.245416
PAST SALE,October-3-2016,Single Family Residential,192 Dartmouth Ave,SAN CARLOS,CA,94070,1675000,4,2.5,SAN CARLOS,2110,8999,1964,484,794,,Sold,,,http://www.redfin.com/CA/San-Carlos/192-Dartmouth-Ave-94070/home/2044372,MLSListings,ML81594152,N,Y,37.5096432,-122.2774321
PAST SALE,February-22-2017,Single Family Residential,596 Club Dr,SAN CARLOS,CA,94070,2820000,3,3.0,SAN CARLOS,2810,21401,1942,342,1004,,Sold,,,http://www.redfin.com/CA/San-Carlos/596-Club-Dr-94070/home/2031931,MLSListings,ML81612227,N,Y,37.496265,-122.2974146
PAST SALE,July-28-2016,Single Family Residential,2763 San Carlos Ave,SAN CARLOS,CA,94070,1287000,3,2.0,SAN CARLOS,1240,7000,1954,551,1038,,Sold,,,http://www.redfin.com/CA/San-Carlos/2763-San-Carlos-Ave-94070/home/1987937,MLSListings,ML81590738,N,Y,37.506982,-122.284837
PAST SALE,October-6-2016,Single Family Residential,151 Windsor Dr,SAN CARLOS,CA,94070,1800000,4,2.5,SAN CARLOS,2950,5357,1973,481,610,,Sold,,,http://www.redfin.com/CA/San-Carlos/151-Windsor-Dr-94070/home/1830108,MLSListings,ML81612022,N,Y,37.4971389,-122.2796787
PAST SALE,,Single Family Residential,711 Dartmouth Ave,San Carlos,CA,94070,400000,3,2.0,,1450,5640,1940,,276,,,,,http://www.redfin.com/CA/San-Carlos/711-Dartmouth-Ave-94070/home/2002012,,,N,Y,37.5087002,-122.2842517
PAST SALE,March-7-2017,Single Family Residential,469 Wellington Dr,SAN CARLOS,CA,94070,1712000,4,3.0,SAN CARLOS,1696,8800,1959,329,1009,,Sold,,,http://www.redfin.com/CA/San-Carlos/469-Wellington-Dr-94070/home/785451,MLSListings,ML81637474,N,Y,37.5078801,-122.2803577
PAST SALE,June-14-2016,Single Family Residential,1230 Highland Ct,SAN CARLOS,CA,94070,1920000,4,2.5,SAN CARLOS,2000,15600,1967,595,960,,Sold,,,http://www.redfin.com/CA/San-Carlos/1230-Highland-Ct-94070/home/782971,MLSListings,ML81584184,N,Y,37.5060864,-122.2748124
PAST SALE,,Condo/Co-op,3 Violet Ln #277,San Carlos,CA,94070,1600000,3,2.0,,2260,,1986,,708,,,,,http://www.redfin.com/CA/San-Carlos/3-Violet-Ln-94070/unit-277/home/1989812,,,N,Y,37.4964902,-122.2964908
PAST SALE,November-22-2016,Vacant Land,180 Winding Way,SAN CARLOS,CA,94070,800000,,,SAN CARLOS,,28924,,434,,,Sold,,,http://www.redfin.com/CA/San-Carlos/180-Winding-Way-94070/home/108566100,MLSListings,ML81600013,N,Y,37.4936918,-122.2814556
PAST SALE,June-16-2016,Single Family Residential,1363 Chestnut St,SAN CARLOS,CA,94070,1235000,2,1.0,SAN CARLOS,1000,4040,1945,593,1235,,Sold,,,http://www.redfin.com/CA/San-Carlos/1363-Chestnut-St-94070/home/1775055,MLSListings,ML81584252,N,Y,37.4946819,-122.2547836
PAST SALE,,Single Family Residential,1561 Greenwood Ave,San Carlos,CA,94070,1685000,3,2.0,,1640,5080,1941,,1027,,,,,http://www.redfin.com/CA/San-Carlos/1561-Greenwood-Ave-94070/home/803853,,,N,Y,37.4968617,-122.2550911
PAST SALE,October-27-2016,Single Family Residential,1381 Alameda,SAN CARLOS,CA,94070,1525000,3,2.0,SAN CARLOS,1470,5500,1948,460,1037,,Sold,,,http://www.redfin.com/CA/San-Carlos/1381-Alameda-de-las-Pulgas-94070/home/1172684,MLSListings,ML81615245,N,Y,37.4883693,-122.2618942
PAST SALE,,Condo/Co-op,793 Elm St Apt 4,San Carlos,CA,94070,300000,2,2.0,,1529,,1982,,196,,,,,http://www.redfin.com/CA/San-Carlos/793-Elm-St-94070/unit-4/home/1928797,,,N,Y,37.5028531,-122.2599578
PAST SALE,April-29-2016,Condo/Co-op,656 Walnut St #301,SAN CARLOS,CA,94070,1230000,3,2.0,SAN CARLOS,1628,7644,2007,641,756,558,Sold,,,http://www.redfin.com/CA/San-Carlos/656-Walnut-St-94070/unit-301/home/17307363,MLSListings,ML81563943,N,Y,37.5047362,-122.2613356
PAST SALE,February-21-2017,Single Family Residential,1348 Cedar St,SAN CARLOS,CA,94070,1930000,2,1.0,SAN CARLOS,960,10500,1940,343,2010,,Sold,,,http://www.redfin.com/CA/San-Carlos/1348-Cedar-St-94070/home/1014650,MLSListings,ML81632697,N,Y,37.4940629,-122.2560854
PAST SALE,October-24-2016,Single Family Residential,160 Winding Way,SAN CARLOS,CA,94070,1800000,5,3.0,SAN CARLOS,3065,5998,1999,463,587,,Sold,,,http://www.redfin.com/CA/San-Carlos/160-Winding-Way-94070/home/781074,MLSListings,ML81613748,N,Y,37.4942529,-122.2816965
PAST SALE,May-27-2016,Condo/Co-op,772 Walnut St #3,SAN CARLOS,CA,94070,780000,2,1.0,SAN CARLOS,910,19480,1977,613,857,370,Sold,,,http://www.redfin.com/CA/San-Carlos/772-Walnut-St-94070/unit-3/home/1381956,MLSListings,ML81580718,N,Y,37.5032957,-122.2597973
PAST SALE,February-9-2017,Single Family Residential,17 Cranfield Ave,SAN CARLOS,CA,94070,2700000,4,4.0,SAN CARLOS,3490,6289,2016,355,774,,Sold,,,http://www.redfin.com/CA/San-Carlos/17-Cranfield-Ave-94070/home/1752738,MLSListings,ML81632371,N,Y,37.5046738,-122.2868608
PAST SALE,June-20-2016,Townhouse,2 Sorrel Ln,SAN CARLOS,CA,94070,1200000,3,2.5,SAN CARLOS,1709,,1981,589,702,575,Sold,,,http://www.redfin.com/CA/San-Carlos/2-Sorrel-Ln-94070/home/1906910,MLSListings,ML81587644,N,Y,37.4974635,-122.300134
PAST SALE,April-7-2016,Townhouse,24 Trillium Ln,SAN CARLOS,CA,94070,1450000,3,2.5,SAN CARLOS,1709,1,1981,663,848,575,Sold,,,http://www.redfin.com/CA/San-Carlos/24-Trillium-Ln-94070/home/1986151,MLSListings,ML81562151,Y,Y,37.4978704,-122.2988063
PAST SALE,February-24-2017,Single Family Residential,102 Palm Ave,SAN CARLOS,CA,94070,1450000,3,2.0,SAN CARLOS,1270,4455,1964,340,1142,,Sold,,,http://www.redfin.com/CA/San-Carlos/102-Palm-Ave-94070/home/786549,MLSListings,ML81637880,N,Y,37.5036064,-122.2701538
PAST SALE,,Condo/Co-op,222 Laurel St Apt 108,San Carlos,CA,94070,525000,1,1.0,,702,,1963,,748,,,,,http://www.redfin.com/CA/San-Carlos/222-Laurel-St-94070/unit-108/home/1345502,,,N,Y,37.5103846,-122.2659757
PAST SALE,September-30-2016,Single Family Residential,980 Alameda de las Pulgas,SAN CARLOS,CA,94070,2200000,4,3.5,SAN CARLOS,2911,6316,2016,487,756,,Sold,,,http://www.redfin.com/CA/San-Carlos/980-Alameda-de-las-Pulgas-94070/home/108589886,MLSListings,ML81600717,N,Y,37.492096,-122.26663
PAST SALE,July-12-2016,Single Family Residential,2071 Belle Ave,SAN CARLOS,CA,94070,1550000,3,2.0,SAN CARLOS,1300,5549,1946,567,1192,,Sold,,,http://www.redfin.com/CA/San-Carlos/2071-Belle-Ave-94070/home/2054270,MLSListings,ML81588755,N,Y,37.4954957,-122.2644782
PAST SALE,March-8-2016,Single Family Residential,200 Rockridge Rd,SAN CARLOS,CA,94070,2125000,4,3.5,SAN CARLOS,3000,8171,1948,693,708,,Sold,,,http://www.redfin.com/CA/San-Carlos/200-Rockridge-Rd-94070/home/1566705,MLSListings,ML81548899,N,Y,37.4936092,-122.266253
PAST SALE,,Single Family Residential,86 Madrona St,San Carlos,CA,94070,3235000,5,4.0,,3736,19915,2016,,866,,,,,http://www.redfin.com/CA/San-Carlos/86-Madrona-St-94070/home/143944533,,,N,Y,37.505229,-122.27155
PAST SALE,June-8-2016,Single Family Residential,2691 San Carlos Ave,SAN CARLOS,CA,94070,1595000,3,2.0,SAN CARLOS,1734,7560,1940,601,920,,Sold,,,http://www.redfin.com/CA/San-Carlos/2691-San-Carlos-Ave-94070/home/784045,MLSListings,ML81582909,N,Y,37.5074744,-122.2835756
PAST SALE,December-15-2016,Single Family Residential,228 Manor Dr,SAN CARLOS,CA,94070,1588000,4,3.0,SAN CARLOS,2100,11613,1953,411,756,,Sold,,,http://www.redfin.com/CA/San-Carlos/228-Manor-Dr-94070/home/1830125,MLSListings,ML81629413,Y,Y,37.4998447,-122.2764596
PAST SALE,September-7-2016,Single Family Residential,1672 Molitor Rd,BELMONT,CA,94002,1375000,4,2.5,BELMONT,2030,6329,1950,510,677,,Sold,,,http://www.redfin.com/CA/Belmont/1672-Molitor-Rd-94002/home/768776,MLSListings,ML81597484,N,Y,37.511619,-122.271409
PAST SALE,August-24-2016,Other,171 Lynton Ave,SAN CARLOS,CA,94070,222000,,,SAN CARLOS,,27100,,524,,,Sold,,,http://www.redfin.com/CA/San-Carlos/171-Lynton-Ave-94070/home/108292003,MLSListings,ML81594407,N,Y,37.4973492,-122.288064
PAST SALE,January-3-2017,Single Family Residential,314 G St,REDWOOD CITY,CA,94063,1411000,3,2.0,REDWOOD CITY,1604,6050,1951,392,880,,Sold,,,http://www.redfin.com/CA/Redwood-City/314-G-St-94063/home/1268083,MLSListings,ML81632099,N,Y,37.4969246,-122.2415637
PAST SALE,November-28-2016,Single Family Residential,830 Crestview Dr,SAN CARLOS,CA,94070,1900000,4,2.5,SAN CARLOS,3505,13416,1987,428,542,,Sold,,,http://www.redfin.com/CA/San-Carlos/830-Crestview-Dr-94070/home/1979407,MLSListings,ML81629248,N,Y,37.4873022,-122.2886612
PAST SALE,February-16-2016,Townhouse,28 Trillium Ln #326,SAN CARLOS,CA,94070,1301000,3,2.5,SAN CARLOS,1709,,1981,714,761,575,Sold,,,http://www.redfin.com/CA/San-Carlos/28-Trillium-Ln-94070/unit-326/home/989052,MLSListings,ML81546262,N,Y,37.4980823,-122.2991055
PAST SALE,March-2-2017,Single Family Residential,1020 Orange Ave,SAN CARLOS,CA,94070,3285000,5,3.5,SAN CARLOS,3260,5000,2017,334,1008,,Sold,,,http://www.redfin.com/CA/San-Carlos/1020-Orange-Ave-94070/home/1677178,MLSListings,ML81636191,N,Y,37.496457,-122.2600699
PAST SALE,August-10-2016,Single Family Residential,2740 Bromley Dr,SAN CARLOS,CA,94070,2195000,4,3.0,SAN CARLOS,2200,17691,1960,538,998,,Sold,,,http://www.redfin.com/CA/San-Carlos/2740-Bromley-Dr-94070/home/1341158,MLSListings,ML81589968,N,Y,37.4814424,-122.26495
PAST SALE,December-1-2016,Single Family Residential,1983 Brittan Ave,SAN CARLOS,CA,94070,1050000,2,1.0,SAN CARLOS,1010,4399,1939,425,1040,,Sold,,,http://www.redfin.com/CA/San-Carlos/1983-Brittan-Ave-94070/home/794840,MLSListings,ML81629312,N,Y,37.4945592,-122.2604423
PAST SALE,September-6-2016,Single Family Residential,807 Cedar St,SAN CARLOS,CA,94070,1605000,3,2.0,SAN CARLOS,1471,5174,1939,511,1091,,Sold,,,http://www.redfin.com/CA/San-Carlos/807-Cedar-St-94070/home/789802,MLSListings,ML81598599,N,Y,37.4994694,-122.2615705
PAST SALE,January-18-2017,Other,977 Laurel St,SAN CARLOS,CA,94070,2550000,,,SAN CARLOS,,6000,,377,,,Sold,,,http://www.redfin.com/CA/San-Carlos/977-Laurel-St-94070/home/21857981,MLSListings,ML81630008,N,Y,37.501781,-122.254967
PAST SALE,,Single Family Residential,2209 Carmelita Dr,San Carlos,CA,94070,2525000,4,3.0,,2554,4472,2016,,989,,,,,http://www.redfin.com/CA/San-Carlos/2209-Carmelita-Dr-94070/home/1275693,,,N,Y,37.501177,-122.274316
PAST SALE,June-30-2016,Single Family Residential,7 Bay View Dr,SAN CARLOS,CA,94070,1850000,5,3.0,SAN CARLOS,2640,6599,1965,579,701,,Sold,,,http://www.redfin.com/CA/San-Carlos/7-Bayview-Dr-94070/home/784170,MLSListings,ML81587859,N,Y,37.5058429,-122.2846644
PAST SALE,March-31-2016,Single Family Residential,1008 Elm St,SAN CARLOS,CA,94070,2125000,4,2.5,SAN CARLOS,2070,5998,1928,670,1027,,Sold,,,http://www.redfin.com/CA/San-Carlos/1008-Elm-St-94070/home/2011588,MLSListings,ML81562430,N,Y,37.49968,-122.256179
PAST SALE,August-17-2016,Condo/Co-op,641 Cedar St #303,SAN CARLOS,CA,94070,1315000,3,2.0,SAN CARLOS,1988,,2010,531,661,373,Sold,,,http://www.redfin.com/CA/San-Carlos/641-Cedar-St-94070/unit-303/home/40100324,MLSListings,ML81591409,N,Y,37.5032008,-122.2637445
PAST SALE,October-27-2016,Single Family Residential,1722 Arroyo Ave,SAN CARLOS,CA,94070,1450000,2,1.0,SAN CARLOS,1220,6600,1938,460,1189,,Sold,,,http://www.redfin.com/CA/San-Carlos/1722-Arroyo-Ave-94070/home/2034150,MLSListings,ML81613984,N,Y,37.4991733,-122.2606098
PAST SALE,November-21-2016,Condo/Co-op,641 Cedar St #105,SAN CARLOS,CA,94070,967000,2,2.0,SAN CARLOS,1085,11626,2009,435,891,310,Sold,,,http://www.redfin.com/CA/San-Carlos/641-Cedar-St-94070/unit-105/home/1774829,MLSListings,ML81628556,N,Y,37.5032008,-122.2637445
PAST SALE,November-3-2016,Single Family Residential,924 Elm St,SAN CARLOS,CA,94070,1580000,3,2.0,SAN CARLOS,1780,6000,1928,453,888,,Sold,,,http://www.redfin.com/CA/San-Carlos/924-Elm-St-94070/home/1999248,MLSListings,ML81613712,N,Y,37.500857,-122.2575379
PAST SALE,October-19-2016,Condo/Co-op,772 Walnut St #6,SAN CARLOS,CA,94070,855000,2,1.5,SAN CARLOS,970,19480,1977,468,881,370,Sold,,,http://www.redfin.com/CA/San-Carlos/772-Walnut-St-94070/unit-6/home/1911841,MLSListings,ML81613985,N,Y,37.5032957,-122.2597973
PAST SALE,February-14-2017,Condo/Co-op,772 Walnut St #10,SAN CARLOS,CA,94070,850000,2,1.5,SAN CARLOS,910,19480,1977,350,934,370,Sold,,,http://www.redfin.com/CA/San-Carlos/772-Walnut-St-94070/unit-10/home/1878287,MLSListings,ML81633717,N,Y,37.5032957,-122.2597973
PAST SALE,October-18-2016,Single Family Residential,806 Tamarack Ave,SAN CARLOS,CA,94070,1828000,3,3.0,SAN CARLOS,2080,19353,1948,469,879,,Sold,,,http://www.redfin.com/CA/San-Carlos/806-Tamarack-Ave-94070/home/1478136,MLSListings,ML81613584,N,Y,37.4968798,-122.268134
PAST SALE,December-15-2016,Single Family Residential,819 Sunset Dr,SAN CARLOS,CA,94070,3000000,4,4.0,SAN CARLOS,3532,10400,2016,411,849,,Sold,,,http://www.redfin.com/CA/San-Carlos/819-Sunset-Dr-94070/home/2050500,MLSListings,ML81632222,N,Y,37.491983,-122.2692841
PAST SALE,September-7-2016,Single Family Residential,153 Fairbanks Ave,SAN CARLOS,CA,94070,1385000,3,2.0,SAN CARLOS,1500,4395,1958,510,923,,Sold,,,http://www.redfin.com/CA/San-Carlos/153-Fairbanks-Ave-94070/home/1248960,MLSListings,ML81591142,N,Y,37.4906201,-122.267811
PAST SALE,July-25-2016,Single Family Residential,3 Graceland Ln,SAN CARLOS,CA,94070,1650000,3,2.0,SAN CARLOS,2070,9870,1963,554,797,,Sold,,,http://www.redfin.com/CA/San-Carlos/3-Graceland-Ln-94070/home/1942090,MLSListings,ML81590870,N,Y,37.4889685,-122.2668146
PAST SALE,December-2-2016,Single Family Residential,850 BUCKLAND Ave,SAN CARLOS,CA,94070,1951000,5,3.0,SAN CARLOS,2571,7200,1955,424,759,,Sold,,,http://www.redfin.com/CA/San-Carlos/850-Buckland-Ave-94070/home/770023,MLSListings,ML81629453,N,Y,37.5114825,-122.2777584
PAST SALE,March-25-2016,Single Family Residential,1316 Rosewood Ave,SAN CARLOS,CA,94070,1510000,2,2.0,SAN CARLOS,1230,4917,1945,676,1228,,Sold,,,http://www.redfin.com/CA/San-Carlos/1316-Rosewood-Ave-94070/home/1844859,MLSListings,ML81550458,N,Y,37.4962421,-122.2534687
PAST SALE,October-14-2016,Condo/Co-op,3319 Brittan Ave #15,SAN CARLOS,CA,94070,810000,2,2.0,SAN CARLOS,1040,,1973,473,779,459,Sold,,,http://www.redfin.com/CA/San-Carlos/3319-Brittan-Ave-94070/unit-15/home/1586388,MLSListings,ML81600719,N,Y,37.481253,-122.285568
PAST SALE,April-25-2016,Single Family Residential,1408 Crestview Dr,SAN CARLOS,CA,94070,1925000,4,2.5,SAN CARLOS,2650,11466,1982,645,726,,Sold,,,http://www.redfin.com/CA/San-Carlos/1408-Crestview-Dr-94070/home/1926195,MLSListings,ML81576836,N,Y,37.4767343,-122.2816531
PAST SALE,February-10-2016,Single Family Residential,2202 Carmelita Dr,SAN CARLOS,CA,94070,1635000,2,2.0,SAN CARLOS,1570,6932,1928,720,1041,,Sold,,,http://www.redfin.com/CA/San-Carlos/2202-Carmelita-Dr-94070/home/1903636,MLSListings,ML81534804,N,Y,37.5015192,-122.273939
PAST SALE,,Condo/Co-op,416 Portofino Dr #14,San Carlos,CA,94070,910000,2,2.0,,1310,,1991,,695,,,,,http://www.redfin.com/CA/San-Carlos/416-Portofino-Dr-94070/unit-14/home/1094273,,,N,Y,37.4902,-122.2773172
PAST SALE,March-7-2016,Single Family Residential,1 Pepper Ln,SAN CARLOS,CA,94070,1685000,3,2.5,SAN CARLOS,1860,10149,1963,694,906,,Sold,,,http://www.redfin.com/CA/San-Carlos/1-Pepper-Ln-94070/home/1025781,MLSListings,ML81548192,N,Y,37.5093053,-122.2776306
PAST SALE,July-15-2016,Single Family Residential,87 Alameda De Las Pulgas,REDWOOD CITY,CA,94062,3550000,5,4.5,REDWOOD CITY,3723,22720,2016,564,954,,Sold,,,http://www.redfin.com/CA/Redwood-City/87-Alameda-de-las-Pulgas-94062/home/2046445,MLSListings,ML81581877,N,Y,37.4838388,-122.2559556
PAST SALE,August-31-2016,Single Family Residential,1449 Howard Ave,SAN CARLOS,CA,94070,1488280,3,2.0,SAN CARLOS,1290,4281,1947,517,1154,,Sold,,,http://www.redfin.com/CA/San-Carlos/1449-Howard-Ave-94070/home/799462,MLSListings,ML81596817,N,Y,37.4966429,-122.2532271
PAST SALE,February-19-2016,Single Family Residential,112 Wildwood Ave,SAN CARLOS,CA,94070,2725000,4,3.5,SAN CARLOS,2900,6490,2006,711,940,,Sold,,,http://www.redfin.com/CA/San-Carlos/112-Wildwood-Ave-94070/home/2027150,MLSListings,ML81547801,N,Y,37.49067,-122.2620523
PAST SALE,October-28-2016,Single Family Residential,1833 Brittan Ave,SAN CARLOS,CA,94070,1220000,2,1.0,SAN CARLOS,1230,4800,1951,459,992,,Sold,,,http://www.redfin.com/CA/San-Carlos/1833-Brittan-Ave-94070/home/1161561,MLSListings,ML81614505,N,Y,37.4958666,-122.2587376
PAST SALE,,Single Family Residential,2211 Howard Ave,San Carlos,CA,94070,1800000,3,2.0,,1332,6360,1941,,1351,,,,,http://www.redfin.com/CA/San-Carlos/2211-Howard-Ave-94070/home/2031963,,,N,Y,37.4927372,-122.2594006
PAST SALE,July-28-2016,Single Family Residential,163 Los Vientos Way,SAN CARLOS,CA,94070,3350000,4,4.5,SAN CARLOS,4518,32800,2005,551,741,,Sold,,,http://www.redfin.com/CA/San-Carlos/163-Los-Vientos-Way-94070/home/1515572,MLSListings,ML81564138,N,Y,37.488983,-122.2912842
PAST SALE,May-20-2016,Condo/Co-op,3348 La Mesa Dr #13,SAN CARLOS,CA,94070,940000,3,2.0,SAN CARLOS,1239,10000,1973,620,759,535,Sold,,,http://www.redfin.com/CA/San-Carlos/3348-La-Mesa-Dr-94070/unit-13/home/981774,MLSListings,ML81586771,N,Y,37.479496,-122.284259
PAST SALE,,Single Family Residential,860 Cabot Ct,San Carlos,CA,94070,2340000,3,2.0,,3193,11250,1981,,733,,,,,http://www.redfin.com/CA/San-Carlos/860-Cabot-Ct-94070/home/1915514,,,N,Y,37.4868764,-122.2824826
PAST SALE,April-26-2016,Single Family Residential,400 Devonshire Blvd,SAN CARLOS,CA,94070,,3,2.5,SAN CARLOS,2350,19696,1978,644,,,Sold,,,http://www.redfin.com/CA/San-Carlos/400-Devonshire-Blvd-94070/home/1469737,MLSListings,ML81562714,N,Y,37.4964166,-122.2886893
PAST SALE,April-21-2016,Single Family Residential,219 Frances Ln,SAN CARLOS,CA,94070,2100000,4,3.0,SAN CARLOS,2400,13503,1966,649,875,,Sold,,,http://www.redfin.com/CA/San-Carlos/219-Frances-Ln-94070/home/1947134,MLSListings,ML81561654,N,Y,37.4830271,-122.2590541
PAST SALE,July-11-2016,Single Family Residential,115 Chesham Ave,SAN CARLOS,CA,94070,1315000,3,2.0,SAN CARLOS,1390,5663,1965,568,946,,Sold,,,http://www.redfin.com/CA/San-Carlos/115-Chesham-Ave-94070/home/780957,MLSListings,ML81589096,N,Y,37.4960654,-122.2800878
PAST SALE,January-10-2017,Condo/Co-op,430 Portofino Dr #503,SAN CARLOS,CA,94070,1335000,3,2.0,SAN CARLOS,2054,,1988,385,650,475,Sold,,,http://www.redfin.com/CA/San-Carlos/430-Portofino-Dr-94070/unit-503/home/1993332,MLSListings,ML81633235,N,Y,37.489561,-122.276218
PAST SALE,September-30-2016,Single Family Residential,1541 Hull Dr,SAN CARLOS,CA,94070,1510000,4,2.5,SAN CARLOS,2230,5301,1948,487,677,,Sold,,,http://www.redfin.com/CA/San-Carlos/1541-Hull-Dr-94070/home/769062,MLSListings,ML81600998,N,Y,37.5089916,-122.2701761
PAST SALE,October-4-2016,Condo/Co-op,618 Walnut St #402,SAN CARLOS,CA,94070,787000,1,1.0,SAN CARLOS,941,,2003,483,836,364,Sold,,,http://www.redfin.com/CA/San-Carlos/618-Walnut-St-94070/unit-402/home/1008775,MLSListings,ML81585660,N,Y,37.5052388,-122.2618825
PAST SALE,September-16-2016,Single Family Residential,71 Madera Ave,SAN CARLOS,CA,94070,1900000,4,3.5,SAN CARLOS,2910,7810,2007,501,653,,Sold,,,http://www.redfin.com/CA/San-Carlos/71-Madera-Ave-94070/home/2100023,MLSListings,ML81598724,N,Y,37.4994583,-122.2715945
PAST SALE,September-15-2016,Single Family Residential,948 Alameda de las Pulgas,SAN CARLOS,CA,94070,1515000,3,3.0,SAN CARLOS,2327,5500,1951,502,651,,Sold,,,http://www.redfin.com/CA/San-Carlos/948-Alameda-de-las-Pulgas-94070/home/789360,MLSListings,ML81581852,N,Y,37.4929113,-122.266761
PAST SALE,June-10-2016,Single Family Residential,739 DARTMOUTH Ave,SAN CARLOS,CA,94070,1551000,3,2.0,SAN CARLOS,1450,7000,1957,599,1070,,Sold,,,http://www.redfin.com/CA/San-Carlos/739-Dartmouth-Ave-94070/home/784072,MLSListings,ML81584990,Y,Y,37.5080102,-122.2845923
PAST SALE,February-2-2016,Vacant Land,0 Oakley Ave,SAN CARLOS,CA,94070,50000,,,SAN CARLOS,,5525,,728,,,Sold,,,http://www.redfin.com/CA/San-Carlos/0-Oakley-Ave-94070/home/18777684,MLSListings,ML81459074,N,Y,37.4986678,-122.286039
PAST SALE,April-27-2016,Single Family Residential,27 Cranfield Ave,SAN CARLOS,CA,94070,3200000,4,3.5,SAN CARLOS,3489,10189,2016,643,917,,Sold,,,http://www.redfin.com/CA/San-Carlos/27-Cranfield-Ave-94070/home/105470591,MLSListings,ML81583596,N,Y,37.5044824,-122.2862409
PAST SALE,November-18-2016,Single Family Residential,118 Crestview Ct,SAN CARLOS,CA,94070,2400000,5,3.0,SAN CARLOS,2960,17158,1974,438,811,,Sold,,,http://www.redfin.com/CA/San-Carlos/118-Crestview-Ct-94070/home/1306437,MLSListings,ML81628471,N,Y,37.4795757,-122.2802225
PAST SALE,June-8-2016,Single Family Residential,23 Whitman Ct,SAN CARLOS,CA,94070,2350000,3,2.0,SAN CARLOS,2040,16117,1968,601,1152,,Sold,,,http://www.redfin.com/CA/San-Carlos/23-Whitman-Ct-94070/home/1239523,MLSListings,ML81580389,Y,Y,37.4838102,-122.2770797
PAST SALE,November-16-2016,Single Family Residential,940 Crestview Dr,SAN CARLOS,CA,94070,2300000,5,3.5,SAN CARLOS,3160,9125,1965,440,728,,Sold,,,http://www.redfin.com/CA/San-Carlos/940-Crestview-Dr-94070/home/1541180,MLSListings,ML81628296,Y,Y,37.4850938,-122.2860932
PAST SALE,February-11-2016,Single Family Residential,620 TERRACE Rd,SAN CARLOS,CA,94070,2400000,4,3.0,SAN CARLOS,2360,24520,1956,719,1017,,Sold,,,http://www.redfin.com/CA/San-Carlos/620-Terrace-Rd-94070/home/796951,MLSListings,ML81547962,N,Y,37.4857144,-122.2661084
PAST SALE,April-29-2016,Single Family Residential,2813 Roland Ave,SAN CARLOS,CA,94070,1478000,3,2.0,SAN CARLOS,1440,5395,1959,641,1026,,Sold,,,http://www.redfin.com/CA/San-Carlos/2813-Roland-Ave-94070/home/2052353,MLSListings,ML81579350,N,Y,37.4842094,-122.2661829
PAST SALE,,Single Family Residential,1981 Eucalyptus Ave,San Carlos,CA,94070,1690000,3,2.0,,1560,5000,1942,,1083,,,,,http://www.redfin.com/CA/San-Carlos/1981-Eucalyptus-Ave-94070/home/791072,,,N,Y,37.4950425,-122.2611415
PAST SALE,June-10-2016,Single Family Residential,1961 Brittan Ave,SAN CARLOS,CA,94070,1410000,3,2.0,SAN CARLOS,1470,4399,1941,599,959,,Sold,,,http://www.redfin.com/CA/San-Carlos/1961-Brittan-Ave-94070/home/1864059,MLSListings,ML81584120,N,Y,37.494815,-122.2600841
PAST SALE,May-24-2016,Single Family Residential,1975 Arroyo Ave,SAN CARLOS,CA,94070,1340000,2,2.0,SAN CARLOS,1130,5000,1946,616,1186,,Sold,,,http://www.redfin.com/CA/San-Carlos/1975-Arroyo-Ave-94070/home/793142,MLSListings,ML81584276,N,Y,37.4961291,-122.2621969
PAST SALE,June-17-2016,Single Family Residential,639 Edgewood Rd,REDWOOD CITY,CA,94062,3110000,3,2.5,REDWOOD CITY,2300,20329,1947,592,1352,,Sold,,,http://www.redfin.com/CA/Redwood-City/639-Edgewood-Rd-94062/home/2041021,MLSListings,ML81583290,N,Y,37.4873419,-122.2481853
PAST SALE,,Condo/Co-op,1001 Laurel St Unit 303,San Carlos,CA,94070,715000,1,1.0,,781,,2009,,915,,,,,http://www.redfin.com/CA/San-Carlos/1001-Laurel-St-94070/unit-303/home/21997323,,,N,Y,37.5013588,-122.2541747
PAST SALE,September-20-2016,Single Family Residential,101 Vine St,SAN CARLOS,CA,94070,1735000,3,2.5,SAN CARLOS,1673,5985,1948,497,1037,,Sold,,,http://www.redfin.com/CA/San-Carlos/101-Vine-St-94070/home/2059033,MLSListings,ML81598360,N,Y,37.5088686,-122.2702964
PAST SALE,December-16-2016,Single Family Residential,220 Club Dr,SAN CARLOS,CA,94070,1655000,3,2.0,SAN CARLOS,1640,13700,1956,410,1009,,Sold,,,http://www.redfin.com/CA/San-Carlos/220-Club-Dr-94070/home/1694428,MLSListings,ML81629297,N,Y,37.499435,-122.286313
PAST SALE,January-23-2017,Single Family Residential,21 Madera Ave,SAN CARLOS,CA,94070,1450000,5,3.5,SAN CARLOS,2190,9000,1995,372,662,,Sold,,,http://www.redfin.com/CA/San-Carlos/21-Madera-Ave-94070/home/1523195,MLSListings,ML81633601,N,Y,37.4987675,-122.2696619
PAST SALE,June-7-2016,Single Family Residential,1341 Saint Francis Way,SAN CARLOS,CA,94070,1730000,3,2.0,SAN CARLOS,1620,5501,1951,602,1068,,Sold,,,http://www.redfin.com/CA/San-Carlos/1341-Saint-Francis-Way-94070/home/803724,MLSListings,ML81582953,N,Y,37.493173,-122.2476636
PAST SALE,June-2-2016,Single Family Residential,423 Emerald Ave,SAN CARLOS,CA,94070,1875000,4,3.0,SAN CARLOS,2663,5501,1948,607,704,,Sold,,,http://www.redfin.com/CA/San-Carlos/423-Emerald-Ave-94070/home/1424281,MLSListings,ML81581623,N,Y,37.4877332,-122.2581352
PAST SALE,May-31-2016,Single Family Residential,605 Edgewood Rd,REDWOOD CITY,CA,94062,2950000,4,4.5,REDWOOD CITY,3240,17001,1929,609,910,,Sold,,,http://www.redfin.com/CA/Redwood-City/605-Edgewood-Rd-94062/home/1323431,MLSListings,ML81578119,N,Y,37.4877401,-122.2479552
PAST SALE,June-20-2016,Single Family Residential,417 Sycamore St,SAN CARLOS,CA,94070,1900000,4,3.0,SAN CARLOS,2450,6300,1955,589,776,,Sold,,,http://www.redfin.com/CA/San-Carlos/417-Sycamore-St-94070/home/1850001,MLSListings,ML81581663,N,Y,37.5047507,-122.2679765
PAST SALE,,Condo/Co-op,2 Elm St Apt 300,San Carlos,CA,94070,750000,2,2.0,,1050,,1981,,714,,,,,http://www.redfin.com/CA/San-Carlos/2-Elm-St-94070/unit-300/home/1965948,,,N,Y,37.5122427,-122.2697494
PAST SALE,,Single Family Residential,2130 Eaton Ave,San Carlos,CA,94070,1800000,4,3.0,,2998,7700,1941,,600,,,,,http://www.redfin.com/CA/San-Carlos/2130-Eaton-Ave-94070/home/2011576,,,N,Y,37.4852966,-122.254641
PAST SALE,March-1-2017,Single Family Residential,1643 Alameda,SAN CARLOS,CA,94070,1012000,2,1.0,SAN CARLOS,900,4520,1948,335,1124,,Sold,,,http://www.redfin.com/CA/San-Carlos/1643-Alameda-de-las-Pulgas-94070/home/1844827,MLSListings,ML81639233,N,Y,37.4858874,-122.2590234
PAST SALE,June-20-2016,Single Family Residential,128 Hillcrest Rd,SAN CARLOS,CA,94070,2149000,4,2.5,SAN CARLOS,2784,8470,1950,589,772,,Sold,,,http://www.redfin.com/CA/San-Carlos/128-Hillcrest-Rd-94070/home/2016893,MLSListings,ML81584146,N,Y,37.5078301,-122.2722988
PAST SALE,October-24-2016,Single Family Residential,276 Fir St,SAN CARLOS,CA,94070,1470000,3,2.0,SAN CARLOS,1580,5280,1947,463,930,,Sold,,,http://www.redfin.com/CA/San-Carlos/276-Fir-St-94070/home/2039151,MLSListings,ML81593890,N,Y,37.5078669,-122.2680194
PAST SALE,,Single Family Residential,345 Cedar St,San Carlos,CA,94070,1425000,3,2.0,,1420,6912,1931,,1004,,,,,http://www.redfin.com/CA/San-Carlos/345-Cedar-St-94070/home/2049506,,,N,Y,37.5063542,-122.2677311
PAST SALE,April-21-2016,Townhouse,401 Portofino Dr Unit B,SAN CARLOS,CA,94070,1315000,3,2.5,SAN CARLOS,2130,22089,1982,649,617,170,Sold,,,http://www.redfin.com/CA/San-Carlos/401-Portofino-Dr-94070/unit-2-B/home/2039841,MLSListings,ML81576690,N,Y,37.4915062,-122.2771278
PAST SALE,August-10-2016,Single Family Residential,118 Dale Ave,SAN CARLOS,CA,94070,3100000,4,2.5,SAN CARLOS,4019,6600,2008,538,771,,Sold,,,http://www.redfin.com/CA/San-Carlos/118-Dale-Ave-94070/home/1666908,MLSListings,ML81599294,N,Y,37.5011081,-122.2721698
PAST SALE,October-28-2016,Single Family Residential,84 Fay Ave,SAN CARLOS,CA,94070,1079000,2,1.0,SAN CARLOS,1030,5588,1936,459,1048,,Sold,,,http://www.redfin.com/CA/San-Carlos/84-Fay-Ave-94070/home/1469687,MLSListings,ML81596330,N,Y,37.4970487,-122.2791475
PAST SALE,January-25-2017,Single Family Residential,221 Coronado Ave,SAN CARLOS,CA,94070,1950000,4,2.5,SAN CARLOS,2820,12000,2001,370,691,,Sold,,,http://www.redfin.com/CA/San-Carlos/221-Coronado-Ave-94070/home/2042922,MLSListings,ML81626854,N,Y,37.4973106,-122.2777383
PAST SALE,,Single Family Residential,131 Molton Ave,San Carlos,CA,94070,1535000,3,2.0,,1660,5050,1942,,925,,,,,http://www.redfin.com/CA/San-Carlos/131-Molton-Ave-94070/home/1717245,,,N,Y,37.5011149,-122.2781915
PAST SALE,July-18-2016,Single Family Residential,43 Pine Ave,SAN CARLOS,CA,94070,1350000,2,1.5,SAN CARLOS,1390,6042,1951,561,971,,Sold,,,http://www.redfin.com/CA/San-Carlos/43-Pine-Ave-94070/home/1089231,MLSListings,ML81587698,N,Y,37.5001078,-122.2710114
PAST SALE,,Single Family Residential,808 Alameda de las Pulgas,San Carlos,CA,94070,2250000,2,3.0,,1620,39204,1954,,1389,,,,,http://www.redfin.com/CA/San-Carlos/808-Alameda-de-las-Pulgas-94070/home/1766594,,,N,Y,37.4968698,-122.2714697
PAST SALE,April-28-2016,Single Family Residential,2601 Melendy Dr,SAN CARLOS,CA,94070,1678000,4,2.0,SAN CARLOS,1880,7487,1962,642,893,,Sold,,,http://www.redfin.com/CA/San-Carlos/2601-Melendy-Dr-94070/home/793280,MLSListings,ML81564778,N,Y,37.4934671,-122.2736629
PAST SALE,August-12-2016,Single Family Residential,932 Heather Dr,SAN CARLOS,CA,94070,2165000,4,3.0,SAN CARLOS,2430,7321,1994,536,891,450,Sold,,,http://www.redfin.com/CA/San-Carlos/932-Heather-Dr-94070/home/1760841,MLSListings,ML81577868,N,Y,37.4951609,-122.2704388
PAST SALE,November-29-2016,Vacant Land,804 Alameda de las Pulgas,SAN CARLOS,CA,94070,5800000,,,SAN CARLOS,,173495,,427,,,Sold,,,http://www.redfin.com/CA/San-Carlos/804-Alameda-de-las-Pulgas-94070/home/1947073,MLSListings,ML81579818,N,Y,37.4965452,-122.2697116
PAST SALE,August-26-2016,Single Family Residential,2209 Carmelita Dr,SAN CARLOS,CA,94070,2525000,4,3.0,SAN CARLOS,2554,4649,2016,522,989,,Sold,,,http://www.redfin.com/CA/San-Carlos/2209-Carmelita-Dr-94070/home/105496733,MLSListings,ML81597524,N,Y,37.5011799,-122.2742254
PAST SALE,October-19-2016,Condo/Co-op,1625 San Carlos Ave Unit B,SAN CARLOS,CA,94070,1220000,3,3.0,SAN CARLOS,2030,7196,2003,468,601,280,Sold,,,http://www.redfin.com/CA/San-Carlos/1625-San-Carlos-Ave-94070/unit-B/home/1672840,MLSListings,ML81592537,N,Y,37.5032069,-122.2650412
PAST SALE,April-13-2016,Condo/Co-op,793 Elm St #20,SAN CARLOS,CA,94070,955000,2,2.0,SAN CARLOS,1529,26012,1982,657,625,510,Sold,,,http://www.redfin.com/CA/San-Carlos/793-Elm-St-94070/unit-20/home/992286,MLSListings,ML81561404,N,Y,37.5028531,-122.2599578
PAST SALE,November-29-2016,Condo/Co-op,633 Elm St #103,SAN CARLOS,CA,94070,988000,2,2.0,SAN CARLOS,1096,,2003,427,901,380,Sold,,,http://www.redfin.com/CA/San-Carlos/633-Elm-St-94070/unit-103/home/1827857,MLSListings,ML81631592,N,Y,37.5048088,-122.2620109
PAST SALE,,Single Family Residential,943 Cherry St,San Carlos,CA,94070,1000000,3,2.0,,1790,5000,1947,,559,,,,,http://www.redfin.com/CA/San-Carlos/943-Cherry-St-94070/home/773720,,,N,Y,37.5087321,-122.255314
PAST SALE,June-30-2016,Single Family Residential,2092 Greenwood Ave,SAN CARLOS,CA,94070,1190000,2,1.0,SAN CARLOS,970,4280,1940,579,1227,,Sold,,,http://www.redfin.com/CA/San-Carlos/2092-Greenwood-Ave-94070/home/2027152,MLSListings,ML81586756,N,Y,37.4942164,-122.2602296
PAST SALE,October-28-2016,Condo/Co-op,307 Old County Rd #4,SAN CARLOS,CA,94070,825000,2,2.0,SAN CARLOS,1001,9687,1999,459,824,210,Sold,,,http://www.redfin.com/CA/San-Carlos/307-Old-County-Rd-94070/unit-4/home/2039985,MLSListings,ML81613676,N,Y,37.5124308,-122.2642666
PAST SALE,October-5-2016,Condo/Co-op,416 Portofino Dr #302,SAN CARLOS,CA,94070,909999,2,2.5,SAN CARLOS,1320,,1991,482,689,485,Sold,,,http://www.redfin.com/CA/San-Carlos/416-Portofino-Dr-94070/unit-302/home/108377864,MLSListings,ML81595742,N,Y,37.4902,-122.2773172
PAST SALE,August-31-2016,Single Family Residential,1223 Alameda de las Pulgas,SAN CARLOS,CA,94070,950000,2,1.0,SAN CARLOS,890,6500,1948,517,1067,,Sold,,,http://www.redfin.com/CA/San-Carlos/1223-Alameda-de-las-Pulgas-94070/home/1014643,MLSListings,ML81598484,N,Y,37.4899522,-122.2638363
PAST SALE,June-30-2016,Single Family Residential,589 EMERALD Ave,SAN CARLOS,CA,94070,1515000,3,1.5,SAN CARLOS,1580,5501,1947,579,959,,Sold,,,http://www.redfin.com/CA/San-Carlos/589-Emerald-Ave-94070/home/1979538,MLSListings,ML81587685,N,Y,37.4850793,-122.2555609
PAST SALE,October-11-2016,Single Family Residential,2640 Howard Ave,SAN CARLOS,CA,94070,1775000,3,2.0,SAN CARLOS,1988,5650,1952,476,893,,Sold,,,http://www.redfin.com/CA/San-Carlos/2640-Howard-Ave-94070/home/796544,MLSListings,ML81613328,N,Y,37.4872852,-122.2652289
PAST SALE,March-7-2016,Single Family Residential,2348 Howard Ave,SAN CARLOS,CA,94070,1450000,3,2.0,SAN CARLOS,1320,6600,1940,694,1098,,Sold,,,http://www.redfin.com/CA/San-Carlos/2348-Howard-Ave-94070/home/1766698,MLSListings,ML81548818,N,Y,37.490147,-122.263359
PAST SALE,May-23-2016,Single Family Residential,304 De Anza Ave,SAN CARLOS,CA,94070,2420000,4,3.5,SAN CARLOS,2844,7579,1948,617,851,,Sold,,,http://www.redfin.com/CA/San-Carlos/304-De-Anza-Ave-94070/home/1566797,MLSListings,ML81580767,N,Y,37.4864214,-122.2605067
PAST SALE,August-15-2016,Single Family Residential,237 Oakview Dr,SAN CARLOS,CA,94070,1750000,3,2.0,SAN CARLOS,2160,5750,1946,533,810,,Sold,,,http://www.redfin.com/CA/San-Carlos/237-Oakview-Dr-94070/home/801139,MLSListings,ML81587661,N,Y,37.4905126,-122.2597788
PAST SALE,,Single Family Residential,21 Cranfield Ave,San Carlos,CA,94070,3275000,4,4.0,,4081,11386,2016,,802,,,,,http://www.redfin.com/CA/San-Carlos/21-Cranfield-Ave-94070/home/108551292,,,N,Y,37.504632,-122.286424
PAST SALE,January-3-2017,Single Family Residential,138 Queens Ct,SAN CARLOS,CA,94070,3950000,3,3.5,SAN CARLOS,4200,24135,2005,392,940,100,Sold,,,http://www.redfin.com/CA/San-Carlos/138-Queens-Ct-94070/home/786411,MLSListings,ML81631785,N,Y,37.4940387,-122.2852951
PAST SALE,December-16-2016,Single Family Residential,21 Cranfield Ave,SAN CARLOS,CA,94070,3275000,4,4.5,SAN CARLOS,4080,11386,2016,410,803,,Sold,,,http://www.redfin.com/CA/San-Carlos/21-Cranfield-Ave-94070/home/105602672,MLSListings,ML81628254,N,Y,37.5044451,-122.2866065
PAST SALE,,Single Family Residential,1448 Howard Ave,San Carlos,CA,94070,214000,3,2.0,,1550,4914,1950,,138,,,,,http://www.redfin.com/CA/San-Carlos/1448-Howard-Ave-94070/home/803877,,,N,Y,37.4968979,-122.2536205
PAST SALE,April-12-2016,Single Family Residential,1242 Edgewood,REDWOOD CITY,CA,94062,3150000,4,4.0,REDWOOD CITY,3640,10000,2015,658,865,,Sold,,,http://www.redfin.com/CA/Redwood-City/1242-Edgewood-Rd-94062/home/101820552,MLSListings,ML81548836,N,Y,37.482713,-122.25822
PAST SALE,December-6-2016,Single Family Residential,75 Hilltop Dr,SAN CARLOS,CA,94070,1988000,4,3.5,SAN CARLOS,2545,5500,1948,420,781,,Sold,,,http://www.redfin.com/CA/San-Carlos/75-Hilltop-Dr-94070/home/1915572,MLSListings,ML81628726,N,Y,37.4872453,-122.2592868
PAST SALE,July-12-2016,Single Family Residential,268 Park Ave,SAN CARLOS,CA,94070,2350000,4,3.0,SAN CARLOS,2384,6751,1939,567,986,,Sold,,,http://www.redfin.com/CA/San-Carlos/268-Park-Ave-94070/home/1574457,MLSListings,ML81594802,N,Y,37.4904615,-122.2556584
PAST SALE,October-11-2016,Single Family Residential,229 Park Ave,SAN CARLOS,CA,94070,2349000,4,2.5,SAN CARLOS,2090,7993,1945,476,1124,,Sold,,,http://www.redfin.com/CA/San-Carlos/229-Park-Ave-94070/home/1783874,MLSListings,ML81613767,N,Y,37.4912252,-122.2549723
PAST SALE,May-27-2016,Single Family Residential,348 Oakview Dr,SAN CARLOS,CA,94070,2400000,4,3.5,SAN CARLOS,2499,5500,1939,613,960,,Sold,,,http://www.redfin.com/CA/San-Carlos/348-Oakview-Dr-94070/home/1294935,MLSListings,ML81580296,N,Y,37.4897722,-122.2587059
PAST SALE,September-21-2016,Single Family Residential,1319 Geneva Ave,SAN CARLOS,CA,94070,1305000,2,1.0,SAN CARLOS,1070,4040,1940,496,1220,,Sold,,,http://www.redfin.com/CA/San-Carlos/1319-Geneva-Ave-94070/home/2055219,MLSListings,ML81600101,N,Y,37.4957144,-122.2547995
PAST SALE,August-5-2016,Single Family Residential,1362 Woodland Ave,SAN CARLOS,CA,94070,1320000,3,2.0,SAN CARLOS,1290,4038,1945,543,1023,,Sold,,,http://www.redfin.com/CA/San-Carlos/1362-Woodland-Ave-94070/unit-VE/home/801878,MLSListings,ML81587728,N,Y,37.4952946,-122.2537671
PAST SALE,October-20-2016,Single Family Residential,1837 Greenwood Ave,SAN CARLOS,CA,94070,1510000,3,2.0,SAN CARLOS,1500,6000,1940,467,1007,,Sold,,,http://www.redfin.com/CA/San-Carlos/1837-Greenwood-Ave-94070/home/1616532,MLSListings,ML81613682,N,Y,37.495642,-122.2570322
PAST SALE,August-19-2016,Single Family Residential,1424 Elm St,SAN CARLOS,CA,94070,1600000,3,2.5,SAN CARLOS,1800,5828,1948,529,889,,Sold,,,http://www.redfin.com/CA/San-Carlos/1424-Elm-St-94070/home/803838,MLSListings,ML81596519,N,Y,37.4951892,-122.2512106
PAST SALE,,Single Family Residential,1825 Saint Francis Way,San Carlos,CA,94070,2090000,3,3.0,,1710,6490,1937,,1222,,,,,http://www.redfin.com/CA/San-Carlos/1825-Saint-Francis-Way-94070/home/806122,,,N,Y,37.490723,-122.2510742
PAST SALE,February-18-2016,Single Family Residential,1450 Alameda de las Pulgas,SAN CARLOS,CA,94070,1350000,3,2.0,SAN CARLOS,1240,6960,1948,712,1089,,Sold,,,http://www.redfin.com/CA/San-Carlos/1450-Alameda-de-las-Pulgas-94070/home/1752856,MLSListings,ML81547948,N,Y,37.4865795,-122.2605328
PAST SALE,July-29-2016,Single Family Residential,1460 Cordilleras Ave,SAN CARLOS,CA,94070,1650000,4,3.0,SAN CARLOS,2380,4400,1948,550,693,,Sold,,,http://www.redfin.com/CA/San-Carlos/1460-Cordilleras-Ave-94070/home/1850078,MLSListings,ML81586740,N,Y,37.4898962,-122.2577349
PAST SALE,August-23-2016,Single Family Residential,125 Madera Ave,SAN CARLOS,CA,94070,1365000,3,2.0,SAN CARLOS,1350,9199,1961,525,1011,,Sold,,,http://www.redfin.com/CA/San-Carlos/125-Madera-Ave-94070/home/1856680,MLSListings,ML81594161,N,Y,37.499375,-122.272836
PAST SALE,July-25-2016,Single Family Residential,115 Northam Ave,SAN CARLOS,CA,94070,1705000,3,2.0,SAN CARLOS,2040,7653,1953,554,836,,Sold,,,http://www.redfin.com/CA/San-Carlos/115-Northam-Ave-94070/home/101820499,MLSListings,ML81591103,N,Y,37.507965,-122.2752356
PAST SALE,November-29-2016,Single Family Residential,806 Alameda,SAN CARLOS,CA,94070,9800000,5,3.5,SAN CARLOS,3175,259182,1958,427,3087,,Sold,,,http://www.redfin.com/CA/San-Carlos/806-Alameda-de-las-Pulgas-94070/home/56717357,MLSListings,ML81579806,N,Y,37.496363,-122.269973
PAST SALE,July-28-2016,Single Family Residential,833 Cordilleras Ave,SAN CARLOS,CA,94070,2750000,5,3.5,SAN CARLOS,2767,7897,1941,551,994,,Sold,,,http://www.redfin.com/CA/San-Carlos/833-Cordilleras-Ave-94070/home/788379,MLSListings,ML81591436,N,Y,37.4974333,-122.2650937
PAST SALE,June-6-2016,Single Family Residential,783 Crestview Dr,SAN CARLOS,CA,94070,2250000,3,3.0,SAN CARLOS,2932,9930,1980,603,767,,Sold,,,http://www.redfin.com/CA/San-Carlos/783-Crestview-Dr-94070/home/1849941,MLSListings,ML81582666,N,Y,37.4886411,-122.2877992
PAST SALE,June-24-2016,Single Family Residential,115 Los Vientos Way,SAN CARLOS,CA,94070,1670000,3,3.5,SAN CARLOS,3115,14400,1978,585,536,,Sold,,,http://www.redfin.com/CA/San-Carlos/115-Los-Vientos-Way-94070/home/1406088,MLSListings,ML81581998,N,Y,37.4894469,-122.29052
PAST SALE,May-19-2016,Condo/Co-op,3354 Brittan Ave #16,SAN CARLOS,CA,94070,860000,2,2.0,SAN CARLOS,1040,10000,1973,621,827,459,Sold,,,http://www.redfin.com/CA/San-Carlos/3354-Brittan-Ave-94070/unit-16/home/1756245,MLSListings,ML81582879,N,Y,37.483167,-122.2876503
PAST SALE,February-23-2016,Condo/Co-op,3382 Brittan Ave #6,SAN CARLOS,CA,94070,955000,3,2.0,SAN CARLOS,1239,100,1973,707,771,535,Sold,,,http://www.redfin.com/CA/San-Carlos/3382-Brittan-Ave-94070/unit-6/home/1570368,MLSListings,ML81546714,N,Y,37.4832888,-122.28714
PAST SALE,October-28-2016,Condo/Co-op,3383 Brittan Ave #11,SAN CARLOS,CA,94070,860000,2,2.0,SAN CARLOS,1040,,1972,459,827,459,Sold,,,http://www.redfin.com/CA/San-Carlos/3383-Brittan-Ave-94070/unit-11/home/1216992,MLSListings,ML81627749,N,Y,37.482586,-122.288121
PAST SALE,April-12-2016,Condo/Co-op,3347 Brittan Ave #5,SAN CARLOS,CA,94070,868000,3,2.0,SAN CARLOS,1239,,1973,658,701,535,Sold,,,http://www.redfin.com/CA/San-Carlos/3347-Brittan-Ave-94070/unit-5/home/1074817,MLSListings,ML81550330,N,Y,37.4808,-122.285864
PAST SALE,July-8-2016,Single Family Residential,3398 Melendy Dr,SAN CARLOS,CA,94070,1650000,3,2.0,SAN CARLOS,2070,7666,1965,571,797,,Sold,,,http://www.redfin.com/CA/San-Carlos/3398-Melendy-Dr-94070/home/796164,MLSListings,ML81590015,N,Y,37.4869183,-122.2877276
PAST SALE,October-31-2016,Townhouse,15 Trillium Ln,SAN CARLOS,CA,94070,1350000,3,2.5,SAN CARLOS,1709,,1981,456,790,575,Sold,,,http://www.redfin.com/CA/San-Carlos/15-Trillium-Ln-94070/home/989072,MLSListings,ML81615046,N,Y,37.4980345,-122.2982611
PAST SALE,January-4-2017,Condo/Co-op,26 Buttercup Ln,SAN CARLOS,CA,94070,1100000,2,2.5,SAN CARLOS,1793,,1981,391,613,575,Sold,,,http://www.redfin.com/CA/San-Carlos/26-Buttercup-Ln-94070/unit-358/home/1041676,MLSListings,ML81614769,N,Y,37.4984862,-122.2996266
PAST SALE,,Single Family Residential,17 Cranfield Ave,San Carlos,CA,94070,2700000,4,3.0,,3288,6516,2016,,821,,,,,http://www.redfin.com/CA/San-Carlos/17-Cranfield-Ave-94070/home/108551313,,,N,Y,37.5046738,-122.2868608
PAST SALE,June-7-2016,Single Family Residential,11 Willow Glen Way,SAN CARLOS,CA,94070,1225000,3,2.0,SAN CARLOS,1280,4482,1954,602,957,,Sold,,,http://www.redfin.com/CA/San-Carlos/11-Willow-Glen-Way-94070/home/1881490,MLSListings,ML81585557,N,Y,37.4995418,-122.2780239
PAST SALE,January-10-2017,Single Family Residential,46 Roslyn Ave,SAN CARLOS,CA,94070,2400000,4,3.0,SAN CARLOS,2512,5633,2016,385,955,,Sold,,,http://www.redfin.com/CA/San-Carlos/46-Roslyn-Ave-94070/home/109599981,MLSListings,ML81632382,N,Y,37.4973563,-122.2784423
PAST SALE,,Single Family Residential,116 Dundee Ln,San Carlos,CA,94070,2080000,4,3.0,,2510,12036,1993,,829,,,,,http://www.redfin.com/CA/San-Carlos/116-Dundee-Ln-94070/home/2014661,,,N,Y,37.4968309,-122.2737451
PAST SALE,,Condo/Co-op,656 Walnut St Unit 402,San Carlos,CA,94070,1277500,2,2.0,,1688,,2007,,757,,,,,http://www.redfin.com/CA/San-Carlos/656-Walnut-St-94070/unit-402/home/17307293,,,N,Y,37.5047362,-122.2613356
PAST SALE,July-8-2016,Single Family Residential,1015 Riverton Dr,SAN CARLOS,CA,94070,1425000,3,2.0,SAN CARLOS,1685,5000,1948,571,846,,Sold,,,http://www.redfin.com/CA/San-Carlos/1015-Riverton-Dr-94070/home/2011414,MLSListings,ML81587547,N,Y,37.5123866,-122.2620788
PAST SALE,June-28-2016,Single Family Residential,90 Bayport Ct,SAN CARLOS,CA,94070,1300000,3,2.5,SAN CARLOS,1660,5545,1987,581,783,,Sold,,,http://www.redfin.com/CA/San-Carlos/90-Bayport-Ct-94070/home/771729,MLSListings,ML81580230,N,Y,37.5113302,-122.2576247
PAST SALE,September-2-2016,Condo/Co-op,757 Elm St #107,SAN CARLOS,CA,94070,738000,2,1.5,SAN CARLOS,1000,15489,1982,515,738,450,Sold,,,http://www.redfin.com/CA/San-Carlos/757-Elm-St-94070/unit-107/home/108277501,MLSListings,ML81593897,N,Y,37.503302,-122.260358
PAST SALE,February-29-2016,Single Family Residential,3165 La Mesa Dr,SAN CARLOS,CA,94070,2100000,3,3.0,SAN CARLOS,2500,9450,1968,701,840,,Sold,,,http://www.redfin.com/CA/San-Carlos/3165-La-Mesa-Dr-94070/home/794493,MLSListings,ML81562711,N,Y,37.4814802,-122.2772183
PAST SALE,January-4-2017,Single Family Residential,3313 Melendy Dr,SAN CARLOS,CA,94070,1835000,3,3.5,SAN CARLOS,3083,10575,1966,391,595,,Sold,,,http://www.redfin.com/CA/San-Carlos/3313-Melendy-Dr-94070/home/1999212,MLSListings,ML81631794,N,Y,37.4880128,-122.2832401
PAST SALE,,Single Family Residential,3215 La Mesa Dr,San Carlos,CA,94070,159000,5,3.0,,2890,17500,1978,,55,,,,,http://www.redfin.com/CA/San-Carlos/3215-La-Mesa-Dr-94070/home/2057310,,,N,Y,37.4805732,-122.2796134
PAST SALE,November-9-2016,Single Family Residential,3218 La Mesa Dr,SAN CARLOS,CA,94070,2300000,4,2.5,SAN CARLOS,2720,10127,1986,447,846,,Sold,,,http://www.redfin.com/CA/San-Carlos/3218-La-Mesa-Dr-94070/home/1760813,MLSListings,ML81626712,N,Y,37.4815094,-122.2800461
PAST SALE,July-12-2016,Single Family Residential,1281 Greenbrier Rd,SAN CARLOS,CA,94070,2225000,3,2.0,SAN CARLOS,2010,7200,1968,567,1107,,Sold,,,http://www.redfin.com/CA/San-Carlos/1281-Greenbrier-Rd-94070/home/1836056,MLSListings,ML81589073,N,Y,37.4830065,-122.2787997
PAST SALE,June-20-2016,Single Family Residential,2866 Roland Ave,SAN CARLOS,CA,94070,2300000,4,3.0,SAN CARLOS,2499,6000,2009,589,920,,Sold,,,http://www.redfin.com/CA/San-Carlos/2866-Roland-Ave-94070/home/2059092,MLSListings,ML81565891,N,Y,37.482812,-122.2671565
PAST SALE,May-10-2016,Single Family Residential,2608 Thornhill Dr,SAN CARLOS,CA,94070,1420000,4,2.5,SAN CARLOS,1720,5601,1955,630,826,,Sold,,,http://www.redfin.com/CA/San-Carlos/2608-Thornhill-Dr-94070/home/793550,MLSListings,ML81566057,N,Y,37.4885243,-122.2653518
PAST SALE,February-2-2016,Single Family Residential,2668 Thornhill Dr,SAN CARLOS,CA,94070,2170000,4,3.5,SAN CARLOS,2553,5650,1949,728,850,,Sold,,,http://www.redfin.com/CA/San-Carlos/2668-Thornhill-Dr-94070/home/1973788,MLSListings,ML81518907,N,Y,37.4874438,-122.266127
PAST SALE,,Condo/Co-op,3353 Brittan Ave Apt 12,San Carlos,CA,94070,900000,3,2.0,,1239,,1972,,726,,,,,http://www.redfin.com/CA/San-Carlos/3353-Brittan-Ave-94070/unit-12/home/2047988,,,N,Y,37.4808,-122.285864
PAST SALE,,Single Family Residential,39 Oak Creek Ln,San Carlos,CA,94070,3680000,4,3.0,,3921,18730,2006,,939,,,,,http://www.redfin.com/CA/San-Carlos/39-Oak-Creek-Ln-94070/home/1588706,,,N,Y,37.4837257,-122.2682251
PAST SALE,,Single Family Residential,2724 Brittan Ave,San Carlos,CA,94070,1360000,3,2.0,,1360,8800,1959,,1000,,,,,http://www.redfin.com/CA/San-Carlos/2724-Brittan-Ave-94070/home/1897825,,,N,Y,37.4883489,-122.2696621
PAST SALE,June-3-2016,Single Family Residential,1942 Carmelita Dr,SAN CARLOS,CA,94070,3025000,4,3.0,SAN CARLOS,2670,17500,1939,606,1133,,Sold,,,http://www.redfin.com/CA/San-Carlos/1942-Carmelita-Dr-94070/home/1876082,MLSListings,ML81582971,N,Y,37.5017557,-122.2685924
PAST SALE,June-27-2016,Single Family Residential,113 Colton Ave,SAN CARLOS,CA,94070,3025000,5,4.0,SAN CARLOS,3601,5714,2016,582,840,,Sold,,,http://www.redfin.com/CA/San-Carlos/113-Colton-Ave-94070/home/1850076,MLSListings,ML81586572,N,Y,37.4886573,-122.2502153
PAST SALE,November-8-2016,Single Family Residential,217 F St,REDWOOD CITY,CA,94063,950000,3,1.0,REDWOOD CITY,970,5000,1950,448,979,,Sold,,,http://www.redfin.com/CA/Redwood-City/217-F-St-94063/home/2041027,MLSListings,ML81627500,N,Y,37.4951304,-122.2419171
PAST SALE,March-7-2016,Condo/Co-op,1456 San Carlos Ave #304,SAN CARLOS,CA,94070,875000,2,2.0,SAN CARLOS,1286,15138,1974,694,680,567,Sold,,,http://www.redfin.com/CA/San-Carlos/1456-San-Carlos-Ave-94070/unit-304/home/1157661,MLSListings,ML81546567,N,Y,37.5048305,-122.26397
PAST SALE,November-22-2016,Single Family Residential,3198 La Mesa Dr,SAN CARLOS,CA,94070,1700000,4,3.5,SAN CARLOS,2590,7566,1972,434,656,,Sold,,,http://www.redfin.com/CA/San-Carlos/3198-La-Mesa-Dr-94070/home/1991662,MLSListings,ML81613228,N,Y,37.4806253,-122.2788059
PAST SALE,June-9-2016,Condo/Co-op,3331 La Mesa Dr #6,SAN CARLOS,CA,94070,780000,2,2.0,SAN CARLOS,1040,,1973,600,750,459,Sold,,,http://www.redfin.com/CA/San-Carlos/3331-La-Mesa-Dr-94070/unit-6/home/1906757,MLSListings,ML81583526,N,Y,37.48035,-122.282845
PAST SALE,February-8-2017,Single Family Residential,253 Highland Ave,SAN CARLOS,CA,94070,1801000,3,2.0,SAN CARLOS,1900,5856,1962,356,948,,Sold,,,http://www.redfin.com/CA/San-Carlos/253-Highland-Ave-94070/home/1991627,MLSListings,ML81635032,Y,Y,37.5070643,-122.2756925
PAST SALE,April-22-2016,Single Family Residential,128 Scenic Dr,REDWOOD CITY,CA,94062,2325000,4,3.0,REDWOOD CITY,3820,11125,1930,648,609,,Sold,,,http://www.redfin.com/CA/Redwood-City/128-Scenic-Dr-94062/home/1220659,MLSListings,ML81562528,N,Y,37.4807885,-122.2603474
PAST SALE,October-20-2016,Single Family Residential,1732 Elizabeth St,SAN CARLOS,CA,94070,2550000,4,4.0,SAN CARLOS,2460,18399,1952,467,1037,,Sold,,,http://www.redfin.com/CA/San-Carlos/1732-Elizabeth-St-94070/home/1220567,MLSListings,ML81613977,N,Y,37.5007918,-122.2645655
PAST SALE,May-5-2016,Single Family Residential,417 Palomar Dr,REDWOOD CITY,CA,94062,1810000,3,2.0,REDWOOD CITY,1690,11832,1937,635,1071,,Sold,,,http://www.redfin.com/CA/Redwood-City/417-Palomar-Dr-94062/home/798931,MLSListings,ML81576798,Y,Y,37.4795645,-122.2656901
PAST SALE,,Multi-Family (2-4 Unit),1313 Olive St,San Carlos,CA,94070,1725100,8,7.5,,1020,6600,1998,,1691,,,,,http://www.redfin.com/CA/San-Carlos/1313-Olive-St-94070/home/1515605,,,N,Y,37.5026599,-122.2588824
