SALE TYPE,SOLD DATE,PROPERTY TYPE,ADDRESS,CITY,STATE,ZIP,PRICE,BEDS,BATHS,LOCATION,SQUARE FEET,LOT SIZE,YEAR BUILT,DAYS ON MARKET,$/SQUARE FEET,HOA/MONTH,STATUS,NEXT OPEN HOUSE START TIME,NEXT OPEN HOUSE END TIME,URL (SEE http://www.redfin.com/buy-a-home/comparative-market-analysis FOR INFO ON PRICING),SOURCE,MLS#,FAVORITE,INTERESTED,LATITUDE,LONGITUDE
PAST SALE,August-25-2017,Single Family Residential,176 Yerba Buena Ave,San Francisco,CA,94127,2700000,5,5.5,Monterey Heights,3500,5323,1928,158,771,,Sold,,,http://www.redfin.com/CA/San-Francisco/176-Yerba-Buena-Ave-94127/home/1405133,San Francisco MLS,461681,N,Y,37.7357604,-122.4615564
PAST SALE,August-17-2017,Single Family Residential,622 Los Palmos Dr,San Francisco,CA,94127,2700000,5,3.0,Westwood Highlands,3740,,1977,166,722,,Sold,,,http://www.redfin.com/CA/San-Francisco/622-Los-Palmos-Dr-94127/home/687815,San Francisco MLS,458988,N,Y,37.7350553,-122.4560481
PAST SALE,,Single Family Residential,111 Terrace Dr,San Francisco,CA,94127,3600000,5,4.0,,3490,4364,1991,,1032,,,,,http://www.redfin.com/CA/San-Francisco/111-Terrace-Dr-94127/home/1922127,,,N,Y,37.7374134,-122.4652265
PAST SALE,August-16-2017,Condo/Co-op,49-59 Beideman St #59,San Francisco,CA,94115,699000,2,1.0,Western Addition,,,1904,167,,310,Sold,,,http://www.redfin.com/CA/San-Francisco/49-Beideman-St-94115/unit-59/home/1227993,San Francisco MLS,459430,N,Y,37.7822869,-122.438596
PAST SALE,September-8-2017,Condo/Co-op,2000 Ellis St #206,San Francisco,CA,94115,880000,1,1.0,Anza Vista,741,,2013,144,1188,426,Sold,,,http://www.redfin.com/CA/San-Francisco/2000-Ellis-St-94115/unit-206/home/49800753,San Francisco MLS,461318,N,Y,37.781718,-122.439434
PAST SALE,August-18-2017,Condo/Co-op,1676 Wallace Ave,San Francisco,CA,94124,430000,2,1.0,Bayview,905,,1997,165,475,168,Sold,,,http://www.redfin.com/CA/San-Francisco/1676-Wallace-Ave-94124/home/1720137,San Francisco MLS,453124,N,Y,37.728465,-122.39232
PAST SALE,November-14-2017,Single Family Residential,152 22nd Ave,SAN FRANCISCO,CA,94121,2100000,3,1.0,SAN FRANCISCO,2250,2996,1913,77,933,,Sold,,,http://www.redfin.com/CA/San-Francisco/152-22nd-Ave-94121/home/991164,MLSListings,ML81681411,N,Y,37.784941,-122.481531
PAST SALE,,Multi-Family (5+ Unit),1801 California St Apt 100,San Francisco,CA,94109,20000000,,31.0,,34827,8250,1926,,574,,,,,http://www.redfin.com/CA/San-Francisco/1801-California-St-94109/unit-100/home/1374741,,,N,Y,37.7898615,-122.4241187
PAST SALE,August-4-2017,Condo/Co-op,1688 Pine St Unit EPH01,San Francisco,CA,94109,2300000,2,2.5,Van Ness/Civic Center,1425,,2016,179,1614,868,Sold,,,http://www.redfin.com/CA/San-Francisco/1688-Pine-St-94109/unit-E-PH01/home/109238849,San Francisco MLS,457649,N,Y,37.7895441,-122.4235215
PAST SALE,October-20-2017,Condo/Co-op,1688 Pine St Unit W707,San Francisco,CA,94109,1595000,2,2.0,Van Ness/Civic Center,1164,,2016,102,1370,801,Sold,,,http://www.redfin.com/CA/San-Francisco/1688-Pine-St-94109/unit-W707/home/110263249,San Francisco MLS,462908,N,Y,37.7895441,-122.4235215
PAST SALE,October-27-2017,Condo/Co-op,1817 California St Unit 1E,San Francisco,CA,94118,1025000,2,1.5,Pacific Heights,820,,1960,95,1250,526,Sold,,,http://www.redfin.com/CA/San-Francisco/1817-California-St-94109/unit-1E/home/114077535,San Francisco MLS,463095,N,Y,37.7897827,-122.424542
PAST SALE,,Multi-Family (2-4 Unit),3820 Cesar Chavez St,San Francisco,CA,94131,2300000,,2.0,,2132,2848,1900,,1079,,,,,http://www.redfin.com/CA/San-Francisco/3820-Cesar-Chavez-St-94131/home/1923226,,,N,Y,37.7479273,-122.4254147
PAST SALE,August-9-2017,Multi-Family (2-4 Unit),3835-3837 26th St,San Francisco,CA,94131,2310000,6,4.0,Noe Valley,3480,2850,1908,174,664,,Sold,,,http://www.redfin.com/CA/San-Francisco/3837-26th-St-94131/home/1328440,San Francisco MLS,456122,N,Y,37.7484358,-122.4257526
PAST SALE,November-6-2017,Condo/Co-op,3184 Mission #204,San Francisco,CA,94110,1160000,2,2.0,Bernal Heights,1260,,2006,85,921,397,Sold,,,http://www.redfin.com/CA/San-Francisco/3184-Mission-St-94110/unit-204/home/17304693,San Francisco MLS,462687,N,Y,37.7461341,-122.419761
PAST SALE,November-10-2017,Single Family Residential,75 Winfield St,San Francisco,CA,94110,1250000,3,2.0,Bernal Heights,1650,1750,1906,81,758,,Sold,,,http://www.redfin.com/CA/San-Francisco/75-Winfield-St-94110/home/758319,San Francisco MLS,464656,N,Y,37.7439204,-122.4175199
PAST SALE,November-6-2017,Multi-Family (2-4 Unit),18-20 Day St,San Francisco,CA,94110,1463500,4,2.0,Noe Valley,2650,2487,1929,85,552,,Sold,,,http://www.redfin.com/CA/San-Francisco/20-Day-St-94110/home/1017467,San Francisco MLS,463632,N,Y,37.7433069,-122.4232311
PAST SALE,,Multi-Family (5+ Unit),226 27th St Apt 3,San Francisco,CA,94131,750000,19,11.0,,6511,5700,1963,,115,,,,,http://www.redfin.com/CA/San-Francisco/226-27th-St-94131/unit-3/home/1123317,,,N,Y,37.747182,-122.4258545
PAST SALE,September-29-2017,Single Family Residential,1529 Dolores St,San Francisco,CA,94110,1675000,4,2.0,Noe Valley,1700,2495,1910,123,985,,Sold,,,http://www.redfin.com/CA/San-Francisco/1529-Dolores-St-94110/home/1753014,San Francisco MLS,459507,N,Y,37.744991,-122.424122
PAST SALE,August-8-2017,Condo/Co-op,1020 Church St #2,San Francisco,CA,94114,2100000,3,2.5,Noe Valley,1679,,1994,175,1251,,Sold,,,http://www.redfin.com/CA/San-Francisco/1020-Church-St-94114/unit-2/home/1139807,San Francisco MLS,459892,N,Y,37.7544746,-122.4280047
PAST SALE,August-18-2017,Condo/Co-op,379 Church St #401,San Francisco,CA,94114,1710000,3,2.0,Mission Dolores,1469,,1993,165,1164,367,Sold,,,http://www.redfin.com/CA/San-Francisco/379-Church-St-94114/unit-401/home/706686,San Francisco MLS,460517,N,Y,37.764932,-122.428345
PAST SALE,October-18-2017,Single Family Residential,433 Elizabeth St,San Francisco,CA,94114,3060000,4,2.5,Noe Valley,,,1929,104,,,Sold,,,http://www.redfin.com/CA/San-Francisco/433-Elizabeth-St-94114/home/1613211,San Francisco MLS,462141,N,Y,37.7520669,-122.430508
PAST SALE,October-23-2017,Condo/Co-op,18 Abbey St,San Francisco,CA,94114,1275000,2,1.0,Mission Dolores,830,,1900,99,1536,190,Sold,,,http://www.redfin.com/CA/San-Francisco/18-Abbey-St-94114/home/1143508,San Francisco MLS,463122,N,Y,37.7635604,-122.4274196
PAST SALE,November-6-2017,Condo/Co-op,348 Church St #301,San Francisco,CA,94114,1325000,2,2.0,Eureka Valley/Dolore,,,1995,85,,403,Sold,,,http://www.redfin.com/CA/San-Francisco/348-Church-St-94114/unit-301/home/1985657,San Francisco MLS,463294,N,Y,37.765397,-122.4290488
PAST SALE,November-22-2017,Condo/Co-op,1973 15th St,San Francisco,CA,94114,1825000,2,2.0,Mission Dolores,1335,,1907,69,1367,178,Sold,,,http://www.redfin.com/CA/San-Francisco/1973-15th-St-94114/home/40138408,San Francisco MLS,464141,N,Y,37.7660155,-122.4281519
PAST SALE,November-21-2017,Townhouse,110 Chattanooga St Unit B,San Francisco,CA,94114,2400000,3,3.0,Noe Valley,2153,,2004,70,1115,321,Sold,,,http://www.redfin.com/CA/San-Francisco/110-Chattanooga-St-94114/unit-B/home/1553045,San Francisco MLS,462400,N,Y,37.7545276,-122.4267296
PAST SALE,,Condo/Co-op,1875 Mission St Apt 211,San Francisco,CA,94103,832500,1,1.0,,799,,2014,,1042,,,,,http://www.redfin.com/CA/San-Francisco/1875-Mission-St-94103/unit-211/home/109684916,,,N,Y,37.7671127,-122.4195219
PAST SALE,,Condo/Co-op,1930 Mission St #6,San Francisco,CA,94103,600000,,,,734,,1993,,817,,,,,http://www.redfin.com/CA/San-Francisco/1930-Mission-St-94103/unit-6/home/1820486,,,N,Y,37.7662071,-122.4201693
PAST SALE,August-25-2017,Single Family Residential,190 St Germain Ave,San Francisco,CA,94114,3400000,6,5.5,Clarendon Heights,4895,6033,1980,158,695,,Sold,,,http://www.redfin.com/CA/San-Francisco/190-Saint-Germain-Ave-94114/home/674235,San Francisco MLS,456979,N,Y,37.7575372,-122.4518813
PAST SALE,August-9-2017,Multi-Family (2-4 Unit),114-116 Clarendon,San Francisco,CA,94114,2040000,6,3.0,Clarendon Heights,,4487,1908,174,,,Sold,,,http://www.redfin.com/CA/San-Francisco/116-Clarendon-Ave-94114/home/1637139,San Francisco MLS,460289,N,Y,37.7585915,-122.4517996
PAST SALE,October-16-2017,Single Family Residential,501 Panorama Dr,San Francisco,CA,94131,1575000,5,3.0,Midtown Terrace,1974,3049,1957,106,798,,Sold,,,http://www.redfin.com/CA/San-Francisco/501-Panorama-Dr-94131/home/1954674,San Francisco MLS,462780,N,Y,37.7529052,-122.4508521
PAST SALE,January-8-2018,Single Family Residential,3501 Alemany Blvd,San Francisco,CA,94132,1350000,4,4.0,Ingleside Heights,2712,1757,,22,498,,Sold,,,http://www.redfin.com/CA/San-Francisco/3501-Alemany-Blvd-94132/home/28544501,San Francisco MLS,464733,N,Y,37.7112232,-122.4636768
PAST SALE,December-1-2017,Single Family Residential,140 Saint Charles Ave,SAN FRANCISCO,CA,94132,650000,2,1.0,SAN FRANCISCO,1050,3500,1938,60,619,,Sold,,,http://www.redfin.com/CA/San-Francisco/140-Saint-Charles-Ave-94132/home/1945585,MLSListings,ML81686083,N,Y,37.7115395,-122.469513
PAST SALE,January-25-2018,Condo/Co-op,8400 Oceanview Ter #120,San Francisco,CA,94132,622000,1,1.0,Ingleside Heights,669,,2002,5,930,441,Sold,,,http://www.redfin.com/CA/San-Francisco/8400-Ocean-View-Ter-94132/unit-120/home/1569219,San Francisco MLS,465738,N,Y,37.7097571,-122.4683035
PAST SALE,August-18-2017,Condo/Co-op,1565 Grove,San Francisco,CA,94117,1540000,3,2.0,North Panhandle,1650,,1906,165,933,295,Sold,,,http://www.redfin.com/CA/San-Francisco/1565-Grove-St-94117/home/122549485,San Francisco MLS,458723,N,Y,37.7752862,-122.4423788
PAST SALE,,Multi-Family (2-4 Unit),915 Haight St,San Francisco,CA,94117,1988500,,2.0,,3280,2748,1900,,606,,,,,http://www.redfin.com/CA/San-Francisco/915-Haight-St-94117/home/599015,,,N,Y,37.770984,-122.437347
PAST SALE,September-22-2017,Condo/Co-op,139 Henry St,San Francisco,CA,94114,1360000,2,1.0,Duboce Triangle,1320,,1900,130,1030,352,Sold,,,http://www.redfin.com/CA/San-Francisco/139-Henry-St-94114/home/1286166,San Francisco MLS,461491,N,Y,37.766367,-122.434217
PAST SALE,October-6-2017,Condo/Co-op,52 Alpine Ter #2,San Francisco,CA,94117,1720000,2,2.0,Buena Vista Park,,,2014,116,,259,Sold,,,http://www.redfin.com/CA/San-Francisco/52-Alpine-Ter-94117/unit-2/home/56796650,San Francisco MLS,461982,N,Y,37.7696388,-122.4378991
PAST SALE,October-2-2017,Condo/Co-op,1081 A 14th St Unit A,San Francisco,CA,94114,730000,1,1.0,Buena Vista Park,599,,1909,120,1219,211,Sold,,,http://www.redfin.com/CA/San-Francisco/1081-14th-St-94114/unit-A/home/69371338,San Francisco MLS,461445,N,Y,37.7669504,-122.4376742
PAST SALE,November-14-2017,Multi-Family (2-4 Unit),1373-1377 Haight St,San Francisco,CA,94117,2259000,8,2.0,Haight Ashbury,5620,2495,1902,77,402,,Sold,,,http://www.redfin.com/CA/San-Francisco/1377-Haight-St-94117/home/143974379,San Francisco MLS,463393,N,Y,37.7701004,-122.4448172
PAST SALE,October-10-2017,Single Family Residential,368 Frederick St,San Francisco,CA,94117,1800000,1,1.0,Parnassus/Ashbury Heights,1278,2748,1927,112,1408,,Sold,,,http://www.redfin.com/CA/San-Francisco/368-Frederick-St-94117/home/1297386,San Francisco MLS,462056,N,Y,37.7669033,-122.4495395
PAST SALE,November-29-2017,Condo/Co-op,617 B-B.5 Broderick St,San Francisco,CA,94117,1910000,4,4.0,North Panhandle,2172,,1904,62,879,100,Sold,,,http://www.redfin.com/CA/San-Francisco/5-Broderick-St-94117/home/142944839,San Francisco MLS,460512,N,Y,37.7701804,-122.4385526
PAST SALE,November-29-2017,Multi-Family (2-4 Unit),617 B & B1/2 Broderick,San Francisco,CA,94117,1910000,4,4.0,North Panhandle,2172,2500,1904,62,879,,Sold,,,http://www.redfin.com/CA/San-Francisco/617-California-St-94115/home/142944902,San Francisco MLS,460513,N,Y,37.775936,-122.439995
PAST SALE,October-12-2017,Single Family Residential,1581 Masonic Ave,San Francisco,CA,94117,3800000,4,3.5,Buena Vista Park,3051,,,110,1245,,Sold,,,http://www.redfin.com/CA/San-Francisco/1581-Masonic-Ave-94117/home/992899,San Francisco MLS,461055,N,Y,37.7655004,-122.4439237
PAST SALE,November-16-2017,Condo/Co-op,230 Scott St,San Francisco,CA,94117,1630000,3,2.0,Hayes Valley,,,,75,,250,Sold,,,http://www.redfin.com/CA/San-Francisco/230-Scott-St-94117/home/1329552,San Francisco MLS,463939,N,Y,37.7720839,-122.435217
PAST SALE,October-10-2017,Condo/Co-op,1441 Page St,San Francisco,CA,94117,920000,1,1.0,Haight Ashbury,750,,,112,1227,192,Sold,,,http://www.redfin.com/CA/San-Francisco/1441-Page-St-94117/unit-P/home/1610949,San Francisco MLS,460538,N,Y,37.7711083,-122.4444979
PAST SALE,,Multi-Family (5+ Unit),845 Waller St,San Francisco,CA,94117,3300000,,4.0,,3650,2179,1927,,904,,,,,http://www.redfin.com/CA/San-Francisco/845-Waller-St-94117/home/599977,,,N,Y,37.7701366,-122.4375494
PAST SALE,December-21-2017,Condo/Co-op,238 Divisadero St Unit A,San Francisco,CA,94117,350000,1,1.0,Hayes Valley,840,,1900,40,417,,Sold,,,http://www.redfin.com/CA/San-Francisco/238-Divisadero-St-94117/unit-A/home/144317027,San Francisco MLS,464992,N,Y,37.7710522,-122.4367533
PAST SALE,December-21-2017,Condo/Co-op,238 Divisadero St Unit B,San Francisco,CA,94117,850000,2,1.0,Hayes Valley,846,,1900,40,1005,,Sold,,,http://www.redfin.com/CA/San-Francisco/238-Divisadero-St-94117/unit-B/home/144288234,San Francisco MLS,464558,N,Y,37.7710522,-122.4367533
PAST SALE,January-19-2018,Single Family Residential,2503 15th St,San Francisco,CA,94114,3200000,3,2.5,Corona Heights,2509,2347,1911,11,1275,,Sold,,,http://www.redfin.com/CA/San-Francisco/2503-15th-St-94114/home/1693930,San Francisco MLS,465831,N,Y,37.766104,-122.438606
PAST SALE,,Multi-Family (2-4 Unit),53 Divisadero St,San Francisco,CA,94117,3300000,,3.0,,5230,2334,1909,,631,,,,,http://www.redfin.com/CA/San-Francisco/53-Divisadero-St-94117/home/954249,,,N,Y,37.7681479,-122.436827
PAST SALE,,Multi-Family (2-4 Unit),238 Divisadero St Unit B,San Francisco,CA,94117,850000,,3.0,,2080,2539,1900,,409,,,,,http://www.redfin.com/CA/San-Francisco/238-Divisadero-St-94117/unit-B/home/598700,,,N,Y,37.7710522,-122.4367533
PAST SALE,,Condo/Co-op,1571 Grove St,San Francisco,CA,94117,1353500,3,2.0,,1700,4219,1906,,796,,,,,http://www.redfin.com/CA/San-Francisco/1571-Grove-St-94117/home/1909937,,,N,Y,37.7752745,-122.4424732
PAST SALE,January-26-2018,Multi-Family (5+ Unit),840 Waller St,San Francisco,CA,94117,10250000,18,,Buena Vista Park,10416,6873,1962,4,984,,Sold,,,http://www.redfin.com/CA/San-Francisco/840-Waller-St-94117/home/599021,San Francisco MLS,454239,N,Y,37.7705065,-122.437594
PAST SALE,September-15-2017,Condo/Co-op,2491 Harrison St,San Francisco,CA,94110,1600000,2,1.0,Inner Mission,,,,137,,450,Sold,,,http://www.redfin.com/CA/San-Francisco/2491-Harrison-St-94110/home/143026528,San Francisco MLS,460870,N,Y,37.7576049,-122.4122678
PAST SALE,September-19-2017,Multi-Family (2-4 Unit),613 York St,San Francisco,CA,94110,2400000,4,,Inner Mission,3186,2500,1900,133,753,,Sold,,,http://www.redfin.com/CA/San-Francisco/613-York-St-94110/home/114079712,San Francisco MLS,461497,N,Y,37.7614534,-122.4089096
PAST SALE,September-20-2017,Condo/Co-op,832 Alabama St Unit B,San Francisco,CA,94110,1065000,2,1.0,Inner Mission,,,1900,132,,300,Sold,,,http://www.redfin.com/CA/San-Francisco/832-Alabama-St-94110/unit-B/home/102813837,San Francisco MLS,461517,N,Y,37.7581066,-122.4117454
PAST SALE,September-27-2017,Vacant Land,2677 Harrison St,San Francisco,CA,94110,1295000,,,Inner Mission,,2300,,125,,,Sold,,,http://www.redfin.com/CA/San-Francisco/2677-Harrison-St-94110/home/133418277,San Francisco MLS,459454,N,Y,37.7545593,-122.4121169
PAST SALE,October-5-2017,Condo/Co-op,2208 Mission St #501,San Francisco,CA,94110,1232208,3,2.0,Inner Mission,1153,,2009,117,1069,448,Sold,,,http://www.redfin.com/CA/San-Francisco/2208-Mission-St-94110/unit-501/home/23424047,San Francisco MLS,462390,N,Y,37.7616166,-122.4196351
PAST SALE,August-19-2017,Single Family Residential,879 Capp St,San Francisco,CA,94110,1135000,1,2.0,Inner Mission,1620,1524,1900,164,701,,Sold,,,http://www.redfin.com/CA/San-Francisco/879-Capp-St-94110/home/1272690,San Francisco MLS,461594,N,Y,37.7527158,-122.4172054
PAST SALE,,Condo/Co-op,832B Alabama St,San Francisco,CA,94110,1065000,2,1.0,,903,,1900,,1179,,,,,http://www.redfin.com/CA/San-Francisco/832B-Alabama-St-94110/home/40138720,,,N,Y,37.758088,-122.411758
PAST SALE,October-13-2017,Townhouse,3133 24th St #6,San Francisco,CA,94110,1935000,3,3.5,Inner Mission,1878,,2014,109,1030,493,Sold,,,http://www.redfin.com/CA/San-Francisco/3133-24th-St-94110/unit-6/home/52722676,San Francisco MLS,462228,N,Y,37.7522523,-122.4147512
PAST SALE,October-27-2017,Condo/Co-op,1025 Treat Ave,San Francisco,CA,94110,1580000,3,1.5,Inner Mission,,,,95,,400,Sold,,,http://www.redfin.com/CA/San-Francisco/1025-Treat-Ave-94110/home/143852387,San Francisco MLS,462996,N,Y,37.7537047,-122.4129035
PAST SALE,October-31-2017,Condo/Co-op,2830 22nd St #3,San Francisco,CA,94110,1350000,2,1.5,Inner Mission,,,1900,91,,100,Sold,,,http://www.redfin.com/CA/San-Francisco/2830-22nd-St-94110/unit-3/home/91165567,San Francisco MLS,463415,N,Y,37.7560911,-122.4109985
PAST SALE,October-31-2017,Multi-Family (2-4 Unit),1029-1031 York St,San Francisco,CA,94110,1405000,7,,Inner Mission,2280,2500,1880,91,616,,Sold,,,http://www.redfin.com/CA/San-Francisco/1031-York-St-94110/home/1463599,San Francisco MLS,463056,N,Y,37.7555509,-122.408256
PAST SALE,November-30-2017,Multi-Family (5+ Unit),696 Valencia St,San Francisco,CA,94110,4525000,12,,Mission Dolores,6630,3000,1923,61,683,,Sold,,,http://www.redfin.com/CA/San-Francisco/696-Valencia-St-94110/home/25714650,San Francisco MLS,462061,N,Y,37.7618236,-122.4219623
PAST SALE,November-23-2017,Condo/Co-op,1045 South Van Ness Ave #301,San Francisco,CA,94110,1333000,3,2.0,Inner Mission,1653,,1991,68,806,550,Sold,,,http://www.redfin.com/CA/San-Francisco/1045-S-Van-Ness-Ave-94110/unit-301/home/714572,San Francisco MLS,462572,N,Y,37.7564925,-122.4164278
PAST SALE,November-30-2017,Condo/Co-op,576 Shotwell St #3,San Francisco,CA,94110,1245000,2,2.0,Inner Mission,1100,,,61,1132,195,Sold,,,http://www.redfin.com/CA/San-Francisco/576-Shotwell-St-94110/unit-3/home/18703845,San Francisco MLS,465265,N,Y,37.7592,-122.416131
PAST SALE,November-22-2017,Condo/Co-op,1115 Guerrero St,San Francisco,CA,94110,1660000,3,1.0,Noe Valley,1785,,1904,69,930,320,Sold,,,http://www.redfin.com/CA/San-Francisco/1115-Guerrero-St-94110/home/52059290,San Francisco MLS,463882,N,Y,37.7532974,-122.4228454
PAST SALE,January-9-2018,Condo/Co-op,2857 22nd St,San Francisco,CA,94110,1600000,2,2.0,Inner Mission,1465,,1941,21,1092,265,Sold,,,http://www.redfin.com/CA/San-Francisco/2857-22nd-St-94110/home/52059307,San Francisco MLS,465249,N,Y,37.7557161,-122.4114423
PAST SALE,,Multi-Family (5+ Unit),115 San Jose Ave Apt 2,San Francisco,CA,94110,633500,4,4.0,,2516,2595,1900,,252,,,,,http://www.redfin.com/CA/San-Francisco/115-San-Jose-Ave-94110/unit-2/home/1139859,,,N,Y,37.7531166,-122.4213149
PAST SALE,January-25-2018,Single Family Residential,1221 York St,San Francisco,CA,94110,2750000,4,4.5,Inner Mission,,,1875,5,,,Sold,,,http://www.redfin.com/CA/San-Francisco/1221-York-St-94110/home/2008816,San Francisco MLS,462425,N,Y,37.752165,-122.407846
PAST SALE,,Condo/Co-op,3653 20th St,San Francisco,CA,94110,725000,3,2.5,,1478,,1900,,491,,,,,http://www.redfin.com/CA/San-Francisco/3653-20th-St-94110/home/712499,,,N,Y,37.758187,-122.422417
PAST SALE,August-18-2017,Single Family Residential,2040 Alemany Blvd,San Francisco,CA,94112,900000,2,2.0,Mission Terrace,,1232,1939,165,,,Sold,,,http://www.redfin.com/CA/San-Francisco/2040-Alemany-Blvd-94112/home/948302,San Francisco MLS,460179,N,Y,37.7195505,-122.4404926
PAST SALE,August-24-2017,Other,4809-4811 Mission St,SAN FRANCISCO,CA,94112,2250000,9,,SAN FRANCISCO,5688,2088,2002,159,396,,Sold,,,http://www.redfin.com/CA/San-Francisco/4809-Mission-St-94112/home/113538773,MLSListings,ML81644360,N,Y,37.7212719,-122.4370959
PAST SALE,December-15-2017,Single Family Residential,95 Otsego Ave,San Francisco,CA,94112,1160000,3,1.5,Mission Terrace,1350,2888,1924,46,859,,Sold,,,http://www.redfin.com/CA/San-Francisco/95-Otsego-Ave-94112/home/1192095,San Francisco MLS,464449,N,Y,37.7259565,-122.4393459
PAST SALE,December-6-2017,Single Family Residential,833 Cayuga Ave,San Francisco,CA,94112,1500000,3,2.0,Mission Terrace,,,,55,,,Sold,,,http://www.redfin.com/CA/San-Francisco/833-Cayuga-Ave-94112/home/2034213,San Francisco MLS,464698,N,Y,37.7245153,-122.4380072
PAST SALE,January-24-2018,Single Family Residential,,San Francisco,CA,94112,1318000,4,1.5,,2426,3515,1922,6,543,,Sold,,,http://www.redfin.com/CA/San-Francisco/Undisclosed-address-94112/home/700366,BAREIS,21726645,N,Y,37.7236475,-122.4400168
PAST SALE,September-1-2017,Townhouse,126 Diamond Cove Ter,San Francisco,CA,94134,925000,3,3.0,Candlestick Point,1474,,2013,151,628,380,Sold,,,http://www.redfin.com/CA/San-Francisco/126-Diamond-Cove-Ter-94134/home/52343935,San Francisco MLS,458558,N,Y,37.7128585,-122.3942436
PAST SALE,August-21-2017,Condo/Co-op,301 Crescent Ct #3307,San Francisco,CA,94134,721000,2,2.0,Candlestick Point,,,2007,162,,382,Sold,,,http://www.redfin.com/CA/San-Francisco/301-Crescent-Ct-94134/unit-3307/home/12277946,San Francisco MLS,459948,N,Y,37.711177,-122.388087
PAST SALE,September-22-2017,Single Family Residential,325 Teddy Ave,San Francisco,CA,94134,805000,3,2.0,Visitacion Valley,930,2495,1950,130,866,,Sold,,,http://www.redfin.com/CA/San-Francisco/325-Teddy-Ave-94134/home/1981756,San Francisco MLS,461710,N,Y,37.7151561,-122.4092171
PAST SALE,September-6-2017,Single Family Residential,901 Holyoke St,San Francisco,CA,94134,1120000,3,2.0,Portola,1550,1873,1963,146,723,,Sold,,,http://www.redfin.com/CA/San-Francisco/901-Holyoke-St-94134/home/782073,San Francisco MLS,459707,N,Y,37.7200141,-122.4057969
PAST SALE,September-20-2017,Single Family Residential,35 Ervine St,San Francisco,CA,94134,940000,3,3.0,Visitacion Valley,2157,1500,1989,132,436,,Sold,,,http://www.redfin.com/CA/San-Francisco/35-Ervine-St-94134/home/1639284,San Francisco MLS,460551,N,Y,37.717115,-122.4084471
PAST SALE,,Single Family Residential,52 Teddy Ave,San Francisco,CA,94134,575000,3,1.0,,875,3169,1909,,657,,,,,http://www.redfin.com/CA/San-Francisco/52-Teddy-Ave-94134/home/784784,,,N,Y,37.713655,-122.40316
PAST SALE,,Single Family Residential,233 Leland Ave,San Francisco,CA,94134,650000,,2.0,,1510,1981,1922,,430,,,,,http://www.redfin.com/CA/San-Francisco/233-Leland-Ave-94134/home/784122,,,N,Y,37.7126114,-122.4081696
PAST SALE,January-11-2018,Single Family Residential,9 Teddy Ave,San Francisco,CA,94134,1250000,4,3.5,Visitacion Valley,3200,2500,1993,19,391,,Sold,,,http://www.redfin.com/CA/San-Francisco/9-Teddy-Ave-94134/home/2032236,San Francisco MLS,463750,N,Y,37.7129287,-122.4025905
PAST SALE,,Single Family Residential,1184 Girard St,San Francisco,CA,94134,106500,,1.0,,1450,2374,1929,,73,,,,,http://www.redfin.com/CA/San-Francisco/1184-Girard-St-94134/home/1981700,,,N,Y,37.7178987,-122.4008964
PAST SALE,December-18-2017,Single Family Residential,139 Ward St,San Francisco,CA,94134,780000,2,1.0,Visitacion Valley,970,1873,1949,43,804,,Sold,,,http://www.redfin.com/CA/San-Francisco/139-Ward-St-94134/home/1241073,San Francisco MLS,464775,N,Y,37.718631,-122.401702
PAST SALE,January-23-2018,Single Family Residential,121 Peabody St,SAN FRANCISCO,CA,94134,1000000,3,3.0,SAN FRANCISCO,1730,3310,1964,7,578,,Sold,,,http://www.redfin.com/CA/San-Francisco/121-Peabody-St-94134/home/1274013,MLSListings,ML81679267,N,Y,37.7107364,-122.407006
PAST SALE,,Multi-Family (2-4 Unit),276 2nd Ave,San Francisco,CA,94118,1400000,,2.0,,2738,2996,1900,,511,,,,,http://www.redfin.com/CA/San-Francisco/276-2nd-Ave-94118/home/1359343,,,N,Y,37.7836492,-122.4599442
PAST SALE,September-20-2017,Single Family Residential,127 6th Ave,San Francisco,CA,94118,3165000,5,3.5,Lake,3100,3000,1906,132,1021,,Sold,,,http://www.redfin.com/CA/San-Francisco/127-6th-Ave-94118/home/1595287,San Francisco MLS,462952,N,Y,37.786103,-122.464982
PAST SALE,September-12-2017,Single Family Residential,108 Palm Ave,San Francisco,CA,94118,2300000,3,2.0,Jordan Park/Laurel Heights,,2850,1920,140,,,Sold,,,http://www.redfin.com/CA/San-Francisco/108-Palm-Ave-94118/home/1199420,San Francisco MLS,461088,N,Y,37.783543,-122.457592
PAST SALE,September-11-2017,Condo/Co-op,318 Arguello Blvd #2,San Francisco,CA,94118,1400000,2,1.0,Jordan Park/Laurel Heights,,,1919,141,,350,Sold,,,http://www.redfin.com/CA/San-Francisco/318-Arguello-Blvd-94118/unit-2/home/1179842,San Francisco MLS,461200,N,Y,37.7851991,-122.4588248
PAST SALE,October-23-2017,Condo/Co-op,4318 Geary Blvd #302,San Francisco,CA,94118,686000,2,1.0,Inner Richmond,690,,1989,99,994,397,Sold,,,http://www.redfin.com/CA/San-Francisco/4318-Geary-Blvd-94118/unit-302/home/143815807,San Francisco MLS,462656,N,Y,37.7812377,-122.4657778
PAST SALE,November-3-2017,Multi-Family (2-4 Unit),700-702 7th Ave,San Francisco,CA,94118,2130000,4,3.0,Inner Richmond,2900,2125,1907,88,734,,Sold,,,http://www.redfin.com/CA/San-Francisco/702-7th-Ave-94118/home/113113155,San Francisco MLS,459681,N,Y,37.7751776,-122.4647376
PAST SALE,September-26-2017,Single Family Residential,72 5th Ave,San Francisco,CA,94118,3335000,5,3.5,Lake,2940,5397,1916,126,1134,,Sold,,,http://www.redfin.com/CA/San-Francisco/72-5th-Ave-94118/home/1618796,San Francisco MLS,461929,N,Y,37.7873609,-122.4634202
PAST SALE,November-21-2017,Condo/Co-op,1245 Anza St #1,San Francisco,CA,94118,895000,1,1.0,Inner Richmond,902,,1938,70,992,200,Sold,,,http://www.redfin.com/CA/San-Francisco/1245-Anza-St-94118/unit-1/home/144154021,San Francisco MLS,464288,N,Y,37.7790631,-122.4616459
PAST SALE,November-1-2017,Single Family Residential,1312 Anza St,San Francisco,CA,94118,2035000,4,2.5,Inner Richmond,2240,2500,1905,90,908,,Sold,,,http://www.redfin.com/CA/San-Francisco/1312-Anza-St-94118/home/1603004,San Francisco MLS,462616,N,Y,37.7793846,-122.4623832
PAST SALE,October-30-2017,Condo/Co-op,615 8th Ave,San Francisco,CA,94118,1050000,2,1.0,Inner Richmond,1380,,1921,92,761,250,Sold,,,http://www.redfin.com/CA/San-Francisco/615-8th-Ave-94118/home/12247604,San Francisco MLS,462593,N,Y,37.7767858,-122.4663544
PAST SALE,January-18-2018,Multi-Family (5+ Unit),190 8th Ave,San Francisco,CA,94118,3165000,12,,Lake,7270,2870,1916,12,435,,Sold,,,http://www.redfin.com/CA/San-Francisco/190-8th-Ave-94118/home/1739975,San Francisco MLS,464195,N,Y,37.7849762,-122.4665771
PAST SALE,January-23-2018,Condo/Co-op,87 6th Ave,San Francisco,CA,94118,1650000,3,2.0,Lake,1958,,1908,7,843,,Sold,,,http://www.redfin.com/CA/San-Francisco/87-6th-Ave-94118/home/1468263,San Francisco MLS,465270,N,Y,37.786942,-122.464987
PAST SALE,December-12-2017,Multi-Family (2-4 Unit),682-684 6th Ave,San Francisco,CA,94118,2250000,5,2.0,Inner Richmond,2910,2374,1910,49,773,,Sold,,,http://www.redfin.com/CA/San-Francisco/684-6th-Ave-94118/home/1932053,San Francisco MLS,464763,N,Y,37.775735,-122.4637135
PAST SALE,August-21-2017,Single Family Residential,2162 26th Ave,San Francisco,CA,94116,1550000,3,2.5,Parkside,,3000,1937,162,,,Sold,,,http://www.redfin.com/CA/San-Francisco/2162-26th-Ave-94116/home/653580,San Francisco MLS,459776,N,Y,37.7471644,-122.483215
PAST SALE,January-23-2018,Single Family Residential,2721 Taraval St,San Francisco,CA,94116,1200000,2,2.0,Outer Parkside,1200,2495,1947,7,1000,,Sold,,,http://www.redfin.com/CA/San-Francisco/2721-Taraval-St-94116/home/2031365,San Francisco MLS,465190,N,Y,37.7420033,-122.4953951
PAST SALE,December-29-2017,Single Family Residential,2167 27th Ave,San Francisco,CA,94116,1315000,2,1.0,Parkside,1400,3000,1940,32,939,,Sold,,,http://www.redfin.com/CA/San-Francisco/2167-27th-Ave-94116/home/1840167,San Francisco MLS,464297,N,Y,37.7470255,-122.4848126
PAST SALE,,Single Family Residential,2438 30th Ave,San Francisco,CA,94116,205500,4,1.0,,1935,3000,1923,,106,,,,,http://www.redfin.com/CA/San-Francisco/2438-30th-Ave-94116/home/1894906,,,N,Y,37.7417958,-122.4872254
PAST SALE,August-8-2017,Condo/Co-op,1301 Waller St Unit A,San Francisco,CA,94117,750000,1,1.0,Haight Ashbury,634,,1908,175,1183,250,Sold,,,http://www.redfin.com/CA/San-Francisco/1301-Waller-St-94117/unit-A/home/69371201,San Francisco MLS,461190,N,Y,37.76906,-122.445232
PAST SALE,October-18-2017,Single Family Residential,708 Cole St,San Francisco,CA,94117,2950000,3,3.0,Parnassus/Ashbury Heights,2300,2375,1895,104,1283,,Sold,,,http://www.redfin.com/CA/San-Francisco/708-Cole-St-94117/home/2003682,San Francisco MLS,462718,N,Y,37.768412,-122.450253
PAST SALE,August-18-2017,Condo/Co-op,1 Wattson Pl #7,San Francisco,CA,94112,710000,2,1.5,Mission Terrace,1258,,2002,165,564,543,Sold,,,http://www.redfin.com/CA/San-Francisco/1-Watson-Ave-94112/unit-7/home/114073214,San Francisco MLS,460031,N,Y,37.7237279,-122.4370696
PAST SALE,October-25-2017,Single Family Residential,231 Staples Ave,San Francisco,CA,94112,1040000,2,1.0,Sunnyside,,2809,1925,97,,,Sold,,,http://www.redfin.com/CA/San-Francisco/231-Staples-Ave-94112/home/1873605,San Francisco MLS,462383,N,Y,37.728814,-122.4473217
PAST SALE,October-17-2017,Single Family Residential,941 Cayuga Ave,San Francisco,CA,94112,1425000,3,2.5,Mission Terrace,1563,2592,1900,105,912,,Sold,,,http://www.redfin.com/CA/San-Francisco/941-Cayuga-Ave-94112/home/40440773,San Francisco MLS,460704,N,Y,37.7229312,-122.4391264
PAST SALE,,Condo/Co-op,1117 Ocean Ave #304,San Francisco,CA,94112,978000,3,3.0,,1744,,2005,,561,,,,,http://www.redfin.com/CA/San-Francisco/1117-Ocean-Ave-94112/unit-304/home/12278046,,,N,Y,37.723237,-122.4545155
PAST SALE,,Condo/Co-op,1117 Ocean Ave #307,San Francisco,CA,94112,882000,3,2.0,,1441,,2005,,612,,,,,http://www.redfin.com/CA/San-Francisco/1117-Ocean-Ave-94112/unit-307/home/12278049,,,N,Y,37.723237,-122.4545155
PAST SALE,,Condo/Co-op,1117 Ocean Ave #309,San Francisco,CA,94112,980000,3,3.0,,1549,,2005,,633,,,,,http://www.redfin.com/CA/San-Francisco/1117-Ocean-Ave-94112/unit-309/home/12278051,,,N,Y,37.723237,-122.4545155
PAST SALE,September-29-2017,Multi-Family (2-4 Unit),4079 Mission St,San Francisco,CA,94112,1100000,5,3.0,Bernal Heights,2574,3846,1965,123,427,,Sold,,,http://www.redfin.com/CA/San-Francisco/4079-Mission-St-94112/home/1784763,San Francisco MLS,456627,N,Y,37.7322289,-122.427269
PAST SALE,September-22-2017,Single Family Residential,251 Richland Ave,San Francisco,CA,94110,1500000,2,1.0,Bernal Heights,1250,2495,1922,130,1200,,Sold,,,http://www.redfin.com/CA/San-Francisco/251-Richland-Ave-94110/home/763791,San Francisco MLS,461618,N,Y,37.7360363,-122.4216946
PAST SALE,,Multi-Family (2-4 Unit),246 30th St,San Francisco,CA,94131,1220000,,2.0,,2750,2850,1926,,444,,,,,http://www.redfin.com/CA/San-Francisco/246-30th-St-94131/home/1037362,,,N,Y,37.7423438,-122.4253751
PAST SALE,,Single Family Residential,176 Randall St,San Francisco,CA,94131,1560000,2,1.0,,1317,3123,1955,,1185,,,,,http://www.redfin.com/CA/San-Francisco/176-Randall-St-94131/home/1257476,,,N,Y,37.7398393,-122.4273274
PAST SALE,October-26-2017,Single Family Residential,372 Laidley St,San Francisco,CA,94131,1545876,3,2.0,Glen Park,1744,2500,1900,96,886,,Sold,,,http://www.redfin.com/CA/San-Francisco/372-Laidley-St-94131/home/1869399,San Francisco MLS,462447,N,Y,37.73736,-122.429213
PAST SALE,,Single Family Residential,446 Chenery St,San Francisco,CA,94131,1570000,2,1.0,,977,2500,1911,,1607,,,,,http://www.redfin.com/CA/San-Francisco/446-Chenery-St-94131/home/807118,,,N,Y,37.7361498,-122.4297453
PAST SALE,August-18-2017,Single Family Residential,419-421 Silver Ave,SAN FRANCISCO,CA,94112,1165000,5,,SAN FRANCISCO,1400,2809,1916,165,832,,Sold,,,http://www.redfin.com/CA/San-Francisco/419-Silver-Ave-94112/home/770138,MLSListings,ML81668558,N,Y,37.728786,-122.427752
PAST SALE,August-11-2017,Townhouse,100 Otter Cove Ter,San Francisco,CA,94134,371790,3,3.5,Bayview Heights,1525,9717,2010,172,244,383,Sold,,,http://www.redfin.com/CA/San-Francisco/100-Otter-Cove-Ter-94134/home/45438551,San Francisco MLS,457563,N,Y,37.71224,-122.394839
PAST SALE,,Condo/Co-op,126 Diamond Cove Ter,San Francisco,CA,94134,925000,3,3.0,,1474,,2013,,628,,,,,http://www.redfin.com/CA/San-Francisco/126-Diamond-Cove-Ter-94134/home/69371394,,,N,Y,37.7128585,-122.3942436
PAST SALE,August-21-2017,Condo/Co-op,190 Mary Teresa St,SAN FRANCISCO,CA,94134,1090000,4,2.0,SAN FRANCISCO,1890,3590,2009,162,577,232,Sold,,,http://www.redfin.com/CA/San-Francisco/190-Mary-Teresa-St-94134/home/28958084,MLSListings,ML81668942,N,Y,37.713699,-122.3985959
PAST SALE,October-11-2017,Condo/Co-op,121 Otter Cove Ter,SAN FRANCISCO,CA,94134,1030000,4,3.0,SAN FRANCISCO,1878,10641,2013,111,548,427,Sold,,,http://www.redfin.com/CA/San-Francisco/121-Otter-Cove-Ter-94134/home/69371398,MLSListings,ML81670186,N,Y,37.7125779,-122.3944152
PAST SALE,November-22-2017,Single Family Residential,456 Tocoloma Ave,San Francisco,CA,94134,845000,2,1.0,Little Hollywood,953,2500,1949,69,887,,Sold,,,http://www.redfin.com/CA/San-Francisco/456-Tocoloma-Ave-94134/home/745621,San Francisco MLS,463778,N,Y,37.7096953,-122.3990388
PAST SALE,September-15-2017,Multi-Family (2-4 Unit),322 28th St,San Francisco,CA,94131,2350000,4,2.0,Noe Valley,2155,4338,1900,137,1090,,Sold,,,http://www.redfin.com/CA/San-Francisco/322-28th-St-94131/home/1114742,San Francisco MLS,459539,N,Y,37.7453294,-122.4297059
PAST SALE,October-23-2017,Condo/Co-op,1246 Sanchez St,San Francisco,CA,94114,1895000,3,3.5,Noe Valley,1592,,2012,99,1190,,Sold,,,http://www.redfin.com/CA/San-Francisco/1246-Sanchez-St-94114/home/40372677,San Francisco MLS,462302,N,Y,37.7493575,-122.429607
PAST SALE,August-14-2017,Multi-Family (2-4 Unit),231-235 Diamond St,San Francisco,CA,94114,1940000,6,4.0,Eureka Valley/Dolore,2670,3750,1910,169,727,,Sold,,,http://www.redfin.com/CA/San-Francisco/235-Diamond-St-94114/home/1454133,San Francisco MLS,460012,N,Y,37.7585415,-122.4368505
PAST SALE,,Single Family Residential,4118 21st St,San Francisco,CA,94114,1550000,3,2.0,,1640,2435,1908,,945,,,,,http://www.redfin.com/CA/San-Francisco/4118-21st-St-94114/home/674056,,,N,Y,37.7561117,-122.4371255
PAST SALE,October-25-2017,Single Family Residential,4030 22nd St,San Francisco,CA,94114,1807000,3,2.0,Noe Valley,1351,1494,1953,97,1338,,Sold,,,http://www.redfin.com/CA/San-Francisco/4030-22nd-St-94114/home/1239029,San Francisco MLS,461187,N,Y,37.7544723,-122.4371756
PAST SALE,August-22-2017,Single Family Residential,3933 22nd St,San Francisco,CA,94114,1550000,4,2.0,Noe Valley,,2848,1908,161,,,Sold,,,http://www.redfin.com/CA/San-Francisco/3933-22nd-St-94114/home/2034060,San Francisco MLS,460439,N,Y,37.7541594,-122.4350987
PAST SALE,October-27-2017,Condo/Co-op,415 Eureka St #2,San Francisco,CA,94114,1730000,2,2.0,Eureka Valley/Dolore,1460,,2001,95,1185,350,Sold,,,http://www.redfin.com/CA/San-Francisco/415-Eureka-St-94114/unit-2/home/1729767,San Francisco MLS,461403,N,Y,37.755623,-122.4375265
PAST SALE,August-31-2017,Single Family Residential,131 Laidley St,San Francisco,CA,94131,3000000,4,3.0,Glen Park,,2247,1929,152,,,Sold,,,http://www.redfin.com/CA/San-Francisco/131-Laidley-St-94131/home/996495,San Francisco MLS,456857,N,Y,37.7398182,-122.42938
PAST SALE,August-15-2017,Single Family Residential,161 Randall St,San Francisco,CA,94131,2152000,3,2.0,Glen Park,,3125,1908,168,,,Sold,,,http://www.redfin.com/CA/San-Francisco/161-Randall-St-94131/home/806381,San Francisco MLS,459934,N,Y,37.739472,-122.426932
PAST SALE,,Single Family Residential,42 Harper St,San Francisco,CA,94131,750000,,1.0,,1475,3508,1900,,508,,,,,http://www.redfin.com/CA/San-Francisco/42-Harper-St-94131/home/1233166,,,N,Y,37.7410529,-122.4301329
PAST SALE,August-11-2017,Single Family Residential,228 Day St,San Francisco,CA,94131,2400000,3,2.5,Noe Valley,2370,1875,1895,172,1013,,Sold,,,http://www.redfin.com/CA/San-Francisco/228-Day-St-94131/home/1631936,San Francisco MLS,460590,N,Y,37.7430311,-122.4274028
PAST SALE,,Multi-Family (5+ Unit),1630 Sanchez St,San Francisco,CA,94131,1200000,,6.0,,4242,1636,1912,,283,,,,,http://www.redfin.com/CA/San-Francisco/1630-Sanchez-St-94131/home/810026,,,N,Y,37.7430393,-122.4290087
PAST SALE,,Multi-Family (2-4 Unit),305 Bocana St,San Francisco,CA,94110,975000,,3.0,,2748,2352,1906,,355,,,,,http://www.redfin.com/CA/San-Francisco/305-Bocana-St-94110/home/1727369,,,N,Y,37.738996,-122.418496
PAST SALE,September-1-2017,Single Family Residential,412 Anderson St,San Francisco,CA,94110,1600000,2,1.0,Bernal Heights,1006,1751,1907,151,1590,,Sold,,,http://www.redfin.com/CA/San-Francisco/412-Anderson-St-94110/home/975005,San Francisco MLS,460991,N,Y,37.7382154,-122.4154322
PAST SALE,August-8-2017,Single Family Residential,84 Anderson St,San Francisco,CA,94110,1605000,2,1.0,Bernal Heights,,1750,1915,175,,,Sold,,,http://www.redfin.com/CA/San-Francisco/84-Anderson-St-94110/home/1336088,San Francisco MLS,459838,N,Y,37.7418418,-122.4152232
PAST SALE,,Vacant Land,336 Bradford St,San Francisco,CA,94110,355000,,,,,1751,,,,,,,,http://www.redfin.com/CA/San-Francisco/336-Bradford-St-94110/home/110063904,,,N,Y,37.7376054,-122.4098588
PAST SALE,November-8-2017,Single Family Residential,351 Prentiss St,San Francisco,CA,94110,1750000,3,2.0,Bernal Heights,1525,1750,1956,83,1148,,Sold,,,http://www.redfin.com/CA/San-Francisco/351-Prentiss-St-94110/home/1606132,San Francisco MLS,464866,N,Y,37.7389656,-122.4119185
PAST SALE,November-13-2017,Single Family Residential,4021 Folsom St,San Francisco,CA,94110,1002000,2,1.0,Bernal Heights,960,1341,1900,78,1044,,Sold,,,http://www.redfin.com/CA/San-Francisco/4021-Folsom-St-94110/home/1362528,San Francisco MLS,463199,N,Y,37.7364158,-122.4133848
PAST SALE,,Condo/Co-op,2250 24th St Unit 122,San Francisco,CA,94107,615000,0,1.0,,456,,1989,,1349,,,,,http://www.redfin.com/CA/San-Francisco/2250-24th-St-94107/unit-122/home/737497,,,N,Y,37.7533831,-122.4021236
PAST SALE,August-4-2017,Single Family Residential,830 Rhode Island St,San Francisco,CA,94107,1475000,1,1.0,Potrero Hill,936,2500,1900,179,1576,,Sold,,,http://www.redfin.com/CA/San-Francisco/830-Rhode-Island-St-94107/home/1447340,San Francisco MLS,460305,N,Y,37.7592158,-122.4023087
PAST SALE,October-25-2017,Single Family Residential,1483 Rhode Island St,San Francisco,CA,94107,965000,2,1.0,Potrero Hill,976,2495,1927,97,989,,Sold,,,http://www.redfin.com/CA/San-Francisco/1483-Rhode-Island-St-94107/home/1862253,San Francisco MLS,462954,N,Y,37.7509529,-122.4010077
PAST SALE,November-1-2017,Single Family Residential,703 San Bruno Ave,San Francisco,CA,94107,2000000,4,2.0,Potrero Hill,2340,2495,1904,90,855,,Sold,,,http://www.redfin.com/CA/San-Francisco/703-San-Bruno-Ave-94107/home/1613510,San Francisco MLS,462800,N,Y,37.7606122,-122.4048681
PAST SALE,,Single Family Residential,2612 25th St,San Francisco,CA,94110,1750000,2,2.0,,1248,2500,1900,,1402,,,,,http://www.redfin.com/CA/San-Francisco/2612-25th-St-94110/home/1646187,,,N,Y,37.7520064,-122.4047163
PAST SALE,August-4-2017,Condo/Co-op,2415 Buchanan St #4,San Francisco,CA,94115,1250000,1,1.5,Pacific Heights,,,,179,,790,Sold,,,http://www.redfin.com/CA/San-Francisco/2415-Buchanan-St-94115/unit-4/home/113881789,San Francisco MLS,457784,N,Y,37.7922363,-122.4314014
PAST SALE,August-25-2017,Condo/Co-op,1966 Pacific Ave #302,San Francisco,CA,94109,1575000,2,2.0,Pacific Heights,1115,,1956,158,1413,600,Sold,,,http://www.redfin.com/CA/San-Francisco/1966-Pacific-Ave-94109/unit-302/home/563709,San Francisco MLS,460106,N,Y,37.794519,-122.427738
PAST SALE,August-17-2017,Condo/Co-op,2550 Gough St #1,San Francisco,CA,94123,1005000,1,1.0,Pacific Heights,1012,,1915,166,993,575,Sold,,,http://www.redfin.com/CA/San-Francisco/2550-Gough-St-94123/unit-1/home/1554607,San Francisco MLS,460677,N,Y,37.796953,-122.42675
PAST SALE,August-10-2017,Condo/Co-op,2217 Pacific Ave #4,San Francisco,CA,94115,1325000,2,1.0,Pacific Heights,1290,,1900,173,1027,541,Sold,,,http://www.redfin.com/CA/San-Francisco/2217-Pacific-Ave-94115/unit-4/home/567940,San Francisco MLS,457051,N,Y,37.793421,-122.432139
PAST SALE,September-28-2017,Condo/Co-op,1 Daniel Burnham Ct #1122,San Francisco,CA,94109,820000,1,1.0,Van Ness/Civic Center,836,,1988,124,981,650,Sold,,,http://www.redfin.com/CA/San-Francisco/1-Daniel-Burnham-Ct-94109/unit-1122/home/62172273,San Francisco MLS,461941,N,Y,37.7867744,-122.4224906
PAST SALE,September-12-2017,Single Family Residential,1994 Jackson St,San Francisco,CA,94109,9425000,5,6.5,Pacific Heights,5490,,1941,140,1717,,Sold,,,http://www.redfin.com/CA/San-Francisco/1994-Jackson-St-94109/home/1936490,San Francisco MLS,458135,N,Y,37.793533,-122.4278233
PAST SALE,September-13-2017,Condo/Co-op,1966 Pacific Ave #101,San Francisco,CA,94109,1360000,2,2.0,Pacific Heights,1115,,1956,139,1220,600,Sold,,,http://www.redfin.com/CA/San-Francisco/1966-Pacific-Ave-94109/unit-101/home/961367,San Francisco MLS,461216,N,Y,37.794519,-122.427738
PAST SALE,October-6-2017,Condo/Co-op,2253 California St,San Francisco,CA,94115,2450000,3,2.0,Pacific Heights,1846,,1911,116,1327,150,Sold,,,http://www.redfin.com/CA/San-Francisco/2253-California-St-94115/home/110028240,San Francisco MLS,462398,N,Y,37.7890029,-122.4313701
PAST SALE,September-19-2017,Condo/Co-op,1940 Vallejo St #11,San Francisco,CA,94123,7250000,3,3.5,Pacific Heights,3200,,1927,133,2266,1800,Sold,,,http://www.redfin.com/CA/San-Francisco/1940-Vallejo-St-94123/unit-11/home/12400519,San Francisco MLS,460166,N,Y,37.7962748,-122.4294055
PAST SALE,September-18-2017,Condo/Co-op,1450 Post St #511,San Francisco,CA,94109,395000,1,1.0,Lower Pacific Height,740,,1992,134,534,4560,Sold,,,http://www.redfin.com/CA/San-Francisco/1450-Post-St-94109/unit-511/home/572667,San Francisco MLS,457405,N,Y,37.7863606,-122.4258197
PAST SALE,October-3-2017,Condo/Co-op,1859 Vallejo St #1,San Francisco,CA,94123,1275000,2,2.0,Pacific Heights,1557,,1909,119,819,538,Sold,,,http://www.redfin.com/CA/San-Francisco/1859-Vallejo-St-94123/unit-1/home/1331328,San Francisco MLS,462240,N,Y,37.7959296,-122.4278583
PAST SALE,October-2-2017,Condo/Co-op,1880 Jackson St #304,San Francisco,CA,94109,2350000,2,2.0,Pacific Heights,1814,,1930,120,1295,754,Sold,,,http://www.redfin.com/CA/San-Francisco/1880-Jackson-St-94109/unit-304/home/1699422,San Francisco MLS,461831,N,Y,37.7938128,-122.4261502
PAST SALE,,Condo/Co-op,1870 Jackson St Apt 201,San Francisco,CA,94109,1437500,1,1.0,,1270,,1931,,1132,,,,,http://www.redfin.com/CA/San-Francisco/1870-Jackson-St-94109/unit-201/home/566338,,,N,Y,37.7938453,-122.4258578
PAST SALE,August-31-2017,Condo/Co-op,2121 Webster St #603,San Francisco,CA,94115,2995000,2,2.0,Pacific Heights,1360,,2016,152,2202,1123,Sold,,,http://www.redfin.com/CA/San-Francisco/2121-Webster-St-94115/unit-603/home/113689128,San Francisco MLS,460260,N,Y,37.7902213,-122.4329717
PAST SALE,October-10-2017,Condo/Co-op,1388 Gough St #606,San Francisco,CA,94109,1230000,2,2.0,Van Ness/Civic Center,1290,,1993,112,953,1224,Sold,,,http://www.redfin.com/CA/San-Francisco/1388-Gough-St-94109/unit-606/home/574227,San Francisco MLS,462395,N,Y,37.7857937,-122.4246689
PAST SALE,October-10-2017,Condo/Co-op,66 Cleary Ct #904,San Francisco,CA,94109,980000,2,2.0,Western Addition,1106,,1963,112,886,850,Sold,,,http://www.redfin.com/CA/San-Francisco/66-Cleary-Ct-94109/unit-904/home/575167,San Francisco MLS,460986,N,Y,37.7842505,-122.4271638
PAST SALE,December-1-2017,Condo/Co-op,2121 Laguna St #6,San Francisco,CA,94115,1300000,2,2.0,Pacific Heights,,,1960,60,,825,Sold,,,http://www.redfin.com/CA/San-Francisco/2121-Laguna-St-94115/unit-6/home/22044245,San Francisco MLS,464479,N,Y,37.7909547,-122.4294938
PAST SALE,,Multi-Family (5+ Unit),1450 Green St Apt 5,San Francisco,CA,94109,1188000,,9.0,,13444,4375,1927,,88,,,,,http://www.redfin.com/CA/San-Francisco/1450-Green-St-94109/unit-5/home/930352,,,N,Y,37.797981,-122.423061
PAST SALE,December-6-2017,Multi-Family (5+ Unit),2263-2269 Sacramento St,San Francisco,CA,94115,4869200,,,Pacific Heights,9880,7444,1900,55,493,,Sold,,,http://www.redfin.com/CA/San-Francisco/2269-Sacramento-St-94115/home/144441882,San Francisco MLS,465413,N,Y,37.7902876,-122.4305259
PAST SALE,October-20-2017,Condo/Co-op,2230 Pacific Ave #201,San Francisco,CA,94115,850000,1,1.0,Pacific Heights,730,,1949,102,1164,500,Sold,,,http://www.redfin.com/CA/San-Francisco/2230-Pacific-Ave-94115/unit-201/home/1953088,San Francisco MLS,463072,N,Y,37.7939697,-122.4321341
PAST SALE,November-9-2017,Single Family Residential,1334 Eddy St,San Francisco,CA,94115,1250000,3,2.0,Western Addition,1900,977,2007,82,658,,Sold,,,http://www.redfin.com/CA/San-Francisco/1332-1338-Eddy-St-94115/home/17306622,San Francisco MLS,462542,N,Y,37.7819646,-122.4297428
PAST SALE,January-5-2018,Condo/Co-op,1545 Buchanan St #3,SAN FRANCISCO,CA,94115,675000,3,2.0,SAN FRANCISCO,1050,127539,1964,25,643,998,Sold,,,http://www.redfin.com/CA/San-Francisco/1545-Buchanan-St-94115/unit-3/home/12401234,MLSListings,ML81684342,N,Y,37.78419,-122.4298039
PAST SALE,January-5-2018,Condo/Co-op,1940 Vallejo St #4,San Francisco,CA,94123,4700000,3,3.5,Pacific Heights,,,1927,25,,1691,Sold,,,http://www.redfin.com/CA/San-Francisco/1940-Vallejo-St-94123/unit-4/home/12400240,San Francisco MLS,463694,N,Y,37.7962748,-122.4294055
PAST SALE,December-5-2017,Single Family Residential,1908 Broadway,San Francisco,CA,94109,3500000,2,3.5,Pacific Heights,3343,2748,1900,56,1047,,Sold,,,http://www.redfin.com/CA/San-Francisco/1908-Broadway-94109/home/1243839,San Francisco MLS,463713,N,Y,37.7953059,-122.428808
PAST SALE,January-16-2018,Condo/Co-op,66 Cleary Ct #606,San Francisco,CA,94109,1100000,3,2.0,Western Addition,1099,,1963,14,1001,850,Sold,,,http://www.redfin.com/CA/San-Francisco/66-Cleary-Ct-94109/unit-606/home/961754,San Francisco MLS,462382,N,Y,37.7842505,-122.4271638
PAST SALE,January-22-2018,Condo/Co-op,2121 Laguna St #36,San Francisco,CA,94115,1015000,2,2.0,Pacific Heights,,,,8,,881,Sold,,,http://www.redfin.com/CA/San-Francisco/2121-Laguna-St-94115/unit-36/home/1963589,San Francisco MLS,463612,N,Y,37.7909547,-122.4294938
PAST SALE,December-29-2017,Condo/Co-op,2255 Clay St,San Francisco,CA,94115,3100000,3,3.0,Pacific Heights,2635,,1935,32,1176,450,Sold,,,http://www.redfin.com/CA/San-Francisco/2255-Clay-St-94115/home/1825315,San Francisco MLS,454730,N,Y,37.7909549,-122.430141
PAST SALE,September-22-2017,Condo/Co-op,1201 California #105,San Francisco,CA,94109,925000,1,1.0,Nob Hill,830,,1927,130,1114,973,Sold,,,http://www.redfin.com/CA/San-Francisco/1201-California-St-94109/unit-105/home/12400932,San Francisco MLS,458946,N,Y,37.791077,-122.414339
PAST SALE,October-3-2017,Single Family Residential,1230 Pacific Ave,San Francisco,CA,94109,2965000,4,4.5,Nob Hill,3027,,,119,980,,Sold,,,http://www.redfin.com/CA/San-Francisco/1230-Pacific-Ave-94109/home/114066412,San Francisco MLS,462155,N,Y,37.795959,-122.415574
PAST SALE,,Condo/Co-op,1001 Pine St Unit 602,San Francisco,CA,94109,920000,0,1.0,,815,,1963,,1129,,,,,http://www.redfin.com/CA/San-Francisco/1001-Pine-St-94109/unit-602/home/1304561,,,N,Y,37.790348,-122.412568
PAST SALE,September-29-2017,Condo/Co-op,1333 Jones St #1501,San Francisco,CA,94109,2800000,2,2.0,Nob Hill,,,1960,123,,2079,Sold,,,http://www.redfin.com/CA/San-Francisco/1333-Jones-St-94109/unit-1501/home/12400647,San Francisco MLS,458697,N,Y,37.793651,-122.4148841
PAST SALE,,Condo/Co-op,1282 Sacramento St,San Francisco,CA,94108,1368000,,,,1742,,1909,,785,,,,,http://www.redfin.com/CA/San-Francisco/1282-Sacramento-St-94108/home/849641,,,N,Y,37.7925423,-122.4139813
PAST SALE,October-16-2017,Condo/Co-op,1155 Leavenworth St #9,San Francisco,CA,94109,449000,0,1.0,Nob Hill,330,,1911,106,1361,290,Sold,,,http://www.redfin.com/CA/San-Francisco/1155-Leavenworth-St-94109/unit-9/home/12136075,San Francisco MLS,461976,N,Y,37.7919701,-122.4161504
PAST SALE,October-20-2017,Condo/Co-op,999 Green St #1801,San Francisco,CA,94133,1950000,2,2.0,Russian Hill,1411,,1964,102,1382,1645,Sold,,,http://www.redfin.com/CA/San-Francisco/999-Green-St-94133/unit-1801/home/950192,San Francisco MLS,462049,N,Y,37.798447,-122.415218
PAST SALE,August-15-2017,Condo/Co-op,1177 California St #824,San Francisco,CA,94108,2100000,2,2.0,Nob Hill,,,1978,168,,1420,Sold,,,http://www.redfin.com/CA/San-Francisco/1177-California-St-94108/unit-824/home/1601480,San Francisco MLS,460755,N,Y,37.7909769,-122.4136606
PAST SALE,October-31-2017,Condo/Co-op,25 Joice St,San Francisco,CA,94108,1020000,2,2.0,Downtown,1100,,1911,91,927,513,Sold,,,http://www.redfin.com/CA/San-Francisco/25-Joice-St-94108/home/551031,San Francisco MLS,462979,N,Y,37.7915439,-122.4084002
PAST SALE,October-20-2017,Multi-Family (5+ Unit),1201 Powell St,San Francisco,CA,94133,4300000,3,,Nob Hill,7300,2138,1912,102,589,,Sold,,,http://www.redfin.com/CA/San-Francisco/1201-Powell-St-94133/home/1876577,San Francisco MLS,459129,N,Y,37.7957206,-122.410141
PAST SALE,December-27-2017,Condo/Co-op,1333 Jones St #910,San Francisco,CA,94109,2750000,2,2.0,Nob Hill,,,1960,34,,1878,Sold,,,http://www.redfin.com/CA/San-Francisco/1333-Jones-St-94109/unit-910/home/12400412,San Francisco MLS,460230,N,Y,37.793651,-122.4148841
PAST SALE,December-29-2017,Condo/Co-op,1234 Washington St,San Francisco,CA,94108,1065000,2,1.0,Nob Hill,1071,,1913,32,994,1065,Sold,,,http://www.redfin.com/CA/San-Francisco/1234-Washington-St-94108/home/546431,San Francisco MLS,464312,N,Y,37.7944148,-122.4137046
PAST SALE,,Condo/Co-op,1170 Sacramento St Apt 9D,San Francisco,CA,94108,4350000,,5.0,,2780,,1963,,1565,,,,,http://www.redfin.com/CA/San-Francisco/1170-Sacramento-St-94108/unit-9D/home/1078100,,,N,Y,37.7929129,-122.4122042
PAST SALE,December-13-2017,Condo/Co-op,1177 California St #1212,San Francisco,CA,94108,1100000,1,1.0,Nob Hill,1056,,1971,48,1042,1092,Sold,,,http://www.redfin.com/CA/San-Francisco/1177-California-St-94108/unit-1212/home/547971,San Francisco MLS,462519,N,Y,37.7909769,-122.4136606
PAST SALE,December-15-2017,Condo/Co-op,1100 Sacramento St #404,San Francisco,CA,94108,2725000,2,2.5,Nob Hill,2050,,1925,46,1329,2084,Sold,,,http://www.redfin.com/CA/San-Francisco/1100-Sacramento-St-94108/unit-404/home/548149,San Francisco MLS,462152,N,Y,37.7929557,-122.4114061
PAST SALE,December-7-2017,Condo/Co-op,1145 Pine St #32,San Francisco,CA,94109,655000,1,1.0,Downtown,600,,1912,54,1092,497,Sold,,,http://www.redfin.com/CA/San-Francisco/1145-Pine-St-94109/unit-32/home/1144878,San Francisco MLS,463972,N,Y,37.7901006,-122.4147846
PAST SALE,January-19-2018,Condo/Co-op,1100 Sacramento #204,San Francisco,CA,94108,2725000,3,3.0,Nob Hill,2224,,,11,1225,2256,Sold,,,http://www.redfin.com/CA/San-Francisco/1100-Sacramento-St-94108/unit-204/home/143852491,San Francisco MLS,462276,N,Y,37.7929557,-122.4114061
PAST SALE,January-19-2018,Condo/Co-op,850 Powell St #101,San Francisco,CA,94108,995000,2,1.0,Nob Hill,1063,,1923,11,936,1031,Sold,,,http://www.redfin.com/CA/San-Francisco/850-Powell-St-94108/unit-101/home/550342,San Francisco MLS,462090,N,Y,37.7928636,-122.4089673
PAST SALE,January-24-2018,Condo/Co-op,1200 California Unit 4d,San Francisco,CA,94109,2250000,2,2.0,Nob Hill,1800,,1962,6,1250,2200,Sold,,,http://www.redfin.com/CA/San-Francisco/1200-California-St-94109/unit-4D/home/12400650,San Francisco MLS,463710,N,Y,37.7916559,-122.4145259
PAST SALE,January-26-2018,Condo/Co-op,1333 Jones St #510,San Francisco,CA,94109,1875000,3,2.0,Nob Hill,2318,,1961,4,809,1685,Sold,,,http://www.redfin.com/CA/San-Francisco/1333-Jones-St-94109/unit-510/home/12400692,San Francisco MLS,461936,N,Y,37.793651,-122.4148841
PAST SALE,,Condo/Co-op,1145 Pine St Apt 46,San Francisco,CA,94109,647000,0,1.0,,600,,1912,,1078,,,,,http://www.redfin.com/CA/San-Francisco/1145-Pine-St-94109/unit-46/home/1312331,,,N,Y,37.7901006,-122.4147846
PAST SALE,August-15-2017,Condo/Co-op,2105 Ellis St,San Francisco,CA,94115,863000,2,1.0,Anza Vista,1200,,1924,168,719,400,Sold,,,http://www.redfin.com/CA/San-Francisco/2105-Ellis-St-94115/home/142991932,San Francisco MLS,460705,N,Y,37.7812649,-122.4411049
PAST SALE,August-31-2017,Condo/Co-op,620-622 Baker St #3,San Francisco,CA,94117,1075000,2,1.5,North Panhandle,,,1900,152,,336,Sold,,,http://www.redfin.com/CA/San-Francisco/622-Baker-St-94117/unit-3/home/123541386,San Francisco MLS,459338,N,Y,37.776915,-122.4412447
PAST SALE,,Multi-Family (5+ Unit),620 Baker St Apt 3,San Francisco,CA,94117,1075000,,6.0,,4090,2387,1900,,263,,,,,http://www.redfin.com/CA/San-Francisco/620-Baker-St-94117/unit-3/home/1443939,,,N,Y,37.776913,-122.44124
PAST SALE,,Multi-Family (5+ Unit),930 Scott St Apt 6,San Francisco,CA,94115,1025000,,6.0,,6942,3271,1927,,148,,,,,http://www.redfin.com/CA/San-Francisco/930-Scott-St-94115/unit-6/home/578956,,,N,Y,37.778459,-122.4365068
PAST SALE,,Single Family Residential,2485 Post St,San Francisco,CA,94115,750000,,1.0,,1163,2186,1900,,645,,,,,http://www.redfin.com/CA/San-Francisco/2485-Post-St-94115/home/593161,,,N,Y,37.7837764,-122.4426578
PAST SALE,September-14-2017,Condo/Co-op,856 Baker St,San Francisco,CA,94115,2310000,4,2.0,North Panhandle,2748,,1907,138,841,490,Sold,,,http://www.redfin.com/CA/San-Francisco/856-Baker-St-94115/home/12277068,San Francisco MLS,459544,N,Y,37.77908,-122.441673
PAST SALE,October-12-2017,Condo/Co-op,1862 Ellis St Unit C,San Francisco,CA,94115,726000,2,1.0,Western Addition,816,,1986,110,890,499,Sold,,,http://www.redfin.com/CA/San-Francisco/1862-Ellis-St-94115/unit-C/home/114066907,San Francisco MLS,461012,N,Y,37.78223,-122.43689
PAST SALE,October-18-2017,Condo/Co-op,1826 Eddy St #101,San Francisco,CA,94115,1005000,2,2.0,Western Addition,920,,2000,104,1092,351,Sold,,,http://www.redfin.com/CA/San-Francisco/1826-Eddy-St-94115/unit-101/home/1810296,San Francisco MLS,462632,N,Y,37.780947,-122.438346
PAST SALE,November-17-2017,Single Family Residential,809 Scott St,San Francisco,CA,94117,3600000,4,3.5,Alamo Square,4274,3998,1888,74,842,,Sold,,,http://www.redfin.com/CA/San-Francisco/809-Scott-St-94117/home/595785,San Francisco MLS,463186,N,Y,37.777373,-122.4368063
PAST SALE,November-30-2017,Condo/Co-op,2079 Golden Gate Ave,San Francisco,CA,94117,1200000,2,2.0,North Panhandle,1665,,1900,61,721,350,Sold,,,http://www.redfin.com/CA/San-Francisco/2079-Golden-Gate-Ave-94115/home/110051762,San Francisco MLS,463346,N,Y,37.7777339,-122.4447062
PAST SALE,January-26-2018,Condo/Co-op,2420 Geary Blvd Unit C,San Francisco,CA,94115,1400000,2,2.0,Lower Pacific Height,1484,,1981,4,943,400,Sold,,,http://www.redfin.com/CA/San-Francisco/2420-Geary-Blvd-94115/unit-C/home/11743046,San Francisco MLS,465836,N,Y,37.783144,-122.443324
PAST SALE,December-13-2017,Condo/Co-op,82 Garden St,San Francisco,CA,94115,1090000,2,2.0,Lower Pacific Height,1179,,2002,48,925,305,Sold,,,http://www.redfin.com/CA/San-Francisco/82-Garden-St-94115/home/12398980,San Francisco MLS,464200,N,Y,37.7837616,-122.4410604
PAST SALE,December-22-2017,Condo/Co-op,2420 Geary Blvd Unit A,San Francisco,CA,94115,775000,1,1.0,Lower Pacific Height,736,,1981,39,1053,200,Sold,,,http://www.redfin.com/CA/San-Francisco/2420-Geary-Blvd-94115/unit-A/home/11743044,San Francisco MLS,464845,N,Y,37.783144,-122.443324
PAST SALE,September-1-2017,Multi-Family (2-4 Unit),4127 4129A Anza St,San Francisco,CA,94121,1125000,4,,Outer Richmond,3564,2495,1926,151,316,,Sold,,,http://www.redfin.com/CA/San-Francisco/4129A-Anza-St-94121/home/616651,San Francisco MLS,456996,N,Y,37.777578,-122.4926984
PAST SALE,August-10-2017,Multi-Family (2-4 Unit),522-524 34th Ave,San Francisco,CA,94121,1500100,6,3.0,Outer Richmond,2920,2996,1924,173,514,,Sold,,,http://www.redfin.com/CA/San-Francisco/524-34th-Ave-94121/home/1709224,San Francisco MLS,458717,N,Y,37.7791152,-122.4940995
PAST SALE,August-25-2017,Multi-Family (2-4 Unit),618-620 30th Ave,San Francisco,CA,94121,1410000,7,4.0,Central Richmond,2960,2260,1928,158,476,,Sold,,,http://www.redfin.com/CA/San-Francisco/620-30th-Ave-94121/home/616601,San Francisco MLS,459960,N,Y,37.777513,-122.489604
PAST SALE,October-18-2017,Multi-Family (5+ Unit),6201-6209 Geary Blvd,SAN FRANCISCO,CA,94121,2750000,1,,SAN FRANCISCO,8750,3840,1923,104,314,,Sold,,,http://www.redfin.com/CA/San-Francisco/6209-Geary-Blvd-94121/home/113733882,MLSListings,ML81647212,N,Y,37.7797546,-122.486203
PAST SALE,,Multi-Family (2-4 Unit),457 23rd Ave,San Francisco,CA,94121,1350000,6,3.0,,2770,3000,1924,,487,,,,,http://www.redfin.com/CA/San-Francisco/457-23rd-Ave-94121/home/2021212,,,N,Y,37.7790903,-122.4827878
PAST SALE,November-15-2017,Single Family Residential,6427 Geary Blvd,San Francisco,CA,94121,1200000,2,1.0,Central Richmond,1500,2495,1921,76,800,,Sold,,,http://www.redfin.com/CA/San-Francisco/6427-Geary-Blvd-94121/home/144185949,San Francisco MLS,463873,N,Y,37.7796763,-122.4884741
PAST SALE,,Multi-Family (5+ Unit),6201 Geary Blvd #6209,San Francisco,CA,94121,2750000,,5.0,,8750,3485,1923,,314,,,,,http://www.redfin.com/CA/San-Francisco/6201-Geary-Blvd-94121/unit-6209/home/962709,,,N,Y,37.7797493,-122.4859984
PAST SALE,,Multi-Family (5+ Unit),652 25th Ave,San Francisco,CA,94121,1250000,,4.0,,3802,2996,1960,,329,,,,,http://www.redfin.com/CA/San-Francisco/652-25th-Ave-94121/home/1540267,,,N,Y,37.7771925,-122.4842375
PAST SALE,December-14-2017,Condo/Co-op,5640 Fulton St,San Francisco,CA,94121,890000,2,1.0,Outer Richmond,951,,1936,47,936,150,Sold,,,http://www.redfin.com/CA/San-Francisco/5640-Fulton-St-94121/home/110028568,San Francisco MLS,464108,N,Y,37.772345,-122.492401
PAST SALE,,Single Family Residential,6429 Geary Blvd,San Francisco,CA,94121,1200000,,2.0,,1500,2495,1921,,800,,,,,http://www.redfin.com/CA/San-Francisco/6429-Geary-Blvd-94121/home/1799174,,,N,Y,37.779612,-122.488458
PAST SALE,November-14-2017,Single Family Residential,6529 California St,San Francisco,CA,94121,1200000,2,1.0,Sea Cliff,1158,2495,1907,77,1036,,Sold,,,http://www.redfin.com/CA/San-Francisco/6529-California-St-94121/home/1984574,San Francisco MLS,464096,N,Y,37.783568,-122.4878652
PAST SALE,January-16-2018,Multi-Family (2-4 Unit),358-360 29th Ave,San Francisco,CA,94121,2424000,4,4.0,Central Richmond,3318,2979,1923,14,731,,Sold,,,http://www.redfin.com/CA/San-Francisco/360-29th-Ave-94121/home/1788970,San Francisco MLS,465582,N,Y,37.7825954,-122.4890579
PAST SALE,December-28-2017,Condo/Co-op,6509 Geary Blvd #204,SAN FRANCISCO,CA,94121,750000,2,1.0,SAN FRANCISCO,763,5100,1981,33,983,329,Sold,,,http://www.redfin.com/CA/San-Francisco/6509-Geary-Blvd-94121/unit-204/home/612278,MLSListings,ML81681732,N,Y,37.7796247,-122.4892544
PAST SALE,,Multi-Family (5+ Unit),340 25th Ave,San Francisco,CA,94121,975500,6,4.0,,3242,3000,1984,,301,,,,,http://www.redfin.com/CA/San-Francisco/340-25th-Ave-94121/home/1780767,,,N,Y,37.783138,-122.484629
PAST SALE,August-24-2017,Single Family Residential,327 Park St,San Francisco,CA,94110,1230000,3,1.0,Bernal Heights,1050,2500,1907,159,1171,,Sold,,,http://www.redfin.com/CA/San-Francisco/327-Park-St-94110/home/1075035,San Francisco MLS,460998,N,Y,37.736624,-122.418411
PAST SALE,September-20-2017,Single Family Residential,372 Richland Ave,San Francisco,CA,94110,2800000,5,4.5,Bernal Heights,3200,2495,,132,875,,Sold,,,http://www.redfin.com/CA/San-Francisco/372-Richland-Ave-94110/home/1379206,San Francisco MLS,460081,N,Y,37.7355329,-122.4177317
PAST SALE,October-2-2017,Single Family Residential,401 Gates St,San Francisco,CA,94110,1710000,3,3.0,Bernal Heights,1751,1096,1909,120,977,,Sold,,,http://www.redfin.com/CA/San-Francisco/401-Gates-St-94110/home/956677,San Francisco MLS,461331,N,Y,37.7382489,-122.4138782
PAST SALE,November-13-2017,Single Family Residential,515 Gates St,San Francisco,CA,94110,1100000,2,2.0,Bernal Heights,950,1750,1905,78,1158,,Sold,,,http://www.redfin.com/CA/San-Francisco/515-Gates-St-94110/home/2025024,San Francisco MLS,462929,N,Y,37.7367198,-122.4139721
PAST SALE,December-15-2017,Single Family Residential,4121 Folsom St,San Francisco,CA,94110,1325000,3,2.0,Bernal Heights,1370,1751,1947,46,967,,Sold,,,http://www.redfin.com/CA/San-Francisco/4121-Folsom-St-94110/home/763604,San Francisco MLS,465155,N,Y,37.7355797,-122.413472
PAST SALE,December-14-2017,Single Family Residential,2 Agnon Ave,San Francisco,CA,94112,1530000,2,3.0,Bernal Heights,1270,2247,1942,47,1205,,Sold,,,http://www.redfin.com/CA/San-Francisco/2-Agnon-Ave-94112/home/767214,San Francisco MLS,464168,N,Y,37.7350466,-122.422305
PAST SALE,January-9-2018,Single Family Residential,478 Anderson St,San Francisco,CA,94110,2200000,4,4.0,Bernal Heights,2000,1751,1914,21,1100,,Sold,,,http://www.redfin.com/CA/San-Francisco/478-Anderson-St-94110/home/765195,San Francisco MLS,465356,N,Y,37.7374501,-122.4155007
PAST SALE,December-8-2017,Single Family Residential,601 Anderson St,San Francisco,CA,94110,1350000,2,1.0,Bernal Heights,,1750,1908,53,,,Sold,,,http://www.redfin.com/CA/San-Francisco/601-Anderson-St-94110/home/1807478,San Francisco MLS,464662,N,Y,37.7359082,-122.4153492
PAST SALE,January-24-2018,Single Family Residential,22 Newman St,San Francisco,CA,94110,2060000,4,5.0,Bernal Heights,2100,2495,1900,6,981,,Sold,,,http://www.redfin.com/CA/San-Francisco/22-Newman-St-94110/home/2001243,San Francisco MLS,464223,N,Y,37.7376967,-122.4183493
PAST SALE,December-22-2017,Single Family Residential,155 Newman St,San Francisco,CA,94110,2210000,4,2.5,Bernal Heights,1891,2186,1900,39,1169,,Sold,,,http://www.redfin.com/CA/San-Francisco/155-Newman-St-94110/home/765256,San Francisco MLS,464244,N,Y,37.7378915,-122.4170672
PAST SALE,,Condo/Co-op,301 Mission St Apt 37E,San Francisco,CA,94105,2000000,2,2.0,,1714,,2009,,1167,,,,,http://www.redfin.com/CA/San-Francisco/301-Mission-St-94105/unit-37E/home/40142585,,,N,Y,37.7903824,-122.3961531
PAST SALE,September-8-2017,Condo/Co-op,199 New Montgomery St #1309,San Francisco,CA,94105,940000,1,1.0,Yerba Buena,,,2004,144,,503,Sold,,,http://www.redfin.com/CA/San-Francisco/199-New-Montgomery-St-94105/unit-1309/home/12401421,San Francisco MLS,461504,N,Y,37.7866011,-122.3991105
PAST SALE,,Condo/Co-op,301 Mission St Apt 24D,San Francisco,CA,94105,875000,1,1.0,,789,,2009,,1109,,,,,http://www.redfin.com/CA/San-Francisco/301-Mission-St-94105/unit-24D/home/40138780,,,N,Y,37.7903824,-122.3961531
PAST SALE,October-27-2017,Condo/Co-op,16 Jessie St #303,San Francisco,CA,94105,1600000,2,2.0,Yerba Buena,,,1906,95,,610,Sold,,,http://www.redfin.com/CA/San-Francisco/16-Jessie-St-94105/unit-303/home/40138274,San Francisco MLS,461418,N,Y,37.7899349,-122.398961
PAST SALE,November-15-2017,Condo/Co-op,246 2nd St #1006,San Francisco,CA,94105,1182500,2,2.0,Yerba Buena,1101,,2000,76,1074,629,Sold,,,http://www.redfin.com/CA/San-Francisco/246-2nd-St-94105/unit-1006/home/851001,San Francisco MLS,462172,N,Y,37.7857744,-122.3973657
PAST SALE,August-10-2017,Single Family Residential,526 Castenada Ave,San Francisco,CA,94116,1190000,2,1.5,Forest Hill,,,1948,173,,,Sold,,,http://www.redfin.com/CA/San-Francisco/526-Castenada-Ave-94116/home/1813248,San Francisco MLS,458245,N,Y,37.7460001,-122.4675411
PAST SALE,October-16-2017,Single Family Residential,55 Wawona St,San Francisco,CA,94127,1857375,2,2.0,West Portal,1934,3981,1925,106,960,,Sold,,,http://www.redfin.com/CA/San-Francisco/55-Wawona-St-94127/home/1782768,San Francisco MLS,461817,N,Y,37.7422813,-122.4660765
PAST SALE,September-12-2017,Single Family Residential,2253 9th Ave,San Francisco,CA,94116,1950000,4,3.0,Forest Hill,2580,5158,1976,140,756,,Sold,,,http://www.redfin.com/CA/San-Francisco/2253-9th-Ave-94116/home/1429066,San Francisco MLS,461237,N,Y,37.7476131,-122.4663595
PAST SALE,August-15-2017,Single Family Residential,915-917 Unit Haight St,San Francisco,CA,94117,1988500,6,2.0,San Francisco,2748,2748,1900,168,724,,Sold,,,http://www.redfin.com/CA/San-Francisco/1600-Holloway-Ave-94132/unit-Haight-St/home/121662960,EBRD/CCAR/Bay East,40785284,N,Y,37.7214966,-122.479805
PAST SALE,,Single Family Residential,313 Summit Way,San Francisco,CA,94132,1715500,3,2.0,,2001,1505,,,857,,,,,http://www.redfin.com/CA/San-Francisco/313-Summit-Way-94132/home/110051766,,,N,Y,37.7147316,-122.4749748
PAST SALE,,Single Family Residential,16 Summit Way,San Francisco,CA,94132,1450500,3,2.0,,1625,1277,,,893,,,,,http://www.redfin.com/CA/San-Francisco/16-Summit-Way-94132/home/110052118,,,N,Y,37.7144774,-122.4744588
PAST SALE,November-8-2017,Condo/Co-op,208 N Lake Merced Hls Unit 1F,San Francisco,CA,94132,855000,3,2.0,Lake Shore,1474,,1975,83,580,856,Sold,,,http://www.redfin.com/CA/San-Francisco/208-N-Lake-Merced-Hls-94132/unit-1F/home/1640403,San Francisco MLS,462865,N,Y,37.713405,-122.4833831
PAST SALE,November-9-2017,Single Family Residential,2106 Divisadero St,San Francisco,CA,94115,2025000,2,1.0,Pacific Heights,1400,2029,1900,82,1446,,Sold,,,http://www.redfin.com/CA/San-Francisco/2106-Divisadero-St-94115/home/1716520,San Francisco MLS,462949,N,Y,37.7893721,-122.4405047
PAST SALE,November-15-2017,Condo/Co-op,355 1st St Unit S2305,San Francisco,CA,94105,1710000,2,2.0,South Beach,1315,,2004,76,1300,847,Sold,,,http://www.redfin.com/CA/San-Francisco/355-1st-St-94105/unit-S2305/home/1242681,San Francisco MLS,462709,N,Y,37.7868797,-122.3934879
PAST SALE,November-13-2017,Single Family Residential,1352 Alemany Blvd,San Francisco,CA,94112,790000,1,2.0,Mission Terrace,1066,1080,1939,78,741,,Sold,,,http://www.redfin.com/CA/San-Francisco/1352-Alemany-Blvd-94112/home/1346072,San Francisco MLS,463143,N,Y,37.7300268,-122.43342
PAST SALE,October-20-2017,Single Family Residential,350 Joost Ave,San Francisco,CA,94131,1100000,2,1.0,Sunnyside,900,2500,1921,102,1222,,Sold,,,http://www.redfin.com/CA/San-Francisco/350-Joost-Ave-94131/home/1944109,San Francisco MLS,462721,N,Y,37.732585,-122.443212
PAST SALE,November-1-2017,Single Family Residential,225 Edna St,San Francisco,CA,94112,1070000,3,2.0,Sunnyside,1652,2500,1939,90,648,,Sold,,,http://www.redfin.com/CA/San-Francisco/225-Edna-St-94112/home/1014577,San Francisco MLS,462237,N,Y,37.7286918,-122.446737
PAST SALE,January-3-2018,Single Family Residential,70 Tingley,San Francisco,CA,94112,1600000,4,3.5,Mission Terrace,2000,2308,1927,27,800,,Sold,,,http://www.redfin.com/CA/San-Francisco/70-Tingley-St-94112/home/812622,San Francisco MLS,465733,N,Y,37.729133,-122.433171
PAST SALE,January-24-2018,Single Family Residential,8 Arco Way,San Francisco,CA,94112,950000,2,1.0,Mission Terrace,1182,1875,1941,6,804,,Sold,,,http://www.redfin.com/CA/San-Francisco/8-Arco-Way-94112/home/697692,San Francisco MLS,464980,N,Y,37.727441,-122.443723
PAST SALE,September-21-2017,Single Family Residential,62 Santa Ysabel Ave,San Francisco,CA,94112,1240000,2,1.0,Mission Terrace,,3123,1921,131,,,Sold,,,http://www.redfin.com/CA/San-Francisco/62-Santa-Ysabel-Ave-94112/home/1970552,San Francisco MLS,459315,N,Y,37.7276619,-122.4391715
PAST SALE,August-11-2017,Single Family Residential,80 Santa Ysabel Ave,San Francisco,CA,94112,1120000,2,1.0,Mission Terrace,1281,3123,1921,172,874,,Sold,,,http://www.redfin.com/CA/San-Francisco/80-Santa-Ysabel-Ave-94112/home/1960571,San Francisco MLS,460024,N,Y,37.7278245,-122.4394843
PAST SALE,October-24-2017,Single Family Residential,82 Harrington St,San Francisco,CA,94112,650000,1,1.0,Mission Terrace,528,2495,1912,98,1231,,Sold,,,http://www.redfin.com/CA/San-Francisco/82-Harrington-St-94112/home/954934,San Francisco MLS,460740,N,Y,37.725975,-122.435738
PAST SALE,October-20-2017,Single Family Residential,275 London St,San Francisco,CA,94112,1415000,3,2.0,Excelsior,1795,2500,1912,102,788,,Sold,,,http://www.redfin.com/CA/San-Francisco/275-London-St-94112/home/773466,San Francisco MLS,462745,N,Y,37.7246266,-122.4335301
PAST SALE,,Single Family Residential,333 Brazil Ave,San Francisco,CA,94112,262500,,1.0,,1200,2495,1923,,219,,,,,http://www.redfin.com/CA/San-Francisco/333-Brazil-Ave-94112/home/1353571,,,N,Y,37.7234576,-122.4317872
PAST SALE,September-12-2017,Multi-Family (5+ Unit),662-668 Clay St,San Francisco,CA,94111,12250000,,,Financial District,23200,8748,1912,140,528,,Sold,,,http://www.redfin.com/CA/San-Francisco/668-Clay-St-94111/home/113055184,San Francisco MLS,454296,N,Y,37.79466,-122.4043261
PAST SALE,September-13-2017,Townhouse,101 Lombard St Unit 23W,San Francisco,CA,94111,875000,1,1.0,North Waterfront,804,,1983,139,1088,734,Sold,,,http://www.redfin.com/CA/San-Francisco/101-Lombard-St-94111/unit-23W/home/124085717,San Francisco MLS,459322,N,Y,37.8035204,-122.4043894
PAST SALE,December-15-2017,Townhouse,170 Pacific Ave #35,San Francisco,CA,94111,2198000,3,3.0,Financial District,1865,,1986,46,1179,925,Sold,,,http://www.redfin.com/CA/San-Francisco/170-Pacific-Ave-94111/unit-35/home/143077026,San Francisco MLS,460784,N,Y,37.798253,-122.399172
PAST SALE,September-21-2017,Condo/Co-op,733 Front St #701,San Francisco,CA,94111,3400000,2,2.5,Financial District,1578,,,131,2155,891,Sold,,,http://www.redfin.com/CA/San-Francisco/733-Front-St-94111/unit-701/home/21967056,San Francisco MLS,462992,N,Y,37.7980568,-122.40012
PAST SALE,,Condo/Co-op,640 Davis St Unit 6,San Francisco,CA,94111,2000000,3,4.0,,2098,,1983,,953,,,,,http://www.redfin.com/CA/San-Francisco/640-Davis-St-94111/unit-6/home/545569,,,N,Y,37.7984405,-122.3983781
PAST SALE,December-13-2017,Townhouse,550 Davis St #27,San Francisco,CA,94111,2075000,3,2.5,Financial District,2020,,1981,48,1027,1154,Sold,,,http://www.redfin.com/CA/San-Francisco/550-Davis-St-94111/unit-27/home/547533,San Francisco MLS,461194,N,Y,37.7974207,-122.3981644
PAST SALE,,Condo/Co-op,101 Lombard St #101,San Francisco,CA,94111,1450000,,2.0,,1238,,1983,,1171,,,,,http://www.redfin.com/CA/San-Francisco/101-Lombard-St-94111/unit-101/home/1458996,,,N,Y,37.8035204,-122.4043894
PAST SALE,December-20-2017,Townhouse,550 Davis St #14,San Francisco,CA,94111,2250000,3,2.5,Financial District,2020,,1981,41,1114,1242,Sold,,,http://www.redfin.com/CA/San-Francisco/550-Davis-St-94111/unit-14/home/1887588,San Francisco MLS,464890,N,Y,37.7974207,-122.3981644
PAST SALE,,Single Family Residential,114 Edinburgh St,San Francisco,CA,94112,1300000,,1.0,,1313,2500,1912,,990,,,,,http://www.redfin.com/CA/San-Francisco/114-Edinburgh-St-94112/home/1896501,,,N,Y,37.7272938,-122.4277168
PAST SALE,September-29-2017,Single Family Residential,301 Maynard St,San Francisco,CA,94112,825000,2,1.0,Excelsior,862,2121,1942,123,957,,Sold,,,http://www.redfin.com/CA/San-Francisco/301-Maynard-St-94112/home/1583669,San Francisco MLS,461054,N,Y,37.7296959,-122.423827
PAST SALE,September-26-2017,Single Family Residential,54 Stoneybrook Ave,San Francisco,CA,94112,920000,3,2.0,Excelsior,862,2356,1942,126,1067,,Sold,,,http://www.redfin.com/CA/San-Francisco/54-Stoneybrook-Ave-94112/home/1503507,San Francisco MLS,460988,N,Y,37.7300015,-122.422152
PAST SALE,,Single Family Residential,105 Edinburgh St,San Francisco,CA,94112,810000,3,2.0,,1185,2500,1906,,684,,,,,http://www.redfin.com/CA/San-Francisco/105-Edinburgh-St-94112/home/774159,,,N,Y,37.7271392,-122.4272574
PAST SALE,October-11-2017,Single Family Residential,127 Gambier St,San Francisco,CA,94134,1100000,2,1.0,Portola,,3000,1931,111,,,Sold,,,http://www.redfin.com/CA/San-Francisco/127-Gambier-St-94134/home/1095111,San Francisco MLS,461802,N,Y,37.7276781,-122.4219952
PAST SALE,October-30-2017,Single Family Residential,55 Stoneybrook Ave,SAN FRANCISCO,CA,94112,1180000,4,2.0,SAN FRANCISCO,1657,2260,1942,92,712,,Sold,,,http://www.redfin.com/CA/San-Francisco/55-Stoneybrook-Ave-94112/home/1990386,MLSListings,ML81675604,N,Y,37.7300263,-122.4216923
PAST SALE,October-31-2017,Single Family Residential,48 Athens St,San Francisco,CA,94112,962000,2,1.0,Excelsior,1050,3746,1939,91,916,,Sold,,,http://www.redfin.com/CA/San-Francisco/48-Athens-St-94112/home/771802,San Francisco MLS,463219,N,Y,37.7273618,-122.4244946
PAST SALE,December-21-2017,Single Family Residential,267 Madrid St,San Francisco,CA,94112,920000,2,1.0,Excelsior,940,2495,1922,40,979,,Sold,,,http://www.redfin.com/CA/San-Francisco/267-Madrid-St-94112/home/1807554,San Francisco MLS,464882,N,Y,37.7251514,-122.4298805
PAST SALE,December-30-2017,Single Family Residential,170 Madison St,SAN FRANCISCO,CA,94134,960000,3,3.0,SAN FRANCISCO,1616,2996,1960,31,594,,Sold,,,http://www.redfin.com/CA/San-Francisco/170-Madison-St-94134/home/1423271,MLSListings,ML81687741,N,Y,37.7269964,-122.4231818
PAST SALE,August-10-2017,Single Family Residential,48 Pope St,San Francisco,CA,94112,950000,2,2.0,Crocker Amazon,1417,2247,1928,173,670,,Sold,,,http://www.redfin.com/CA/San-Francisco/48-Pope-St-94112/home/985842,San Francisco MLS,458745,N,Y,37.7139931,-122.441378
PAST SALE,September-21-2017,Single Family Residential,415 Amazon Ave,San Francisco,CA,94112,1025000,2,2.0,Excelsior,1155,2617,1908,131,887,,Sold,,,http://www.redfin.com/CA/San-Francisco/415-Amazon-Ave-94112/home/1177111,San Francisco MLS,459347,N,Y,37.7160889,-122.43659
PAST SALE,,Multi-Family (2-4 Unit),648 Madrid St,San Francisco,CA,94112,720100,,2.0,,1400,2495,1905,,514,,,,,http://www.redfin.com/CA/San-Francisco/648-Madrid-St-94112/home/1472027,,,N,Y,37.7193625,-122.4347176
PAST SALE,December-20-2017,Multi-Family (2-4 Unit),608-610 Naples St,San Francisco,CA,94112,1420000,6,4.0,Excelsior,3637,2500,1980,41,390,,Sold,,,http://www.redfin.com/CA/San-Francisco/610-Naples-St-94112/home/1448540,San Francisco MLS,463437,N,Y,37.7190976,-122.4326992
PAST SALE,December-19-2017,Single Family Residential,923 Edinburgh St,San Francisco,CA,94112,955000,2,1.0,Excelsior,1015,2511,1921,42,941,,Sold,,,http://www.redfin.com/CA/San-Francisco/923-Edinburgh-St-94112/home/790314,San Francisco MLS,464041,N,Y,37.7152886,-122.4361699
PAST SALE,January-5-2018,Single Family Residential,121 Amazon Ave,San Francisco,CA,94112,1040000,4,2.0,Excelsior,1482,2265,1930,25,702,,Sold,,,http://www.redfin.com/CA/San-Francisco/121-Amazon-Ave-94112/home/792099,San Francisco MLS,464078,N,Y,37.7169825,-122.4391811
PAST SALE,September-8-2017,Condo/Co-op,2828 Greenwich St #4,San Francisco,CA,94123,1204375,2,1.0,Cow Hollow,,,1960,144,,627,Sold,,,http://www.redfin.com/CA/San-Francisco/2828-Greenwich-St-94123/unit-4/home/143219634,San Francisco MLS,461171,N,Y,37.7978065,-122.4463304
PAST SALE,October-24-2017,Single Family Residential,2850 Filbert St,San Francisco,CA,94123,4695000,4,3.5,Cow Hollow,2778,3438,1916,98,1690,,Sold,,,http://www.redfin.com/CA/San-Francisco/2850-Filbert-St-94123/home/1643186,San Francisco MLS,464576,N,Y,37.7968278,-122.4464571
PAST SALE,October-30-2017,Single Family Residential,2636 Union St,San Francisco,CA,94123,9285000,5,4.5,Cow Hollow,5710,5500,1900,92,1626,,Sold,,,http://www.redfin.com/CA/San-Francisco/2636-Union-St-94123/home/582606,San Francisco MLS,461488,N,Y,37.7963927,-122.4427256
PAST SALE,,Condo/Co-op,2263 Francisco St,San Francisco,CA,94123,1700000,,,,1246,,1924,,1364,,,,,http://www.redfin.com/CA/San-Francisco/2263-Francisco-St-94123/home/2002337,,,N,Y,37.8007149,-122.442303
PAST SALE,November-8-2017,Multi-Family (2-4 Unit),3551 Scott St,San Francisco,CA,94123,6595000,,,Marina,,,1925,83,,,Sold,,,http://www.redfin.com/CA/San-Francisco/3551-Scott-St-94123/home/144483624,San Francisco MLS,465561,N,Y,37.802688,-122.441975
PAST SALE,October-5-2017,Condo/Co-op,3032 Clement St #201,San Francisco,CA,94121,1545000,3,2.0,Central Richmond,1689,,2016,117,915,520,Sold,,,http://www.redfin.com/CA/San-Francisco/3032-Clement-St-94121/unit-201/home/107584788,San Francisco MLS,460428,N,Y,37.7818851,-122.4919468
PAST SALE,September-1-2017,Other,6314-6318 Geary Blvd,SAN FRANCISCO,CA,94121,2350000,6,,SAN FRANCISCO,4062,2500,1921,151,579,,Sold,,,http://www.redfin.com/CA/San-Francisco/6318-Geary-Blvd-94121/home/114078134,MLSListings,ML81669988,N,Y,37.7800329,-122.4872709
PAST SALE,,Condo/Co-op,1160 Mission St Unit 2305,San Francisco,CA,94103,790000,1,1.0,,654,,2008,,1208,,,,,http://www.redfin.com/CA/San-Francisco/1160-Mission-St-94103/unit-2305/home/17305266,,,N,Y,37.7783901,-122.412238
PAST SALE,September-8-2017,Condo/Co-op,195 7th St #406,San Francisco,CA,94103,400000,0,1.0,South of Market,291,,1991,144,1375,323,Sold,,,http://www.redfin.com/CA/San-Francisco/195-7th-St-94103/unit-406/home/718519,San Francisco MLS,456842,N,Y,37.7783013,-122.4094944
PAST SALE,October-12-2017,Condo/Co-op,190 7th St #1,San Francisco,CA,94103,780000,1,1.5,South of Market,930,,1999,110,839,441,Sold,,,http://www.redfin.com/CA/San-Francisco/190-7th-St-94103/unit-1/home/12395766,San Francisco MLS,457284,N,Y,37.7780055,-122.4098162
PAST SALE,,Condo/Co-op,1160 Mission St Unit 1007,San Francisco,CA,94103,1095000,2,2.0,,1043,,2008,,1050,,,,,http://www.redfin.com/CA/San-Francisco/1160-Mission-St-94103/unit-1007/home/17304453,,,N,Y,37.7785222,-122.4123638
PAST SALE,September-8-2017,Condo/Co-op,1160 Mission St #1409,San Francisco,CA,94103,799000,1,1.0,South of Market,764,,2008,144,1046,673,Sold,,,http://www.redfin.com/CA/San-Francisco/1160-Mission-St-94103/unit-1409/home/17306804,San Francisco MLS,459670,N,Y,37.7785222,-122.4123638
PAST SALE,September-13-2017,Condo/Co-op,241 10th St #303,San Francisco,CA,94103,1079000,2,2.0,South of Market,920,,2017,139,1173,602,Sold,,,http://www.redfin.com/CA/San-Francisco/241-10th-St-94103/unit-303/home/137155354,San Francisco MLS,459904,N,Y,37.7736521,-122.4134394
PAST SALE,August-18-2017,Condo/Co-op,385 10th St #1,San Francisco,CA,94103,670000,1,1.0,South of Market,682,,1994,165,982,325,Sold,,,http://www.redfin.com/CA/San-Francisco/385-10th-St-94103/unit-1/home/12395673,San Francisco MLS,460791,N,Y,37.7720401,-122.4114701
PAST SALE,August-5-2017,Multi-Family (2-4 Unit),321-323 10th St,San Francisco,CA,94103,1900000,3,1.0,South of Market,2022,2495,1906,178,940,,Sold,,,http://www.redfin.com/CA/San-Francisco/323-10th-St-94103/home/1526412,San Francisco MLS,458964,N,Y,37.7726041,-122.4122343
PAST SALE,October-16-2017,Condo/Co-op,701 Minna St #8,San Francisco,CA,94103,850000,1,1.5,South of Market,1188,,1999,106,715,428,Sold,,,http://www.redfin.com/CA/San-Francisco/701-Minna-St-94103/unit-8/home/12396759,San Francisco MLS,461402,N,Y,37.7767313,-122.4131541
PAST SALE,September-8-2017,Condo/Co-op,241 10th St #203,San Francisco,CA,94103,1065000,2,2.0,South of Market,923,,2017,144,1154,602,Sold,,,http://www.redfin.com/CA/San-Francisco/241-10th-St-94103/unit-203/home/137156212,San Francisco MLS,459905,N,Y,37.7736521,-122.4134394
PAST SALE,October-27-2017,Condo/Co-op,740 Natoma St,San Francisco,CA,94103,1250000,3,2.0,South of Market,1531,,,95,816,,Sold,,,http://www.redfin.com/CA/San-Francisco/740-Natoma-St-94103/home/12095553,San Francisco MLS,462973,N,Y,37.776227,-122.412982
PAST SALE,October-31-2017,Condo/Co-op,725 Tehama St #1,San Francisco,CA,94103,1175000,1,2.0,South of Market,1324,,2000,91,887,350,Sold,,,http://www.redfin.com/CA/San-Francisco/725-Tehama-St-94103/unit-1/home/12396881,San Francisco MLS,463422,N,Y,37.775288,-122.4114513
PAST SALE,October-18-2017,Condo/Co-op,501 Beale St Unit 11C,San Francisco,CA,94105,1045000,1,1.0,South Beach,801,,2006,104,1305,822,Sold,,,http://www.redfin.com/CA/San-Francisco/501-Beale-St-94105/unit-11C/home/22885829,San Francisco MLS,462853,N,Y,37.7862361,-122.3890738
PAST SALE,October-17-2017,Condo/Co-op,425 1st St #3608,San Francisco,CA,94105,1230000,1,1.0,South Beach,755,,2008,105,1629,925,Sold,,,http://www.redfin.com/CA/San-Francisco/425-1st-St-94105/unit-3608/home/17304923,San Francisco MLS,464273,N,Y,37.7861411,-122.392459
PAST SALE,November-9-2017,Condo/Co-op,501 Beale St Unit 12D,San Francisco,CA,94105,1895000,2,2.0,South Beach,1259,,2006,82,1505,900,Sold,,,http://www.redfin.com/CA/San-Francisco/501-Beale-St-94105/unit-12D/home/22885832,San Francisco MLS,459433,N,Y,37.7862361,-122.3890738
PAST SALE,,Multi-Family (5+ Unit),401 Harrison St Apt 12H,San Francisco,CA,94105,978000,1,1.0,,759,,2014,,1289,,,,,http://www.redfin.com/CA/San-Francisco/401-Harrison-St-94105/unit-12H/home/144064190,,,N,Y,37.7863986,-122.3920534
PAST SALE,August-29-2017,Single Family Residential,140 Bepler St,Daly City,CA,94014,1280000,4,3.0,Original Daly City,1862,2500,1928,154,687,,Sold,,,http://www.redfin.com/CA/Daly-City/140-Bepler-St-94014/home/545749,San Francisco MLS,458370,N,Y,37.7080759,-122.463463
PAST SALE,,Single Family Residential,227 Surrey St,San Francisco,CA,94131,740000,,1.0,,866,2500,1926,,855,,,,,http://www.redfin.com/CA/San-Francisco/227-Surrey-St-94131/home/1551626,,,N,Y,37.7356767,-122.4356732
PAST SALE,October-16-2017,Single Family Residential,17-21 Van Buren St,San Francisco,CA,94131,968000,3,2.0,Glen Park,,,1913,106,,,Sold,,,http://www.redfin.com/CA/San-Francisco/17-Van-Buren-St-94131/home/1142270,San Francisco MLS,462768,N,Y,37.7365067,-122.4353543
PAST SALE,October-20-2017,Single Family Residential,1 Miguel St,San Francisco,CA,94131,2600000,3,2.5,Glen Park,2040,5724,1957,102,1275,,Sold,,,http://www.redfin.com/CA/San-Francisco/1-Miguel-St-94131/home/1133667,San Francisco MLS,463489,N,Y,37.7392924,-122.4309526
PAST SALE,January-24-2018,Single Family Residential,2430 Castro St,San Francisco,CA,94131,4715000,4,5.5,Noe Valley,4382,2622,1914,6,1076,,Sold,,,http://www.redfin.com/CA/San-Francisco/2430-Castro-St-94131/home/1640580,San Francisco MLS,465789,N,Y,37.7420196,-122.433515
PAST SALE,August-14-2017,Condo/Co-op,640 Davis St #45,San Francisco,CA,94111,1300000,1,1.0,Financial District,914,,1983,169,1422,710,Sold,,,http://www.redfin.com/CA/San-Francisco/640-Davis-St-94111/unit-45/home/546052,San Francisco MLS,459594,N,Y,37.7984405,-122.3983781
PAST SALE,,Condo/Co-op,101 Lombard St Apt 23,San Francisco,CA,94111,875000,1,1.0,,770,,1983,,1136,,,,,http://www.redfin.com/CA/San-Francisco/101-Lombard-St-94111/unit-23/home/1197599,,,N,Y,37.8035204,-122.4043894
PAST SALE,November-7-2017,Condo/Co-op,550 Davis St #43,San Francisco,CA,94111,1610000,2,2.0,Financial District,1471,,1981,84,1094,871,Sold,,,http://www.redfin.com/CA/San-Francisco/550-Davis-St-94111/unit-43/home/1797134,San Francisco MLS,458992,N,Y,37.7974207,-122.3981644
PAST SALE,November-20-2017,Condo/Co-op,152 Lombard St #409,San Francisco,CA,94111,920000,2,2.0,North Waterfront,1106,,1975,71,832,1044,Sold,,,http://www.redfin.com/CA/San-Francisco/152-Lombard-St-94111/unit-409/home/102817853,San Francisco MLS,462375,N,Y,37.80445,-122.404178
PAST SALE,November-3-2017,Condo/Co-op,550 Davis St #26,San Francisco,CA,94111,2638300,4,3.0,Financial District,2251,,1981,88,1172,1317,Sold,,,http://www.redfin.com/CA/San-Francisco/550-Davis-St-94111/unit-26/home/1295680,San Francisco MLS,461185,N,Y,37.7974207,-122.3981644
PAST SALE,,Condo/Co-op,200 Divisadero St Apt 1,San Francisco,CA,94117,650000,0,1.0,,477,,1900,,1363,,,,,http://www.redfin.com/CA/San-Francisco/200-Divisadero-St-94117/unit-1/home/1857952,,,N,Y,37.7704999,-122.436625
PAST SALE,October-12-2017,Condo/Co-op,263 Central Ave,San Francisco,CA,94117,1175000,2,1.25,Haight Ashbury,1621,,1908,110,725,394,Sold,,,http://www.redfin.com/CA/San-Francisco/263-Central-Ave-94117/home/2033359,San Francisco MLS,462722,N,Y,37.7720961,-122.4441792
PAST SALE,October-30-2017,Condo/Co-op,1040 Masonic Ave #3,San Francisco,CA,94117,920000,1,1.0,Haight Ashbury,764,,1900,92,1204,380,Sold,,,http://www.redfin.com/CA/San-Francisco/1040-Masonic-Ave-94117/unit-3/home/599444,San Francisco MLS,462864,N,Y,37.7715867,-122.4452745
PAST SALE,,Single Family Residential,92 Meadowbrook Dr,San Francisco,CA,94132,1250000,3,4.0,,1873,2495,1941,,667,,,,,http://www.redfin.com/CA/San-Francisco/92-Meadowbrook-Dr-94132/home/839410,,,N,Y,37.732568,-122.484265
PAST SALE,November-14-2017,Single Family Residential,578 Gellert Dr,San Francisco,CA,94132,1780000,4,2.5,Lake Shore,2536,5244,1952,77,702,,Sold,,,http://www.redfin.com/CA/San-Francisco/578-Gellert-Dr-94132/home/1186767,San Francisco MLS,464364,N,Y,37.730195,-122.4870176
PAST SALE,August-7-2017,Single Family Residential,3060 26th Ave,San Francisco,CA,94132,1560000,3,3.0,Merced Manor,1819,4098,1933,176,858,,Sold,,,http://www.redfin.com/CA/San-Francisco/3060-26th-Ave-94132/home/1552283,San Francisco MLS,458972,N,Y,37.7316309,-122.4816126
PAST SALE,August-21-2017,Multi-Family (2-4 Unit),226-228 Leland Ave,San Francisco,CA,94134,1500000,6,4.0,Visitacion Valley,3000,2500,1985,162,500,,Sold,,,http://www.redfin.com/CA/San-Francisco/228-Leland-Ave-94134/home/2034761,San Francisco MLS,459316,N,Y,37.712923,-122.407876
PAST SALE,September-8-2017,Single Family Residential,515 Delta St,San Francisco,CA,94134,830000,3,1.0,Visitacion Valley,700,1500,1928,144,1186,,Sold,,,http://www.redfin.com/CA/San-Francisco/515-Delta-St-94134/home/1815403,San Francisco MLS,459449,N,Y,37.7134688,-122.4091884
PAST SALE,September-7-2017,Single Family Residential,531 Rutland St,San Francisco,CA,94134,775000,2,1.0,Visitacion Valley,900,1245,1942,145,861,,Sold,,,http://www.redfin.com/CA/San-Francisco/531-Rutland-St-94134/home/1631557,San Francisco MLS,460383,N,Y,37.7141069,-122.4065311
PAST SALE,November-14-2017,Single Family Residential,285 Teddy Ave,San Francisco,CA,94134,812000,2,1.0,Visitacion Valley,965,2500,1937,77,841,,Sold,,,http://www.redfin.com/CA/San-Francisco/285-Teddy-Ave-94134/home/783203,San Francisco MLS,463225,N,Y,37.7148854,-122.4083287
PAST SALE,,Single Family Residential,108 Teddy Ave,San Francisco,CA,94134,2277156,3,2.0,,1519,2495,1952,,1499,,,,,http://www.redfin.com/CA/San-Francisco/108-Teddy-Ave-94134/home/785605,,,N,Y,37.714107,-122.4045664
PAST SALE,August-21-2017,Single Family Residential,640 Gennessee St,San Francisco,CA,94127,1530000,4,2.0,Sunnyside,1818,2495,1979,162,842,,Sold,,,http://www.redfin.com/CA/San-Francisco/640-Gennessee-St-94127/home/1165554,San Francisco MLS,460216,N,Y,37.7334052,-122.4509258
PAST SALE,September-8-2017,Single Family Residential,715 Mangels Ave,San Francisco,CA,94127,1680000,5,2.0,Westwood Highlands,2217,3940,1925,144,758,,Sold,,,http://www.redfin.com/CA/San-Francisco/715-Mangels-Ave-94127/home/885590,San Francisco MLS,460279,N,Y,37.7328347,-122.4537265
PAST SALE,September-13-2017,Single Family Residential,184 Marietta Dr,San Francisco,CA,94127,981000,2,2.0,Miraloma Park,,2138,1943,139,,,Sold,,,http://www.redfin.com/CA/San-Francisco/184-Marietta-Dr-94127/home/1989624,San Francisco MLS,461155,N,Y,37.7401753,-122.4467525
PAST SALE,September-13-2017,Single Family Residential,500 Rockdale Dr,San Francisco,CA,94127-1705,2000000,6,4.0,Bayview,2340,2340,1931,139,855,,Sold,,,http://www.redfin.com/CA/San-Francisco/500-Rockdale-Dr-94127/home/1604644,EBRD/CCAR/Bay East,40786741,N,Y,37.7394088,-122.4493494
PAST SALE,September-14-2017,Single Family Residential,684 Teresita Blvd,San Francisco,CA,94127,1259000,2,1.0,Miraloma Park,,,,138,,,Sold,,,http://www.redfin.com/CA/San-Francisco/684-Teresita-Blvd-94127/home/1604694,San Francisco MLS,461181,N,Y,37.735925,-122.446628
PAST SALE,,Single Family Residential,701 Teresita Blvd,San Francisco,CA,94127,2250000,4,4.0,,2262,3245,1940,,995,,,,,http://www.redfin.com/CA/San-Francisco/701-Teresita-Blvd-94127/home/1734132,,,N,Y,37.735546,-122.446058
PAST SALE,November-14-2017,Single Family Residential,230 Molimo Dr,San Francisco,CA,94127,1080000,2,1.0,Miraloma Park,918,2866,1954,77,1176,,Sold,,,http://www.redfin.com/CA/San-Francisco/230-Molimo-Dr-94127/home/1653237,San Francisco MLS,463189,N,Y,37.7370683,-122.4499234
PAST SALE,August-18-2017,Single Family Residential,2131 33rd Ave,San Francisco,CA,94116,1818000,5,3.0,Parkside,2140,2996,1945,165,850,,Sold,,,http://www.redfin.com/CA/San-Francisco/2131-33rd-Ave-94116/home/652285,San Francisco MLS,459463,N,Y,37.7473467,-122.4912552
PAST SALE,October-18-2017,Single Family Residential,2424 Quintara St,San Francisco,CA,94116,1300000,3,2.0,Parkside,1375,2495,1956,104,945,,Sold,,,http://www.redfin.com/CA/San-Francisco/2424-Quintara-St-94116/home/953861,San Francisco MLS,461914,N,Y,37.74816,-122.4916489
PAST SALE,November-17-2017,Single Family Residential,2114 32nd Ave,San Francisco,CA,94116,1625000,4,4.0,Parkside,2100,2375,1939,74,774,,Sold,,,http://www.redfin.com/CA/San-Francisco/2114-32nd-Ave-94116/home/651580,San Francisco MLS,462987,N,Y,37.7476951,-122.4897146
PAST SALE,September-28-2017,Single Family Residential,1851 35th Ave,SAN FRANCISCO,CA,94122,1350000,2,2.0,SAN FRANCISCO,1650,2996,1941,124,818,,Sold,,,http://www.redfin.com/CA/San-Francisco/1851-35th-Ave-94122/home/1219459,MLSListings,ML81675483,N,Y,37.7525126,-122.4937674
PAST SALE,September-22-2017,Single Family Residential,2226 29th Ave,San Francisco,CA,94116,1350000,3,2.5,Parkside,2030,2996,1927,130,665,,Sold,,,http://www.redfin.com/CA/San-Francisco/2226-29th-Ave-94116/home/1101659,San Francisco MLS,461621,N,Y,37.7457774,-122.4864064
PAST SALE,November-9-2017,Single Family Residential,1958 24th Ave,San Francisco,CA,94116,1165050,3,2.0,Parkside,1225,2136,1942,82,951,,Sold,,,http://www.redfin.com/CA/San-Francisco/1958-24th-Ave-94116/home/1508950,San Francisco MLS,462509,N,Y,37.751052,-122.4814331
PAST SALE,October-26-2017,Single Family Residential,2458 26th Ave,San Francisco,CA,94116,1300000,2,1.0,Parkside,1115,3000,1924,96,1166,,Sold,,,http://www.redfin.com/CA/San-Francisco/2458-26th-Ave-94116/home/2004355,San Francisco MLS,462311,N,Y,37.7416238,-122.4828512
PAST SALE,September-14-2017,Single Family Residential,408 Holyoke St,San Francisco,CA,94134,1064000,4,2.0,Portola,1680,2700,1925,138,633,,Sold,,,http://www.redfin.com/CA/San-Francisco/408-Holyoke-St-94134/home/1362884,San Francisco MLS,458853,N,Y,37.7260731,-122.4086967
PAST SALE,,Single Family Residential,539 Hamilton St,San Francisco,CA,94134,1220000,,2.0,,1550,2996,1960,,787,,,,,http://www.redfin.com/CA/San-Francisco/539-Hamilton-St-94134/home/1527648,,,N,Y,37.7244418,-122.408606
PAST SALE,November-15-2017,Multi-Family (2-4 Unit),635-637 20th Ave,San Francisco,CA,94121,2780000,4,3.0,Central Richmond,4240,4029,1923,76,656,,Sold,,,http://www.redfin.com/CA/San-Francisco/637-20th-Ave-94121/home/1324462,San Francisco MLS,463651,N,Y,37.7758316,-122.479334
PAST SALE,August-24-2017,Single Family Residential,1057 Prague St,San Francisco,CA,94112,935000,2,1.0,Crocker Amazon,1202,3288,1946,159,778,,Sold,,,http://www.redfin.com/CA/San-Francisco/1057-Prague-St-94112/home/1177223,San Francisco MLS,459684,N,Y,37.7099529,-122.4378528
PAST SALE,November-7-2017,Single Family Residential,168 Concord St,San Francisco,CA,94112,955000,2,1.0,Crocker Amazon,1025,1873,1927,84,932,,Sold,,,http://www.redfin.com/CA/San-Francisco/168-Concord-St-94112/home/916549,San Francisco MLS,462935,N,Y,37.7112572,-122.4424994
PAST SALE,November-16-2017,Single Family Residential,1220 Naples St,SAN FRANCISCO,CA,94112,970000,3,1.0,SAN FRANCISCO,1610,2572,1928,75,602,,Sold,,,http://www.redfin.com/CA/San-Francisco/1220-Naples-St-94112/home/1815532,MLSListings,ML81678835,N,Y,37.7116844,-122.4383104
PAST SALE,November-29-2017,Single Family Residential,344 Chicago Way,San Francisco,CA,94112,1150000,3,1.0,Crocker Amazon,1442,3231,1924,62,798,,Sold,,,http://www.redfin.com/CA/San-Francisco/344-Chicago-Way-94112/home/1744013,San Francisco MLS,464012,N,Y,37.70943,-122.433512
PAST SALE,December-6-2017,Single Family Residential,1016 Munich St,San Francisco,CA,94112,1030000,2,2.0,Crocker Amazon,940,2454,1923,55,1096,,Sold,,,http://www.redfin.com/CA/San-Francisco/1016-Munich-St-94112/home/1990573,San Francisco MLS,463623,N,Y,37.7119081,-122.4339054
PAST SALE,December-28-2017,Single Family Residential,40 Canyon Dr,SAN FRANCISCO,CA,94112,935000,3,2.0,SAN FRANCISCO,1067,3824,1947,33,876,,Sold,,,http://www.redfin.com/CA/San-Francisco/40-Canyon-Dr-94112/home/1688314,MLSListings,ML81684804,N,Y,37.7090724,-122.4307338
PAST SALE,December-28-2017,Single Family Residential,355 Winding Way,San Francisco,CA,94112,1063000,3,1.0,Crocker Amazon,1168,3672,1960,33,910,,Sold,,,http://www.redfin.com/CA/San-Francisco/355-Winding-Way-94112/home/1918302,San Francisco MLS,464860,N,Y,37.7092673,-122.4378397
PAST SALE,,Single Family Residential,241 Paris St,San Francisco,CA,94112,860000,5,1.0,,1580,2500,1906,,544,,,,,http://www.redfin.com/CA/San-Francisco/241-Paris-St-94112/home/773564,,,N,Y,37.7247705,-122.4323132
PAST SALE,August-8-2017,Single Family Residential,201 Westgate Dr,San Francisco,CA,94127,1908000,4,3.0,Mount Davidson Manor,2446,4499,1929,175,780,,Sold,,,http://www.redfin.com/CA/San-Francisco/201-Westgate-Dr-94127/home/1220925,San Francisco MLS,459341,N,Y,37.7301945,-122.4648105
