SALE TYPE,SOLD DATE,PROPERTY TYPE,ADDRESS,CITY,STATE,ZIP,PRICE,BEDS,BATHS,LOCATION,SQUARE FEET,LOT SIZE,YEAR BUILT,DAYS ON MARKET,$/SQUARE FEET,HOA/MONTH,STATUS,NEXT OPEN HOUSE START TIME,NEXT OPEN HOUSE END TIME,URL (SEE http://www.redfin.com/buy-a-home/comparative-market-analysis FOR INFO ON PRICING),SOURCE,MLS#,FAVORITE,INTERESTED,LATITUDE,LONGITUDE
PAST SALE,February-8-2018,Condo/Co-op,5227 S Esprit Loop,Dublin,CA,94568,845555,4,3.5,Dublin,1848,,2014,17,458,217,Sold,,,http://www.redfin.com/CA/Dublin/5227-S-Esprit-Loop-94568/home/95474485,EBRD/CCAR/Bay East,40807116,N,Y,37.704815,-121.896511
PAST SALE,January-31-2018,Single Family Residential,1230 Mattox Rd,Hayward,CA,94541,675000,4,3.0,Hayward,1967,22920,1941,25,343,,Sold,,,http://www.redfin.com/CA/Hayward/1230-Mattox-Rd-94541/home/1441011,EBRD/CCAR/Bay East,40795690,N,Y,37.686695,-122.0982349
PAST SALE,February-14-2018,Condo/Co-op,4539 Glenn St #13,Fremont,CA,94536,530000,2,1.0,Casa Bonita,964,,1972,11,550,299,Sold,,,http://www.redfin.com/CA/Fremont/4539-Glenn-St-94536/unit-13/home/1552708,EBRD/CCAR/Bay East,40804671,N,Y,37.554219,-122.01605
PAST SALE,February-16-2018,Condo/Co-op,39034 Guardino Dr #102,Fremont,CA,94538,565000,2,1.0,Adobe Hills,844,,1990,9,669,432,Sold,,,http://www.redfin.com/CA/Fremont/39034-Guardino-Dr-94538/unit-102/home/1234742,EBRD/CCAR/Bay East,40808894,N,Y,37.5593191,-121.9705932
PAST SALE,February-21-2018,Condo/Co-op,39199 Guardino Dr #270,Fremont,CA,94538,661000,2,2.0,Monte Merano,1053,,1987,4,628,468,Sold,,,http://www.redfin.com/CA/Fremont/39199-Guardino-Dr-94538/unit-270/home/1240474,EBRD/CCAR/Bay East,40808180,N,Y,37.5572761,-121.9700429
PAST SALE,February-16-2018,Single Family Residential,2021 Strang Ave,San Leandro,CA,94578,675000,2,2.0,San Leandro Hlls,1265,5500,1947,9,534,,Sold,,,http://www.redfin.com/CA/San-Leandro/2021-Strang-Ave-94578/home/1939878,EBRD/CCAR/Bay East,40807078,N,Y,37.7032568,-122.1104826
PAST SALE,February-23-2018,Townhouse,4822 Balthazar Ter,Fremont,CA,94555,1070000,2,1.5,Ardenwood Villag,1891,4322,1986,2,566,300,Sold,,,http://www.redfin.com/CA/Fremont/4822-Balthazar-Ter-94555/home/1143369,EBRD/CCAR/Bay East,40808714,N,Y,37.567447,-122.049998
PAST SALE,January-30-2018,Single Family Residential,36194 Silverado Pl,Newark,CA,94560,1320000,4,3.0,Mayhew Landing,2317,4864,1998,26,570,55,Sold,,,http://www.redfin.com/CA/Newark/36194-Silverado-Pl-94560/home/1984655,EBRD/CCAR/Bay East,40806346,N,Y,37.5343842,-122.0596412
PAST SALE,February-9-2018,Single Family Residential,30420 Meridien Cir,Union City,CA,94587,1200000,5,3.0,Meridian Court,2905,6376,1992,16,413,175,Sold,,,http://www.redfin.com/CA/Union-City/30420-Meridien-Cir-94587/home/1976820,EBRD/CCAR/Bay East,40808258,N,Y,37.6037258,-122.0779144
PAST SALE,February-2-2018,Condo/Co-op,1832 Railroad Ave #104,Livermore,CA,94550,599950,2,2.0,Livermore,1145,1145,2014,23,524,238,Sold,,,http://www.redfin.com/CA/Livermore/1832-Railroad-Ave-94550/unit-104/home/2113976,EBRD/CCAR/Bay East,40806962,N,Y,37.6821569,-121.774357
PAST SALE,January-31-2018,Single Family Residential,933 Verona Ave,Livermore,CA,94550,820000,3,2.0,Sunset West,1352,7214,1959,25,607,,Sold,,,http://www.redfin.com/CA/Livermore/933-Verona-Ave-94550/home/900094,EBRD/CCAR/Bay East,40806888,N,Y,37.6719874,-121.7844976
PAST SALE,January-31-2018,Single Family Residential,642 Paradise Blvd,Hayward,CA,94541,540000,2,1.0,Ashland,854,6300,1942,25,632,,Sold,,,http://www.redfin.com/CA/Hayward/642-Paradise-Blvd-94541/home/946950,EBRD/CCAR/Bay East,40805007,N,Y,37.6852394,-122.1085155
PAST SALE,February-14-2018,Single Family Residential,1000 Keeler Ave,Berkeley,CA,94708,1270000,3,1.0,Berkeley Hills,1527,6566,1949,11,832,,Sold,,,http://www.redfin.com/CA/Berkeley/1000-Keeler-Ave-94708/home/702614,EBRD/CCAR/Bay East,40807559,N,Y,37.8939588,-122.2608469
PAST SALE,,Multi-Family (2-4 Unit),400 Marion Ct,Alameda,CA,94501,7100000,20,18.0,,11921,43500,1920,,596,,,,,http://www.redfin.com/CA/Alameda/400-Marion-Ct-94501/home/1402103,,,N,Y,37.7741246,-122.2858354
PAST SALE,February-21-2018,Single Family Residential,3005 Acton St,Berkeley,CA,94702,580000,1,1.0,South Berkeley,733,4200,1920,4,791,,Sold,,,http://www.redfin.com/CA/Berkeley/3005-Acton-St-94702/home/1364985,EBRD/CCAR/Bay East,40811218,N,Y,37.8529829,-122.2810509
PAST SALE,February-2-2018,Single Family Residential,1368 Versailles Ave,Alameda,CA,94501,1450000,3,2.5,East End,2102,4400,1910,23,690,,Sold,,,http://www.redfin.com/CA/Alameda/1368-Versailles-Ave-94501/home/1746047,EBRD/CCAR/Bay East,40805278,N,Y,37.7608752,-122.2367833
PAST SALE,February-8-2018,Condo/Co-op,750 Oakland Ave #105,Oakland,CA,94611,550000,1,1.0,Rose Garden,786,,1970,17,700,392,Sold,,,http://www.redfin.com/CA/Oakland/750-Oakland-Ave-94611/unit-105/home/527304,EBRD/CCAR/Bay East,40806984,N,Y,37.821125,-122.247933
PAST SALE,,Multi-Family (2-4 Unit),454 41st St,Oakland,CA,94609,435227,4,4.0,,3920,4580,1912,,111,,,,,http://www.redfin.com/CA/Oakland/454-41st-St-94609/home/1464617,,,N,Y,37.8297801,-122.2617332
PAST SALE,January-26-2018,Single Family Residential,3446 Richmond Blvd,Oakland,CA,94611,700000,3,2.0,Oak Park,1567,7250,1920,30,447,,Sold,,,http://www.redfin.com/CA/Oakland/3446-Richmond-Blvd-94611/home/525909,EBRD/CCAR/Bay East,40767059,N,Y,37.8205519,-122.2575679
PAST SALE,,Condo/Co-op,651 Oakland Ave Unit 1D,Oakland,CA,94611,430000,1,1.0,,597,,1967,,720,,,,,http://www.redfin.com/CA/Oakland/651-Oakland-Ave-94611/unit-1D/home/1234481,,,N,Y,37.8210796,-122.2501584
PAST SALE,January-30-2018,Multi-Family (2-4 Unit),4373 Howe St,Oakland,CA,94611,1500000,,,Piedmont Avenue,1809,3500,1917,26,829,,Sold,,,http://www.redfin.com/CA/Oakland/4373-Howe-St-94611/home/2029495,EBRD/CCAR/Bay East,40805876,N,Y,37.8307982,-122.2486275
PAST SALE,January-30-2018,Single Family Residential,6591 Altamont Creek Dr,Livermore,CA,94551,905000,4,2.0,Maralisa,2004,8698,1999,26,452,,Sold,,,http://www.redfin.com/CA/Livermore/6591-Altamont-Creek-Dr-94551/home/2019891,EBRD/CCAR/Bay East,40806446,N,Y,37.7213418,-121.7159388
PAST SALE,February-14-2018,Townhouse,617 Santina Dr,Hayward,CA,94541,728000,3,3.5,Hayward,1723,,2016,11,423,223,Sold,,,http://www.redfin.com/CA/Hayward/617-Santina-Dr-94541/home/144483701,EBRD/CCAR/Bay East,40805856,N,Y,37.664199,-122.0937128
PAST SALE,February-21-2018,Single Family Residential,21712 Westfield,Hayward,CA,94541,625000,3,2.0,Cherryland,1216,5000,1941,4,514,,Sold,,,http://www.redfin.com/CA/Hayward/21712-Westfield-Ave-94541/home/972305,EBRD/CCAR/Bay East,40806771,N,Y,37.6772056,-122.096176
PAST SALE,February-23-2018,Multi-Family (2-4 Unit),21498 OAK St,Hayward,CA,94546,860000,5,4.5,Hayward,2692,7377,1920,2,319,,Sold,,,http://www.redfin.com/CA/Hayward/21498-Oak-St-94546/home/1373632,EBRD/CCAR/Bay East,40792093,N,Y,37.684645,-122.089303
PAST SALE,February-9-2018,Single Family Residential,852 Solano Ave,Albany,CA,94706,975000,2,2.0,Albany,1358,5000,1949,16,718,,Sold,,,http://www.redfin.com/CA/Albany/852-Solano-Ave-94706/home/712928,EBRD/CCAR/Bay East,40806175,N,Y,37.889354,-122.3029784
PAST SALE,February-8-2018,Multi-Family (2-4 Unit),1420 Neilson St,Berkeley,CA,94702,975000,,,Berkeley,1442,5300,1944,17,676,,Sold,,,http://www.redfin.com/CA/Berkeley/1420-Neilson-St-94702/home/1460715,EBRD/CCAR/Bay East,40802868,N,Y,37.878738,-122.290398
PAST SALE,February-13-2018,Condo/Co-op,1406 San Pablo Ave Unit C,Berkeley,CA,94702-1024,840000,2,1.5,West Berkeley,1095,,2006,12,767,415,Sold,,,http://www.redfin.com/CA/Berkeley/1406-San-Pablo-Ave-94702/unit-C/home/12117062,EBRD/CCAR/Bay East,40806975,N,Y,37.8782799,-122.295497
PAST SALE,February-23-2018,Single Family Residential,807 Route Blvd,Albany,CA,94706,990000,3,1.0,Albany,1090,3740,1928,2,908,,Sold,,,http://www.redfin.com/CA/Albany/807-Route-Blvd-94706/home/716599,EBRD/CCAR/Bay East,40806998,N,Y,37.8924748,-122.29258
PAST SALE,February-6-2018,Single Family Residential,17482 Via Melina,San Lorenzo,CA,94580,580000,3,1.0,The Village,1031,5184,1952,19,563,10,Sold,,,http://www.redfin.com/CA/San-Lorenzo/17482-Via-Melina-94580/home/1556011,EBRD/CCAR/Bay East,40807191,N,Y,37.6633086,-122.1383454
PAST SALE,February-9-2018,Multi-Family (2-4 Unit),1440 Chestnut St,Oakland,CA,94607,849000,6,4.0,Oakland,2521,5500,1924,16,337,,Sold,,,http://www.redfin.com/CA/Oakland/1440-Chestnut-St-94607/home/1421025,EBRD/CCAR/Bay East,40805714,N,Y,37.8100408,-122.2845064
PAST SALE,January-30-2018,Multi-Family (2-4 Unit),6441 Colby St,Oakland,CA,94618,915000,5,4.0,Alameda,2688,226512000,1910,26,,,Sold,,,http://www.redfin.com/CA/Oakland/6441-Colby-St-94618/home/531214,MetroList,17066814,N,Y,37.8521846,-122.2572577
PAST SALE,February-16-2018,Single Family Residential,1117 Cowper,Berkeley,CA,94702,854100,3,1.0,Berkeley,983,3000,1913,9,869,,Sold,,,http://www.redfin.com/CA/Berkeley/1117-Cowper-St-94702/home/531482,EBRD/CCAR/Bay East,40807580,N,Y,37.8675631,-122.2905815
PAST SALE,February-22-2018,Condo/Co-op,1147 Hearst Ave,Berkeley,CA,94702,1010000,2,2.0,North/West,1415,10717,1991,3,714,133,Sold,,,http://www.redfin.com/CA/Berkeley/1147-Hearst-Ave-94702/home/680631,EBRD/CCAR/Bay East,40806915,N,Y,37.871023,-122.290618
PAST SALE,February-21-2018,Single Family Residential,2704 Mabel St,Berkeley,CA,94702,1000000,2,1.5,San Pablo Park,955,2720,1917,4,1047,,Sold,,,http://www.redfin.com/CA/Berkeley/2704-Mabel-St-94702/home/663675,EBRD/CCAR/Bay East,40808981,N,Y,37.8578697,-122.2849051
PAST SALE,February-13-2018,Single Family Residential,1067 Siler Pl,Berkeley,CA,94705,1500000,3,2.5,Claremont Knolls,2333,7239,1972,12,643,,Sold,,,http://www.redfin.com/CA/Berkeley/1067-Siler-Pl-94705/home/1668732,EBRD/CCAR/Bay East,40807613,N,Y,37.8625894,-122.2338138
PAST SALE,February-11-2018,Condo/Co-op,320 Caldecott Ln #312,Oakland,CA,94618,590000,2,2.0,Claremont,1150,,1998,14,513,514,Sold,,,http://www.redfin.com/CA/Oakland/320-Caldecott-Ln-94618/unit-312/home/1668530,EBRD/CCAR/Bay East,40807522,N,Y,37.8553212,-122.2209817
PAST SALE,February-23-2018,Townhouse,18 Windward Hl,Oakland,CA,94618,1350000,3,2.5,Hiller Highlands,2156,2330,1994,2,626,116,Sold,,,http://www.redfin.com/CA/Oakland/18-Windward-Hl-94618/home/1588820,EBRD/CCAR/Bay East,40810373,N,Y,37.8535813,-122.2269256
PAST SALE,February-15-2018,Single Family Residential,3833 Midvale Ave,Oakland,CA,94602,565000,3,2.0,Laurel,1015,5040,1913,10,557,,Sold,,,http://www.redfin.com/CA/Oakland/3833-Midvale-Ave-94602/home/1833078,EBRD/CCAR/Bay East,40804099,N,Y,37.7965629,-122.1981284
PAST SALE,February-13-2018,Single Family Residential,2912 Viola St,Oakland,CA,94619,620000,2,1.0,Allendale,704,3300,1925,12,881,,Sold,,,http://www.redfin.com/CA/Oakland/2912-Viola-St-94619/home/1833132,EBRD/CCAR/Bay East,40807633,N,Y,37.7873001,-122.2049482
PAST SALE,February-6-2018,Single Family Residential,3851 35Th Ave,Oakland,CA,94619,565000,3,2.0,Laurel District,1232,2775,1987,19,459,,Sold,,,http://www.redfin.com/CA/Oakland/3851-35th-Ave-94619/home/1465355,EBRD/CCAR/Bay East,40807983,N,Y,37.796012,-122.197317
PAST SALE,February-9-2018,Single Family Residential,3150 Texas St,Oakland,CA,94602,655000,3,1.5,Laurel/Fruitvale,1702,3833,1924,16,385,,Sold,,,http://www.redfin.com/CA/Oakland/3150-Texas-St-94602/home/1880851,EBRD/CCAR/Bay East,40805888,N,Y,37.7944462,-122.2093451
PAST SALE,February-22-2018,Single Family Residential,3061 Dakota St,Oakland,CA,94602,657000,2,1.0,Diamond District,714,2500,1925,3,920,,Sold,,,http://www.redfin.com/CA/Oakland/3061-Dakota-St-94602/home/880440,EBRD/CCAR/Bay East,40807393,N,Y,37.7953611,-122.2050292
PAST SALE,February-15-2018,Single Family Residential,2510 Otis Dr,Alameda,CA,94501,975000,3,1.0,East End,1500,4000,1936,10,650,,Sold,,,http://www.redfin.com/CA/Alameda/2510-Otis-Dr-94501/home/1835538,EBRD/CCAR/Bay East,40806879,N,Y,37.7558167,-122.2457801
PAST SALE,February-16-2018,Single Family Residential,425 E Merle Ct,San Leandro,CA,94577,762000,2,1.0,Broadmoor,1095,8100,1946,9,696,,Sold,,,http://www.redfin.com/CA/San-Leandro/425-E-Merle-Ct-94577/home/1883277,EBRD/CCAR/Bay East,40808025,N,Y,37.7371491,-122.1481932
PAST SALE,,Multi-Family (2-4 Unit),1932 92nd Ave,Oakland,CA,94603,454500,4,2.0,,1685,7000,1944,,270,,,,,http://www.redfin.com/CA/Oakland/1932-92nd-Ave-94603/home/836105,,,N,Y,37.7514137,-122.1673984
PAST SALE,February-18-2018,Single Family Residential,9436 Armstrong Dr,Oakland,CA,94603,630000,4,2.5,Arcadia Park,1737,2786,2008,7,363,120,Sold,,,http://www.redfin.com/CA/Oakland/9436-Armstrong-Dr-94603/home/22813131,EBRD/CCAR/Bay East,40807896,N,Y,37.7427117,-122.1796826
PAST SALE,February-22-2018,Single Family Residential,2040 Crosby Ave,Oakland,CA,94601,430000,2,1.0,Oakland,1601,4142,1914,3,269,,Sold,,,http://www.redfin.com/CA/Oakland/2040-Crosby-Ave-94601/home/835379,EBRD/CCAR/Bay East,40811331,N,Y,37.7827738,-122.2168508
PAST SALE,,Single Family Residential,533 La Prenda Dr,Oakland,CA,94603,265000,3,1.0,,1260,4800,1944,,210,,,,,http://www.redfin.com/CA/Oakland/533-La-Prenda-Dr-94603/home/593377,,,N,Y,37.7293812,-122.1760462
PAST SALE,February-20-2018,Single Family Residential,300 Stoneford Ave,Oakland,CA,94603,420000,2,1.0,Oakland,1200,4661,1942,5,350,,Sold,,,http://www.redfin.com/CA/Oakland/300-Stoneford-Ave-94603/home/1096823,EBRD/CCAR/Bay East,40806707,N,Y,37.7317541,-122.1823432
PAST SALE,January-26-2018,Single Family Residential,1011 Bancroft Way,Berkeley,CA,94710,1000000,3,2.0,Berkeley/Albany,1166,4000,1907,30,858,,Sold,,,http://www.redfin.com/CA/Berkeley/1011-Bancroft-Way-94710/home/670219,San Francisco MLS,465109,N,Y,37.8644579,-122.292436
PAST SALE,,Single Family Residential,20921 Tabua Ct,Hayward,CA,94541,746500,3,2.0,,1708,9792,1961,,437,,,,,http://www.redfin.com/CA/Hayward/20921-Tabua-Ct-94541/home/1391411,,,N,Y,37.6776669,-122.1053352
PAST SALE,February-2-2018,Single Family Residential,804 Page St,Berkeley,CA,94710,1125000,3,2.0,Oceanview,1500,,2017,23,750,,Sold,,,http://www.redfin.com/CA/Berkeley/804-Page-St-94710/home/144403934,EBRD/CCAR/Bay East,40804795,N,Y,37.8759648,-122.3013078
PAST SALE,February-22-2018,Condo/Co-op,6400 Christie Ave #2412,Emeryville,CA,94608,525000,2,1.0,Emeryville,861,286590,1988,3,610,460,Sold,,,http://www.redfin.com/CA/Emeryville/6400-Christie-Ave-94608/unit-2412/home/1965432,EBRD/CCAR/Bay East,40809874,N,Y,37.845051,-122.295366
PAST SALE,February-21-2018,Condo/Co-op,2120 6Th St #1,Berkeley,CA,94710,540000,0,1.0,Oceanview,642,,1994,4,841,300,Sold,,,http://www.redfin.com/CA/Berkeley/2120-Sixth-St-94710/unit-1/home/22975525,EBRD/CCAR/Bay East,40808303,N,Y,37.865881,-122.297368
PAST SALE,February-15-2018,Condo/Co-op,6384 Dana St,Oakland,CA,94609,651000,1,1.0,Rockridge,714,,1947,10,912,200,Sold,,,http://www.redfin.com/CA/Oakland/6384-Dana-St-94609/home/12116429,EBRD/CCAR/Bay East,40807303,N,Y,37.8502622,-122.2582307
PAST SALE,February-22-2018,Single Family Residential,2758 Piedmont Ave,Berkeley,CA,94705,2150000,3,3.5,Elmwood,2222,2331,1910,3,968,,Sold,,,http://www.redfin.com/CA/Berkeley/2758-Piedmont-Ave-94705/home/1164936,EBRD/CCAR/Bay East,40807618,N,Y,37.8601594,-122.2511424
PAST SALE,February-14-2018,Townhouse,6449 Blue Rock Ct,OAKLAND,CA,94605,710000,3,2.5,OAKLAND,1840,1616,2009,11,386,269,Sold,,,http://www.redfin.com/CA/Oakland/6449-Blue-Rock-Ct-94605/home/22693098,MLSListings,ML81687980,N,Y,37.7799278,-122.164762
PAST SALE,February-21-2018,Single Family Residential,2950 Morcom Ave,Oakland,CA,94619,695000,2,1.0,Maxwell  Park,1029,2730,1926,4,675,,Sold,,,http://www.redfin.com/CA/Oakland/2950-Morcom-Ave-94619/home/922607,EBRD/CCAR/Bay East,40807855,N,Y,37.7781966,-122.190939
PAST SALE,January-26-2018,Single Family Residential,,Oakland,CA,94603,440000,3,2.0,East Oakland,1150,5060,1957,30,383,,Sold,,,http://www.redfin.com/CA/Oakland/Undisclosed-address-94603/home/1250718,EBRD/CCAR/Bay East,40804938,N,Y,37.7438848,-122.1769332
PAST SALE,February-9-2018,Single Family Residential,1242 88th Ave,Oakland,CA,94621,441000,3,2.0,Oakland,2168,2930,1910,16,203,,Sold,,,http://www.redfin.com/CA/Oakland/1242-88th-Ave-94621/home/1405061,San Francisco MLS,464894,N,Y,37.7499592,-122.177687
PAST SALE,January-31-2018,Single Family Residential,1109 Elmhurst Ave,Oakland,CA,94603,350000,2,1.0,Elmhurst,1128,4730,1922,25,310,,Sold,,,http://www.redfin.com/CA/Oakland/1109-Elmhurst-Ave-94603/home/1925591,EBRD/CCAR/Bay East,40798008,N,Y,37.7439388,-122.1767558
PAST SALE,February-16-2018,Multi-Family (2-4 Unit),9240 C St,Oakland,CA,94603,625000,6,2.0,Oakland,2144,9750,1965,9,292,,Sold,,,http://www.redfin.com/CA/Oakland/9240-C-St-94603/home/730390,EBRD/CCAR/Bay East,40806433,N,Y,37.745914,-122.177106
PAST SALE,February-20-2018,Single Family Residential,1259 98Th Ave,Oakland,CA,94603,386000,3,1.5,Oakland,1299,6396,1918,5,297,,Sold,,,http://www.redfin.com/CA/Oakland/1259-98th-Ave-94603/home/587826,EBRD/CCAR/Bay East,40807624,N,Y,37.7435498,-122.1727646
PAST SALE,February-8-2018,Multi-Family (2-4 Unit),853 30Th St,Oakland,CA,94608,700000,4,4.0,Brockhurst,2700,7000,1930,17,259,,Sold,,,http://www.redfin.com/CA/Oakland/853-30th-St-94608/home/1457187,EBRD/CCAR/Bay East,40805858,N,Y,37.8200767,-122.2751357
PAST SALE,January-26-2018,Condo/Co-op,5351 Belgrave Pl Unit 3B,Oakland,CA,94618-1700,1300000,2,2.0,Broadway Terrace,1414,13458,1979,30,919,510,Sold,,,http://www.redfin.com/CA/Oakland/5351-Belgrave-Pl-94618/unit-8/home/1294934,EBRD/CCAR/Bay East,40806468,N,Y,37.8377897,-122.2485056
PAST SALE,January-26-2018,Condo/Co-op,958 55th St,OAKLAND,CA,94608,721000,3,2.5,OAKLAND,1282,2800,1898,30,562,150,Sold,,,http://www.redfin.com/CA/Oakland/958-55th-St-94608/home/101738790,MLSListings,ML81681119,N,Y,37.8392094,-122.2767022
PAST SALE,February-16-2018,Single Family Residential,1054 24Th St,Oakland,CA,94607,855000,5,4.0,West Oak,2026,3800,1892,9,422,,Sold,,,http://www.redfin.com/CA/Oakland/1054-24th-St-94607/home/1726234,EBRD/CCAR/Bay East,40807059,N,Y,37.8168994,-122.2813251
PAST SALE,February-16-2018,Condo/Co-op,1007 41st St #433,Oakland,CA,94608,650000,1,1.5,Nobe,1091,,2005,9,596,585,Sold,,,http://www.redfin.com/CA/Oakland/1007-41st-St-94608/unit-433/home/12115609,EBRD/CCAR/Bay East,40805894,N,Y,37.8320217,-122.2775598
PAST SALE,February-21-2018,Condo/Co-op,3258 Louise St,Oakland,CA,94608,885000,3,3.0,West Oakland,1794,,2006,4,493,192,Sold,,,http://www.redfin.com/CA/Oakland/3258-Louise-St-94608/home/12116346,EBRD/CCAR/Bay East,40806971,N,Y,37.8251811,-122.2848528
PAST SALE,February-13-2018,Single Family Residential,2660 108Th Ave,Oakland,CA,94605,465000,3,1.0,Alameda,984,4452,1927,12,473,,Sold,,,http://www.redfin.com/CA/Oakland/2660-108th-Ave-94605/home/1161838,EBRD/CCAR/Bay East,40805569,N,Y,37.7420451,-122.148903
PAST SALE,February-22-2018,Single Family Residential,,Oakland,CA,94605,730000,3,2.0,Oakland,1323,7849,1940,3,552,8,Sold,,,http://www.redfin.com/CA/Oakland/Undisclosed-address-94605/home/1496483,EBRD/CCAR/Bay East,40806734,N,Y,37.73739,-122.1385672
PAST SALE,January-29-2018,Single Family Residential,1105 Davis St,San Leandro,CA,94577,645000,3,3.0,Davis Street,1539,1131,2007,27,419,180,Sold,,,http://www.redfin.com/CA/San-Leandro/1105-Davis-St-94577/home/12117080,EBRD/CCAR/Bay East,40805682,N,Y,37.7216625,-122.1674067
PAST SALE,February-22-2018,Single Family Residential,1026 Court St,Alameda,CA,94501,1055000,3,2.0,Alameda,2020,3300,1938,3,522,,Sold,,,http://www.redfin.com/CA/Alameda/1026-Court-St-94501/home/718845,San Francisco MLS,466234,N,Y,37.7546234,-122.2383345
PAST SALE,February-22-2018,Single Family Residential,3201 Otis Dr,Alameda,CA,94501,850000,3,1.0,Alameda,1120,4500,1948,3,759,,Sold,,,http://www.redfin.com/CA/Alameda/3201-Otis-Dr-94501/home/1858245,EBRD/CCAR/Bay East,40810083,N,Y,37.7519555,-122.2386448
PAST SALE,February-2-2018,Single Family Residential,741 Begonia Dr,San Leandro,CA,94578,825000,4,3.0,Washington Sq.,2477,5000,1977,23,333,,Sold,,,http://www.redfin.com/CA/San-Leandro/741-Begonia-Dr-94578/home/775378,EBRD/CCAR/Bay East,40806585,N,Y,37.7011074,-122.1359596
PAST SALE,February-16-2018,Single Family Residential,14701 Oleander St,San Leandro,CA,94578,764750,3,2.0,San Leandro,2066,9212,1978,9,370,,Sold,,,http://www.redfin.com/CA/San-Leandro/14701-Oleander-St-94578/home/531972,EBRD/CCAR/Bay East,40803768,N,Y,37.704012,-122.137445
PAST SALE,February-21-2018,Multi-Family (2-4 Unit),14757 Saturn Dr,San Leandro,CA,94578,530000,3,3.0,Hillcrest Knolls,1342,5766,1947,4,395,,Sold,,,http://www.redfin.com/CA/San-Leandro/14757-Saturn-Dr-94578/home/789994,EBRD/CCAR/Bay East,40808879,N,Y,37.7116619,-122.126666
PAST SALE,February-23-2018,Single Family Residential,1931 Joan Dr,San Leandro,CA,94578,610000,3,2.0,Alameda County,1028,5706,1966,2,593,,Sold,,,http://www.redfin.com/CA/San-Leandro/1931-Joan-Dr-94578/home/50263687,EBRD/CCAR/Bay East,40806963,N,Y,37.7148348,-122.129029
PAST SALE,February-24-2018,Condo/Co-op,16006 E 14Th St #116,San Leandro,CA,94578,315000,1,1.0,Ashland,659,,1987,1,478,327,Sold,,,http://www.redfin.com/CA/San-Leandro/16006-E-14th-St-94578/unit-116/home/12118557,EBRD/CCAR/Bay East,40807050,N,Y,37.6986617,-122.1188434
PAST SALE,February-1-2018,Townhouse,27786 Del Norte Ct,HAYWARD,CA,94545,552000,4,2.5,HAYWARD,1474,1100,1970,24,374,268,Sold,,,http://www.redfin.com/CA/Hayward/27786-Del-Norte-Ct-94545/home/1012347,MLSListings,ML81687747,N,Y,37.625214,-122.094582
PAST SALE,February-22-2018,Single Family Residential,2400 Catalpa Way,Hayward,CA,94545,740000,4,2.0,Hayward Area,1358,6200,1963,3,545,,Sold,,,http://www.redfin.com/CA/Hayward/2400-Catalpa-Way-94545/home/1386256,EBRD/CCAR/Bay East,40807572,N,Y,37.6208021,-122.0886573
PAST SALE,February-13-2018,Single Family Residential,199 Lafayette Ave,Piedmont,CA,94611,3626000,3,3.5,Piedmont,3593,17443,1915,12,1009,,Sold,,,http://www.redfin.com/CA/Piedmont/199-Lafayette-Ave-94611/home/1191009,EBRD/CCAR/Bay East,40808611,N,Y,37.8176438,-122.2268549
PAST SALE,February-9-2018,Multi-Family (2-4 Unit),2636 Benvenue Ave,Berkeley,CA,94704,1450000,10,6.0,Berkeley,,6360,1908,16,,,Sold,,,http://www.redfin.com/CA/Berkeley/2636-Benvenue-Ave-94704/home/1976211,EBRD/CCAR/Bay East,40806010,N,Y,37.862207,-122.255266
PAST SALE,January-28-2018,Condo/Co-op,1775 Panda Way #112,Hayward,CA,94541,420000,2,2.0,Hayward,900,,1980,28,467,388,Sold,,,http://www.redfin.com/CA/Hayward/1775-Panda-Way-94541/unit-112/home/968288,EBRD/CCAR/Bay East,40805438,N,Y,37.6763435,-122.0654123
PAST SALE,February-9-2018,Single Family Residential,22633 Mossy Rock Dr,Hayward,CA,94541,685000,3,2.0,Hay Hills,1280,5206,1978,16,535,,Sold,,,http://www.redfin.com/CA/Hayward/22633-Mossy-Rock-Dr-94541/home/542803,EBRD/CCAR/Bay East,40806322,N,Y,37.6867368,-122.0501627
PAST SALE,February-8-2018,Single Family Residential,23977 Mayville Dr,Hayward,CA,94541,780000,3,2.0,Fairview,1953,7917,1957,17,399,,Sold,,,http://www.redfin.com/CA/Hayward/23977-Mayville-Dr-94541/home/782691,EBRD/CCAR/Bay East,40807253,N,Y,37.6780844,-122.0544248
PAST SALE,January-26-2018,Single Family Residential,32203 Ashley Way,Union City,CA,94587,980000,4,2.5,Calif Gallery,1683,4738,1990,30,582,67,Sold,,,http://www.redfin.com/CA/Union-City/32203-Ashley-Way-94587/home/1942771,EBRD/CCAR/Bay East,40800932,N,Y,37.580312,-122.0800827
PAST SALE,February-5-2018,Multi-Family (2-4 Unit),422 Vernon St,Oakland,CA,94610,1157000,4,2.5,Adams Point,2757,4967,1909,20,420,,Sold,,,http://www.redfin.com/CA/Oakland/422-Vernon-St-94610/home/144627238,EBRD/CCAR/Bay East,40806432,N,Y,37.8167004,-122.2536607
PAST SALE,February-6-2018,Condo/Co-op,245 Perkins St #35,Oakland,CA,94610,460000,1,1.0,Adams Point,740,17016,1985,19,622,440,Sold,,,http://www.redfin.com/CA/Oakland/245-Perkins-St-94610/unit-35/home/144541377,EBRD/CCAR/Bay East,40806073,N,Y,37.81476,-122.255878
PAST SALE,February-8-2018,Condo/Co-op,2933 McClure St #9,Oakland,CA,94609,389000,1,1.0,Lower Rockridge,579,,2005,17,672,426,Sold,,,http://www.redfin.com/CA/Oakland/2933-McClure-St-94609/unit-9/home/2113310,EBRD/CCAR/Bay East,40806085,N,Y,37.8186604,-122.2665364
PAST SALE,February-23-2018,Condo/Co-op,233 ORANGE St #304,Oakland,CA,94610,561000,1,1.0,Adams Point,772,,1964,2,727,329,Sold,,,http://www.redfin.com/CA/Oakland/233-Orange-St-94610/unit-304/home/1545684,EBRD/CCAR/Bay East,40807200,N,Y,37.8158002,-122.2573724
PAST SALE,February-15-2018,Single Family Residential,6950 Saroni Dr,Oakland,CA,94611,1147000,3,2.0,Montclair,1550,6450,1948,10,740,,Sold,,,http://www.redfin.com/CA/Oakland/6950-Saroni-Dr-94611/home/1167761,EBRD/CCAR/Bay East,40806520,N,Y,37.8353544,-122.1975077
PAST SALE,February-21-2018,Single Family Residential,3167 Monterey Blvd,Oakland,CA,94602,1035000,3,2.5,Redwood Heights,2220,5694,1990,4,466,,Sold,,,http://www.redfin.com/CA/Oakland/3167-Monterey-Blvd-94602/home/536450,EBRD/CCAR/Bay East,40806356,N,Y,37.8065142,-122.1938299
PAST SALE,February-23-2018,Single Family Residential,6545 Shepherd Canyon Rd,Oakland,CA,94611,1225000,4,3.5,Montclair,3900,13770,2003,2,314,,Sold,,,http://www.redfin.com/CA/Oakland/6545-Shepherd-Canyon-Rd-94611/home/1366584,EBRD/CCAR/Bay East,40809201,N,Y,37.8319075,-122.1953129
PAST SALE,February-15-2018,Single Family Residential,6719 Eastlawn St,Oakland,CA,94621,409435,3,1.0,E Oakland,1014,4094,1944,10,404,,Sold,,,http://www.redfin.com/CA/Oakland/6719-Eastlawn-St-94621/home/1277557,EBRD/CCAR/Bay East,40806023,N,Y,37.7590812,-122.1955556
PAST SALE,February-9-2018,Single Family Residential,4455 E Castro Valley Blvd,Castro Valley,CA,94552,835000,3,2.0,Castro Valley,1540,31595,1963,16,542,,Sold,,,http://www.redfin.com/CA/Castro-Valley/4455-E-Castro-Valley-Blvd-94552/home/1529488,EBRD/CCAR/Bay East,40802759,N,Y,37.6971953,-122.046411
PAST SALE,February-13-2018,Multi-Family (2-4 Unit),1863 Magellan Dr,Oakland,CA,94611,1350000,5,3.0,Montclair,2377,6760,1955,12,568,,Sold,,,http://www.redfin.com/CA/Oakland/1863-Magellan-Dr-94611/home/620215,EBRD/CCAR/Bay East,40807005,N,Y,37.8287968,-122.2099657
PAST SALE,,Single Family Residential,6055 Snake Rd,Oakland,CA,94611,985000,3,2.0,,2407,5700,1963,,409,,,,,http://www.redfin.com/CA/Oakland/6055-Snake-Rd-94611/home/1963466,,,N,Y,37.8295967,-122.2072836
PAST SALE,February-16-2018,Single Family Residential,5726 Nottingham Dr,Oakland,CA,94611,1200000,3,2.0,Merriewood,1324,9063,1936,9,906,,Sold,,,http://www.redfin.com/CA/Oakland/5726-Nottingham-Dr-94611/home/1457740,EBRD/CCAR/Bay East,40808376,N,Y,37.8366236,-122.2137339
PAST SALE,February-22-2018,Single Family Residential,6326 Thornhill Dr,Oakland,CA,94611,965000,2,2.0,Montclair,1421,7950,1956,3,679,,Sold,,,http://www.redfin.com/CA/Oakland/6326-Thornhill-Dr-94611/home/1971107,EBRD/CCAR/Bay East,40807798,N,Y,37.8416263,-122.2078378
PAST SALE,February-23-2018,Single Family Residential,18040 Broadway Ter,Oakland,CA,94611,1400000,3,2.0,Montclair,1944,23271,1993,2,720,,Sold,,,http://www.redfin.com/CA/Oakland/18040-Broadway-Ter-94611/home/593380,EBRD/CCAR/Bay East,40808458,N,Y,37.8503726,-122.2124926
PAST SALE,February-23-2018,Single Family Residential,625 Spruce St,Berkeley,CA,94707-1729,1710000,4,3.0,North Cragmont,2468,6500,1936,2,693,,Sold,,,http://www.redfin.com/CA/Berkeley/625-Spruce-St-94707/home/1344090,EBRD/CCAR/Bay East,40807324,N,Y,37.899398,-122.270482
PAST SALE,January-27-2018,Townhouse,3967 Fossano Cmn,FREMONT,CA,94538,835000,2,2.5,FREMONT,1290,756,2017,29,647,234,Sold,,,http://www.redfin.com/CA/FREMONT/3967-FOSSANO-CMN-94538/home/143117740,MLSListings,ML81677249,N,Y,37.5042267,-121.9643745
PAST SALE,February-15-2018,Single Family Residential,4973 Valpey Park Ave,Fremont,CA,94538,1087000,3,2.0,Irvington,1347,7275,1962,10,807,,Sold,,,http://www.redfin.com/CA/Fremont/4973-Valpey-Park-Ave-94538/home/1787870,EBRD/CCAR/Bay East,40808277,N,Y,37.5197499,-121.9713725
PAST SALE,February-15-2018,Townhouse,2425 Monet Ter,Fremont,CA,94539,1020000,3,3.0,Weibel,1407,863,2012,10,725,172,Sold,,,http://www.redfin.com/CA/Fremont/2425-Monet-Ter-94539/home/40086919,EBRD/CCAR/Bay East,40807808,N,Y,37.5143223,-121.9372751
PAST SALE,,Single Family Residential,3811 Delaware Dr,Fremont,CA,94538,103000,3,2.0,,1248,6100,1960,,83,,,,,http://www.redfin.com/CA/Fremont/3811-Delaware-Dr-94538/home/915499,,,N,Y,37.5196356,-121.9542212
PAST SALE,February-19-2018,Single Family Residential,5048 Hyde Park Dr,FREMONT,CA,94538,1210000,3,2.0,FREMONT,1677,5700,1962,6,722,,Sold,,,http://www.redfin.com/CA/Fremont/5048-Hyde-Park-Dr-94538/home/1264379,MLSListings,ML81689805,N,Y,37.5124749,-121.970395
PAST SALE,February-23-2018,Single Family Residential,5684 Butano Park Dr,Fremont,CA,94538,1250000,4,2.0,Sundale,1692,5700,1963,2,739,,Sold,,,http://www.redfin.com/CA/Fremont/5684-Butano-Park-Dr-94538/home/534277,EBRD/CCAR/Bay East,40809205,N,Y,37.5148309,-121.9738032
PAST SALE,February-22-2018,Condo/Co-op,46824 Winema Cmn,FREMONT,CA,94539,605000,2,2.0,FREMONT,897,16826,1985,3,674,320,Sold,,,http://www.redfin.com/CA/Fremont/46824-Winema-Cmn-94539/home/1887558,MLSListings,ML81673706,N,Y,37.490068,-121.926158
PAST SALE,February-9-2018,Single Family Residential,1833 De Vaca Way,Livermore,CA,94550,600000,3,1.5,Ivanhoe Villas,1192,3360,1970,16,503,,Sold,,,http://www.redfin.com/CA/Livermore/1833-De-Vaca-Way-94550/home/1825867,EBRD/CCAR/Bay East,40806609,N,Y,37.669885,-121.769855
PAST SALE,January-26-2018,Single Family Residential,885 Junction Ave,LIVERMORE,CA,94551,655000,2,1.0,LIVERMORE,1077,5739,1979,30,608,,Sold,,,http://www.redfin.com/CA/Livermore/885-Junction-Ave-94551/home/880711,MLSListings,ML81686624,N,Y,37.6904843,-121.7746838
PAST SALE,January-26-2018,Condo/Co-op,490 Persimmon Cmn #7,Livermore,CA,94551,748000,3,2.5,Livermore,1667,,2017,30,449,358,Sold,,,http://www.redfin.com/CA/Livermore/490-Persimmon-Cmn-94551/unit-7/home/143118302,EBRD/CCAR/Bay East,40803335,N,Y,37.7031149,-121.7921249
PAST SALE,January-26-2018,Single Family Residential,2336 Palomino Rd,Livermore,CA,94551,780000,4,2.0,Springtown,1717,7180,1968,30,454,,Sold,,,http://www.redfin.com/CA/Livermore/2336-Palomino-Rd-94551/home/909045,EBRD/CCAR/Bay East,40806917,N,Y,37.7219482,-121.7456825
PAST SALE,February-1-2018,Single Family Residential,6893 Altamont Creek Dr,Livermore,CA,94551,950000,4,2.5,Northside,1870,8176,1998,24,508,,Sold,,,http://www.redfin.com/CA/Livermore/6893-Altamont-Creek-Dr-94551/home/925656,EBRD/CCAR/Bay East,40808345,N,Y,37.7215455,-121.7117527
PAST SALE,,Single Family Residential,981 Lisbon Ave,Livermore,CA,94550,600000,3,2.0,,1148,6200,1959,,523,,,,,http://www.redfin.com/CA/Livermore/981-Lisbon-Ave-94550/home/900755,,,N,Y,37.6708366,-121.7833404
PAST SALE,February-23-2018,Single Family Residential,6383 Owl Way,Livermore,CA,94551,937500,5,2.5,Maralisa Estates,2303,8033,1998,2,407,,Sold,,,http://www.redfin.com/CA/Livermore/6383-Owl-Way-94551/home/2007158,EBRD/CCAR/Bay East,40807102,N,Y,37.7199191,-121.7192564
PAST SALE,February-13-2018,Single Family Residential,7731 Inverness Dr,Newark,CA,94560,951000,4,2.0,Lido,1444,8000,1968,12,659,,Sold,,,http://www.redfin.com/CA/Newark/7731-Inverness-Dr-94560/home/855269,EBRD/CCAR/Bay East,40808945,N,Y,37.5370002,-122.0563782
PAST SALE,February-5-2018,Single Family Residential,6826 Cabernet Ave,Newark,CA,94560,965250,3,2.0,Lido Faire,1126,6100,1962,20,857,,Sold,,,http://www.redfin.com/CA/Newark/6826-Cabernet-Ave-94560/home/735786,EBRD/CCAR/Bay East,40807915,N,Y,37.540683,-122.0481648
PAST SALE,February-15-2018,Single Family Residential,6596 Normandy Dr,Newark,CA,94560-1133,930000,3,2.0,Lido Faire,1100,6000,1961,10,845,,Sold,,,http://www.redfin.com/CA/Newark/6596-Normandy-Dr-94560/home/858670,EBRD/CCAR/Bay East,40806517,N,Y,37.5443654,-122.0520412
PAST SALE,February-16-2018,Single Family Residential,1011 Overlook Rd,Berkeley,CA,94708,1110000,3,1.5,Park Hills,1681,5720,1961,9,660,25,Sold,,,http://www.redfin.com/CA/Berkeley/1011-Overlook-Rd-94708/home/2000980,EBRD/CCAR/Bay East,40807544,N,Y,37.8943288,-122.2565495
PAST SALE,January-26-2018,Condo/Co-op,1410 Thrush Ave #5,San Leandro,CA,94578,320500,2,1.0,San Leandro,749,,1994,30,428,313,Sold,,,http://www.redfin.com/CA/San-Leandro/1410-Thrush-Ave-94578/unit-5/home/1824717,EBRD/CCAR/Bay East,40801097,N,Y,37.7008373,-122.121107
PAST SALE,January-31-2018,Single Family Residential,6314 Honeysuckle Dr,Newark,CA,94560,875000,4,2.0,Mowry West,1522,7000,1965,25,575,,Sold,,,http://www.redfin.com/CA/Newark/6314-Honeysuckle-Dr-94560/home/530238,EBRD/CCAR/Bay East,40806869,N,Y,37.5293712,-122.0229656
PAST SALE,January-31-2018,Single Family Residential,5919 Woodbine Pl,Newark,CA,94560,1070000,4,2.0,Mowry West,1468,6022,1986,25,729,,Sold,,,http://www.redfin.com/CA/Newark/5919-Woodbine-Pl-94560/home/873151,EBRD/CCAR/Bay East,40806428,N,Y,37.530746,-122.0127733
PAST SALE,February-2-2018,Single Family Residential,37977 Manzanita St,Newark,CA,94560,1050000,3,2.0,Mowry West,1379,7140,1965,23,761,,Sold,,,http://www.redfin.com/CA/Newark/37977-Manzanita-St-94560/home/1331504,EBRD/CCAR/Bay East,40806452,N,Y,37.5273641,-122.0222329
PAST SALE,February-1-2018,Single Family Residential,103 Jervis Bay,Alameda,CA,94502,965000,3,2.5,Alameda,1691,2175,1989,24,571,289,Sold,,,http://www.redfin.com/CA/Alameda/103-Jervis-Bay-94502/home/741706,San Francisco MLS,464925,N,Y,37.7394954,-122.2509097
PAST SALE,February-23-2018,Single Family Residential,1848 33rd Ave,Oakland,CA,94601,635000,3,1.5,Fruitvale,1180,3375,1910,2,538,,Sold,,,http://www.redfin.com/CA/Oakland/1848-33rd-Ave-94601/home/2017466,EBRD/CCAR/Bay East,40806533,N,Y,37.782553,-122.2218521
PAST SALE,February-2-2018,Single Family Residential,,Hayward,CA,94544,799000,4,3.5,Hayward,2043,1700,2017,23,391,219,Sold,,,http://www.redfin.com/CA/Hayward/Undisclosed-address-94544/home/144364510,EBRD/CCAR/Bay East,40804424,N,Y,37.6270256,-122.0496521
PAST SALE,February-15-2018,Condo/Co-op,24737 Garwood Glen Dr,Hayward,CA,94544,585000,3,2.5,Hayward Hills,1620,,1981,10,361,546,Sold,,,http://www.redfin.com/CA/Hayward-Hills/24737-Garwood-Glen-Dr-94544/home/144658663,EBRD/CCAR/Bay East,40806790,N,Y,37.6264787,-122.0501423
PAST SALE,January-31-2018,Single Family Residential,32099 Chicoine Ave,Hayward,CA,94544,850000,4,3.0,El Rancho Verde,2438,13440,1957,25,349,,Sold,,,http://www.redfin.com/CA/Hayward/32099-Chicoine-Ave-94544/home/1845788,EBRD/CCAR/Bay East,40806683,N,Y,37.6161361,-122.0258744
PAST SALE,January-31-2018,Single Family Residential,116 Fay Ct,UNION CITY,CA,94587,710000,3,2.0,UNION CITY,1248,7520,1960,25,569,,Sold,,,http://www.redfin.com/CA/Union-City/116-Fay-Ct-94587/home/1418547,MLSListings,ML81669302,N,Y,37.608251,-122.032804
PAST SALE,,Single Family Residential,33402 5th St,Union City,CA,94587,300000,2,1.0,,696,5000,1930,,431,,,,,http://www.redfin.com/CA/Union-City/33402-5th-St-94587/home/1635745,,,N,Y,37.6037701,-122.0218887
PAST SALE,February-23-2018,Single Family Residential,353 Teddy Dr,UNION CITY,CA,94587,725000,3,2.0,UNION CITY,1025,5096,1957,2,707,,Sold,,,http://www.redfin.com/CA/Union-City/353-Teddy-Dr-94587/home/1707846,MLSListings,ML81689840,N,Y,37.6085361,-122.0261408
PAST SALE,February-23-2018,Condo/Co-op,114 Fanuncio Ln,Hayward,CA,94544,731049,4,3.5,Hayward,1921,,2018,2,381,318,Sold,,,http://www.redfin.com/CA/Hayward/114-Fanuncio-Ln-94544/home/141699067,EBRD/CCAR/Bay East,40788828,N,Y,37.6270256,-122.0496521
PAST SALE,February-15-2018,Condo/Co-op,122 Fanuncio Ln,Hayward,CA,94544,674476,3,2.5,Hayward,1817,,2018,10,371,318,Sold,,,http://www.redfin.com/CA/Hayward/122-Fanuncio-Ln-94544/home/137918003,EBRD/CCAR/Bay East,40787740,N,Y,37.6270256,-122.0496521
PAST SALE,February-15-2018,Single Family Residential,2735 Eagles Landing Ct,Dublin,CA,94568,1345000,4,3.0,Dublin Ranch,2801,6110,2003,10,480,79,Sold,,,http://www.redfin.com/CA/Dublin/2735-Eagles-Landing-Ct-94568/home/1941623,EBRD/CCAR/Bay East,40807159,N,Y,37.7177326,-121.8528141
PAST SALE,February-23-2018,Condo/Co-op,4795 Perugia St,Dublin,CA,94568,735000,2,2.5,Dublin Ranch,1493,,2011,2,492,404,Sold,,,http://www.redfin.com/CA/Dublin/4795-Perugia-St-94568/home/40087521,EBRD/CCAR/Bay East,40807769,N,Y,37.711579,-121.864304
PAST SALE,February-2-2018,Single Family Residential,1427 140Th Ave,San Leandro,CA,94578,621000,3,1.0,Alameda,1174,5432,1946,23,529,,Sold,,,http://www.redfin.com/CA/San-Leandro/1427-140th-Ave-94578/home/780848,EBRD/CCAR/Bay East,40802042,N,Y,37.7136924,-122.1394927
PAST SALE,February-16-2018,Townhouse,1116 Coburn Ct,San Leandro,CA,94578-3210,460000,2,2.0,Parkgreen Townhm,1137,1830,1977,9,405,479,Sold,,,http://www.redfin.com/CA/San-Leandro/1116-Coburn-Ct-94578/home/777928,EBRD/CCAR/Bay East,40802283,N,Y,37.7134947,-122.1463302
PAST SALE,February-21-2018,Single Family Residential,151 Castro St,San Leandro,CA,94577,850000,3,1.0,San Leandro,1296,9000,1917,4,656,,Sold,,,http://www.redfin.com/CA/San-Leandro/151-Castro-St-94577/home/762668,EBRD/CCAR/Bay East,40807704,N,Y,37.7195345,-122.1518749
PAST SALE,February-22-2018,Single Family Residential,1473 Montrose Dr,San Leandro,CA,94577,935000,3,2.0,Bay O Vista,1858,13692,1956,3,503,,Sold,,,http://www.redfin.com/CA/San-Leandro/1473-Montrose-Dr-94577/home/1747732,EBRD/CCAR/Bay East,40808192,N,Y,37.7223641,-122.1312868
PAST SALE,February-23-2018,Single Family Residential,,Dublin,CA,94568,660000,4,2.0,Dublin,1338,6999,1962,2,493,,Sold,,,http://www.redfin.com/CA/Dublin/Undisclosed-address-94568/home/1059723,EBRD/CCAR/Bay East,40811468,N,Y,37.7183673,-121.9272003
PAST SALE,February-9-2018,Townhouse,958 Castlewood Way,HAYWARD,CA,94541,515888,2,1.5,HAYWARD,1270,960,1973,16,406,415,Sold,,,http://www.redfin.com/CA/Hayward/958-Castlewood-Way-94541/home/986991,MLSListings,ML81688015,N,Y,37.667602,-122.123087
PAST SALE,February-13-2018,Single Family Residential,1599 164TH Ave,San Leandro,CA,94578,540000,2,1.0,San Leandro Brdr,778,4500,1952,12,694,,Sold,,,http://www.redfin.com/CA/San-Leandro/1599-164th-Ave-94578/home/567623,EBRD/CCAR/Bay East,40806951,N,Y,37.698234,-122.1096839
PAST SALE,February-13-2018,Single Family Residential,16016 Via Descanso,San Lorenzo,CA,94580,583000,3,1.0,San Lorenzo Vilg,1000,6000,1944,12,583,10,Sold,,,http://www.redfin.com/CA/San-Lorenzo/16016-Via-Descanso-94580/home/933429,EBRD/CCAR/Bay East,40806961,N,Y,37.6805113,-122.1240156
PAST SALE,February-15-2018,Single Family Residential,621 Via Alamo,San Lorenzo,CA,94580,620000,3,1.0,San Lorenzo Vilg,1068,5098,1948,10,581,10,Sold,,,http://www.redfin.com/CA/San-Lorenzo/621-Via-Alamo-94580/home/782061,EBRD/CCAR/Bay East,40806911,N,Y,37.6732259,-122.1246367
PAST SALE,January-30-2018,Single Family Residential,732 Penny Ln,Hayward,CA,94541,731000,4,2.5,Hayward,1567,3462,1990,26,466,47,Sold,,,http://www.redfin.com/CA/Hayward/732-Penny-Ln-94541/home/1962363,EBRD/CCAR/Bay East,40806290,N,Y,37.6701612,-122.119845
PAST SALE,February-20-2018,Single Family Residential,1454 Plaza Dr,San Leandro,CA,94578,535000,2,1.0,Alameda County,1198,5500,1928,5,447,,Sold,,,http://www.redfin.com/CA/San-Leandro/1454-Plaza-Dr-94578/home/1580996,EBRD/CCAR/Bay East,40805765,N,Y,37.7024944,-122.1229508
PAST SALE,January-30-2018,Townhouse,34161 Firenze Ter,FREMONT,CA,94555,880100,2,2.5,FREMONT,1246,46694,2013,26,706,220,Sold,,,http://www.redfin.com/CA/Fremont/34161-Firenze-Ter-94555/home/40627647,MLSListings,ML81686485,N,Y,37.5598609,-122.0618951
PAST SALE,February-20-2018,Single Family Residential,34349 Tupelo St,Fremont,CA,94555,1465000,4,3.0,Ardenwood,1929,3600,1991,5,759,40,Sold,,,http://www.redfin.com/CA/Fremont/34349-Tupelo-St-94555/home/1153395,EBRD/CCAR/Bay East,40808430,N,Y,37.5589113,-122.0575769
PAST SALE,February-6-2018,Single Family Residential,2247 Bluffs Ct,Livermore,CA,94551,1264000,5,3.0,The Bluffs,3137,12732,2000,19,403,79,Sold,,,http://www.redfin.com/CA/Livermore/2247-Bluffs-Ct-94551/home/1210621,EBRD/CCAR/Bay East,40807594,N,Y,37.7297657,-121.7138681
PAST SALE,January-31-2018,Single Family Residential,1088 Auburn St,Livermore,CA,94550,810000,3,2.0,Mis-Match,1656,6558,1968,25,489,,Sold,,,http://www.redfin.com/CA/Livermore/1088-Auburn-St-94550/home/580116,EBRD/CCAR/Bay East,40806467,N,Y,37.678539,-121.7414307
PAST SALE,February-15-2018,Single Family Residential,1744 Astor Ct,San Leandro,CA,94577,968000,4,2.5,San Leandro Hlls,2964,11100,1987,10,327,,Sold,,,http://www.redfin.com/CA/San-Leandro/1744-Astor-Ct-94577/home/665848,EBRD/CCAR/Bay East,40806766,N,Y,37.7283172,-122.1292508
PAST SALE,January-31-2018,Single Family Residential,3622 Germaine Way,Livermore,CA,94550,667000,3,1.0,Jensen Tract,1038,5300,1953,25,643,,Sold,,,http://www.redfin.com/CA/Livermore/3622-Germaine-Way-94550/home/541311,EBRD/CCAR/Bay East,40806599,N,Y,37.6850574,-121.7570569
PAST SALE,February-16-2018,Condo/Co-op,186 Teasel Cmn,Livermore,CA,94551,778000,3,2.5,Livermore,1765,,2017,9,441,358,Sold,,,http://www.redfin.com/CA/LIVERMORE/186-TEASEL-CMN-94551/home/143118164,EBRD/CCAR/Bay East,40805415,N,Y,37.7537708,-121.7879244
PAST SALE,January-26-2018,Townhouse,35185 11th St,Union City,CA,94587,750000,2,2.5,Park Ridge,1203,,2007,30,623,210,Sold,,,http://www.redfin.com/CA/Union-City/35185-11th-St-94587/home/12117239,EBRD/CCAR/Bay East,40807251,N,Y,37.5888967,-122.0116458
PAST SALE,January-31-2018,Single Family Residential,1158 72Nd Ave,Oakland,CA,94621,355000,2,1.0,E Oakland,1080,5000,1928,25,329,,Sold,,,http://www.redfin.com/CA/Oakland/1158-72nd-Ave-94621/home/1970746,EBRD/CCAR/Bay East,40795870,N,Y,37.758013,-122.1900587
PAST SALE,February-23-2018,Multi-Family (2-4 Unit),5809 Elizabeth St,Oakland,CA,94621,730000,9,5.0,East Oakland,3941,5610,1965,2,185,,Sold,,,http://www.redfin.com/CA/Oakland/5809-Elizabeth-St-94621/home/572607,EBRD/CCAR/Bay East,40807824,N,Y,37.7694415,-122.1947029
PAST SALE,February-23-2018,Single Family Residential,6206 harmon,Oakland,CA,94621,385000,2,1.0,Havenscourt,768,1850,1926,2,501,,Sold,,,http://www.redfin.com/CA/Oakland/6206-Harmon-Ave-94621/home/1465766,EBRD/CCAR/Bay East,40806133,N,Y,37.7665367,-122.1931091
PAST SALE,February-16-2018,Single Family Residential,3450 38Th Ave,Oakland,CA,94619,613000,3,2.0,Laurel,1222,2765,1923,9,502,,Sold,,,http://www.redfin.com/CA/Oakland/3450-38th-Ave-94619/home/550027,EBRD/CCAR/Bay East,40802150,N,Y,37.7896956,-122.1994158
PAST SALE,February-22-2018,Single Family Residential,15011 Wengate St,San Leandro,CA,94579,700000,3,2.0,Washington Manor,1750,5130,1954,3,400,,Sold,,,http://www.redfin.com/CA/San-Leandro/15011-Wengate-St-94579/home/814072,EBRD/CCAR/Bay East,40806758,N,Y,37.6906902,-122.161411
PAST SALE,January-29-2018,Single Family Residential,4507 Spring Mountain Way,Dublin,CA,94568,1420000,5,5.5,Dublin,4300,4975,2017,27,330,255,Sold,,,http://www.redfin.com/CA/Dublin/4507-Spring-Mountain-Way-94568/home/143118852,EBRD/CCAR/Bay East,40805069,N,Y,37.7363143,-121.8799483
PAST SALE,February-22-2018,Single Family Residential,6445 Ebensburg Ln,Dublin,CA,94568-2528,850000,4,2.5,Echo Park,1830,5165,1966,3,464,,Sold,,,http://www.redfin.com/CA/Dublin/6445-Ebensburg-Ln-94568/home/1480579,EBRD/CCAR/Bay East,40809556,N,Y,37.7068494,-121.9179103
PAST SALE,February-20-2018,Single Family Residential,314 Lorraine Blvd,San Leandro,CA,94577,755000,2,1.0,La Chateauhurst,1166,4400,1940,5,648,,Sold,,,http://www.redfin.com/CA/San-Leandro/314-Lorraine-Blvd-94577/home/753170,EBRD/CCAR/Bay East,40808342,N,Y,37.7277566,-122.1628746
PAST SALE,February-21-2018,Single Family Residential,108 Hunter Ave,Oakland,CA,94603,435000,2,1.0,Brookfield Villg,825,4056,1943,4,527,,Sold,,,http://www.redfin.com/CA/Oakland/108-Hunter-Ave-94603/home/1096794,EBRD/CCAR/Bay East,40807174,N,Y,37.7297981,-122.1855803
PAST SALE,January-26-2018,Single Family Residential,2459 Shield Dr,Union City,CA,94587,920000,4,2.0,Union City,1463,8600,1969,30,629,,Sold,,,http://www.redfin.com/CA/Union-City/2459-Shield-Dr-94587/home/1552361,EBRD/CCAR/Bay East,40806011,N,Y,37.6010897,-122.0532261
PAST SALE,February-14-2018,Condo/Co-op,5878 BIRCH Ct,Oakland,CA,94618,1375000,2,1.0,Prime Rockridge,1117,,1941,11,1231,230,Sold,,,http://www.redfin.com/CA/Oakland/5878-Birch-Ct-94618/home/2111781,EBRD/CCAR/Bay East,40808471,N,Y,37.847119,-122.249524
PAST SALE,February-8-2018,Single Family Residential,33905 Abercrombie Pl,Fremont,CA,94555,1650000,6,3.5,Northgate,2877,8541,1976,17,574,,Sold,,,http://www.redfin.com/CA/Fremont/33905-Abercrombie-Pl-94555/home/2035236,EBRD/CCAR/Bay East,40806953,N,Y,37.580504,-122.0420598
PAST SALE,February-13-2018,Single Family Residential,33135 Lake Champlain St,Fremont,CA,94555,815000,3,2.0,North Fremont,1060,3470,1969,12,769,,Sold,,,http://www.redfin.com/CA/Fremont/33135-Lake-Champlain-St-94555/home/1432996,EBRD/CCAR/Bay East,40807256,N,Y,37.5853075,-122.0541918
PAST SALE,,Single Family Residential,7106 Favor St,Oakland,CA,94621,445000,5,2.0,,1812,5800,1924,,246,,,,,http://www.redfin.com/CA/Oakland/7106-Favor-St-94621/home/1268269,,,N,Y,37.7626313,-122.1846934
PAST SALE,February-1-2018,Single Family Residential,8115 Hillside St,Oakland,CA,94605,435000,3,2.0,Oakland,1092,3240,1928,24,398,,Sold,,,http://www.redfin.com/CA/Oakland/8115-Hillside-St-94605/home/1809389,EBRD/CCAR/Bay East,40795729,N,Y,37.7617906,-122.168108
PAST SALE,February-14-2018,Single Family Residential,5115 Fairhill Ct,Oakland,CA,94605,1225000,3,2.5,Ridgemont,2173,28400,1987,11,564,,Sold,,,http://www.redfin.com/CA/Oakland/5115-Fairhill-Ct-94605/home/1820927,EBRD/CCAR/Bay East,40808098,N,Y,37.7745583,-122.1490826
PAST SALE,February-21-2018,Single Family Residential,3965 Fairway Ave,Oakland,CA,94605,805000,3,2.0,Sequoyah Hills,1732,6649,1954,4,465,,Sold,,,http://www.redfin.com/CA/Oakland/3965-Fairway-Ave-94605/home/618838,EBRD/CCAR/Bay East,40807845,N,Y,37.7596424,-122.1457535
PAST SALE,February-18-2018,Single Family Residential,2193 Corte Hornitos,San Lorenzo,CA,94580-1908,745000,3,2.0,San Lorenzo Vilg,1548,7548,1956,7,481,10,Sold,,,http://www.redfin.com/CA/San-Lorenzo/2193-Corte-Hornitos-94580/home/1503013,EBRD/CCAR/Bay East,40807532,N,Y,37.6714452,-122.150899
PAST SALE,January-26-2018,Multi-Family (2-4 Unit),9556 Crow Canyon Rd,Castro Valley,CA,94552,1800000,7,6.0,Castro Valley,4350,170230,1954,30,414,,Sold,,,http://www.redfin.com/CA/Castro-Valley/9556-Crow-Canyon-Rd-94552/home/835061,EBRD/CCAR/Bay East,40799321,N,Y,37.7429736,-122.0319328
PAST SALE,January-26-2018,Single Family Residential,2981 106 Ave,Oakland,CA,94605,429000,2,1.0,699 - Not Defined,965,6050,1925,30,445,,Sold,,,http://www.redfin.com/CA/Oakland/2981-106th-Ave-94605/home/1457186,CRMLS,CV17258582,N,Y,37.7459,-122.1478827
PAST SALE,February-20-2018,Single Family Residential,149 Marlow Dr,Oakland,CA,94605,715000,2,1.0,Oakland,885,7720,1941,5,808,8,Sold,,,http://www.redfin.com/CA/Oakland/149-Marlow-Dr-94605/home/551896,EBRD/CCAR/Bay East,40807743,N,Y,37.737828,-122.1368814
PAST SALE,February-21-2018,Single Family Residential,1903 Asilomar Dr,Oakland,CA,94611,1451000,3,2.0,Montclair Hills,1700,6726,1945,4,854,,Sold,,,http://www.redfin.com/CA/Oakland/1903-Asilomar-Dr-94611/home/617690,EBRD/CCAR/Bay East,40807631,N,Y,37.8327443,-122.2053571
PAST SALE,February-2-2018,Single Family Residential,38321 Timpanogas Cir,Fremont,CA,94536,1127000,4,3.0,Niles,2010,6004,2017,23,561,,Sold,,,http://www.redfin.com/CA/Fremont/38321-Timponogas-Cir-94536/home/144040542,EBRD/CCAR/Bay East,40800206,N,Y,37.5777336,-121.9635965
PAST SALE,February-20-2018,Condo/Co-op,39199 Guardino #169,FREMONT,CA,94538,603000,2,2.0,FREMONT,1077,,1987,5,560,470,Sold,,,http://www.redfin.com/CA/Fremont/39199-Guardino-Dr-94538/unit-169/home/1740427,MLSListings,ML81688902,N,Y,37.5572761,-121.9700429
PAST SALE,February-8-2018,Single Family Residential,,Oakland,CA,94605,530000,2,2.0,Oak Knoll,1758,6858,1948,17,301,,Sold,,,http://www.redfin.com/CA/Oakland/Undisclosed-address-94605/home/963581,EBRD/CCAR/Bay East,40804570,N,Y,37.7592048,-122.1500119
PAST SALE,January-31-2018,Single Family Residential,3325 Sarazen Ave,Oakland,CA,94605,800000,3,2.0,Oak Knoll,1359,8500,1961,25,589,,Sold,,,http://www.redfin.com/CA/Oakland/3325-Sarazen-Ave-94605/home/586401,EBRD/CCAR/Bay East,40806538,N,Y,37.7587296,-122.1542701
PAST SALE,February-20-2018,Single Family Residential,9600 Golf Links,Oakland,CA,94605,720000,2,1.0,Oak Knoll,1365,5664,1938,5,527,,Sold,,,http://www.redfin.com/CA/Oakland/9600-Golf-Links-Rd-94605/home/1937096,EBRD/CCAR/Bay East,40808482,N,Y,37.754725,-122.1522297
PAST SALE,February-15-2018,Single Family Residential,9918 Lawlor St,OAKLAND,CA,94605,660000,3,2.0,OAKLAND,1417,4680,1947,10,466,,Sold,,,http://www.redfin.com/CA/Oakland/9918-Lawlor-St-94605/home/679242,MLSListings,ML81688654,N,Y,37.7475557,-122.1545806
PAST SALE,February-14-2018,Single Family Residential,1329 West St,Hayward,CA,94545,650000,3,2.0,Mt Eden,1227,7785,1955,11,530,,Sold,,,http://www.redfin.com/CA/Hayward/1329-West-St-94545/home/1931316,EBRD/CCAR/Bay East,40803185,N,Y,37.6471348,-122.1099723
PAST SALE,February-23-2018,Single Family Residential,26121 DODGE Ave,Hayward,CA,94545-3049,655000,3,2.0,Eden Gardens,1107,4968,1957,2,592,,Sold,,,http://www.redfin.com/CA/Hayward/26121-Dodge-Ave-94545/home/1412757,EBRD/CCAR/Bay East,40807517,N,Y,37.636559,-122.1060896
PAST SALE,February-6-2018,Single Family Residential,,San Leandro,CA,94577,600000,2,1.0,Downtown San Lea,990,7500,1880,19,606,,Sold,,,http://www.redfin.com/CA/San-Leandro/Undisclosed-address-94577/home/1546985,EBRD/CCAR/Bay East,40807622,N,Y,37.718555,-122.1543588
PAST SALE,February-14-2018,Condo/Co-op,227 Castro St,San Leandro,CA,94577,420000,2,2.0,Downtown San Lea,1236,,1967,11,340,289,Sold,,,http://www.redfin.com/CA/San-Leandro/227-Castro-St-94577/home/1145946,EBRD/CCAR/Bay East,40806893,N,Y,37.718955,-122.153117
PAST SALE,February-17-2018,Single Family Residential,840 Billings Blvd,San Leandro,CA,94577,565000,3,1.0,San Leandro Brdr,1193,5200,1943,8,474,,Sold,,,http://www.redfin.com/CA/San-Leandro/840-Billings-Blvd-94577/home/1804764,EBRD/CCAR/Bay East,40805191,N,Y,37.7231539,-122.176401
PAST SALE,February-15-2018,Single Family Residential,25761 Spring Dr,Hayward,CA,94542,695000,3,1.5,Hayward Area,1560,5200,1951,10,446,,Sold,,,http://www.redfin.com/CA/Hayward/25761-Spring-Dr-94542/home/1947931,EBRD/CCAR/Bay East,40806957,N,Y,37.654844,-122.0669882
PAST SALE,February-13-2018,Single Family Residential,35052 Hollyhock St,Union City,CA,94587,1300000,3,4.0,Creekside,2898,8988,1971,12,449,,Sold,,,http://www.redfin.com/CA/Union-City/35052-Hollyhock-St-94587/home/530125,EBRD/CCAR/Bay East,40806007,N,Y,37.5778543,-122.0166594
PAST SALE,February-6-2018,Single Family Residential,11593 Ladera Ct,Dublin,CA,94568,920000,4,2.0,Silvergate,1760,8999,1963,19,523,,Sold,,,http://www.redfin.com/CA/Dublin/11593-Ladera-Ct-94568/home/1713646,EBRD/CCAR/Bay East,40806531,N,Y,37.7067192,-121.9446557
PAST SALE,February-14-2018,Single Family Residential,1785 Greenwood Rd,Pleasanton,CA,94566,1410000,4,3.0,Pleasanton Vally,2125,8164,1966,11,664,,Sold,,,http://www.redfin.com/CA/Pleasanton/1785-Greenwood-Rd-94566/home/862537,EBRD/CCAR/Bay East,40807141,N,Y,37.6744054,-121.8801423
PAST SALE,February-15-2018,Condo/Co-op,275 Hackamore Cmn,Fremont,CA,94539,661000,2,1.0,Warm Springs,878,,1984,10,753,374,Sold,,,http://www.redfin.com/CA/Fremont/275-Hackamore-Cmn-94539/unit-117/home/1095250,EBRD/CCAR/Bay East,40807973,N,Y,37.4863299,-121.9246121
PAST SALE,February-21-2018,Townhouse,3835 Belmont Way,Pleasanton,CA,94588,550000,2,1.5,Fairlands Park,1120,787,1977,4,491,225,Sold,,,http://www.redfin.com/CA/Pleasanton/3835-Belmont-Way-94588/home/1110606,EBRD/CCAR/Bay East,40808359,N,Y,37.700461,-121.867404
PAST SALE,January-31-2018,Single Family Residential,45212 S Grimmer Blvd,Fremont,CA,94539,2780000,6,5.5,Fremont,4992,18354,2008,25,557,,Sold,,,http://www.redfin.com/CA/Fremont/45212-S-Grimmer-Blvd-94539/home/17104257,EBRD/CCAR/Bay East,40791070,N,Y,37.5072512,-121.9243333
PAST SALE,January-31-2018,Condo/Co-op,46905 Lundy Ter,Fremont,CA,94539,700000,2,1.0,Mission Meadows,1070,,1981,25,654,330,Sold,,,http://www.redfin.com/CA/Fremont/46905-Lundy-Ter-94539/home/1493004,EBRD/CCAR/Bay East,40806629,N,Y,37.488774,-121.925261
PAST SALE,January-26-2018,Single Family Residential,36627 Beutke Dr,Newark,CA,94560,745000,3,1.5,Newark,1073,5000,1957,30,694,,Sold,,,http://www.redfin.com/CA/Newark/36627-Beutke-Dr-94560/home/1860296,EBRD/CCAR/Bay East,40805506,N,Y,37.5321844,-122.0428368
PAST SALE,February-2-2018,Single Family Residential,8092 Olympic Ct,Newark,CA,94560,1225000,4,2.5,Newark,1953,8257,1976,23,627,,Sold,,,http://www.redfin.com/CA/Newark/8092-Olympic-Ct-94560/home/853752,EBRD/CCAR/Bay East,40806462,N,Y,37.5321978,-122.0515834
PAST SALE,February-14-2018,Single Family Residential,8478 Persimmon Pl,Newark,CA,94560,1260000,4,2.5,Newark,1946,8708,1973,11,647,,Sold,,,http://www.redfin.com/CA/Newark/8478-Persimmon-Pl-94560/home/1995699,EBRD/CCAR/Bay East,40809190,N,Y,37.5262425,-122.05165
PAST SALE,January-31-2018,Single Family Residential,36639 Beutke Dr,Newark,CA,94560,774000,4,3.0,Newark,1853,5000,1972,25,418,,Sold,,,http://www.redfin.com/CA/Newark/36639-Beutke-Dr-94560/home/849433,EBRD/CCAR/Bay East,40805081,N,Y,37.5320269,-122.0426148
PAST SALE,February-7-2018,Single Family Residential,5333 SHATTUCK,Fremont,CA,94555-3857,1250000,3,2.5,Forest Park,1812,3244,1989,18,690,85,Sold,,,http://www.redfin.com/CA/Fremont/5333-Shattuck-Ave-94555/home/1159043,EBRD/CCAR/Bay East,40807109,N,Y,37.5616281,-122.0536701
PAST SALE,February-21-2018,Condo/Co-op,323 Monte Vista Ave #304,Oakland,CA,94611,640000,2,1.0,Piedmont Avenue,881,24884,1967,4,726,401,Sold,,,http://www.redfin.com/CA/Oakland/323-Monte-Vista-Ave-94611/unit-304/home/762772,EBRD/CCAR/Bay East,40807039,N,Y,37.8223169,-122.2501293
PAST SALE,February-23-2018,Single Family Residential,505 Tudor Rd,San Leandro,CA,94577,585000,2,1.0,Davis West,985,5100,1948,2,594,,Sold,,,http://www.redfin.com/CA/San-Leandro/505-Tudor-Rd-94577/home/1547325,EBRD/CCAR/Bay East,40808080,N,Y,37.7238446,-122.1849151
PAST SALE,January-26-2018,Townhouse,7445 Rolling Hills Cir,Dublin,CA,94568,720000,2,2.5,Westside,1566,2055,1988,30,460,275,Sold,,,http://www.redfin.com/CA/Dublin/7445-Rolling-Hills-Cir-94568/home/1160922,EBRD/CCAR/Bay East,40806526,N,Y,37.705647,-121.945081
PAST SALE,February-6-2018,Single Family Residential,,Dublin,CA,94568,917000,4,2.5,Echo Park,1830,8251,1966,19,501,,Sold,,,http://www.redfin.com/CA/Dublin/Undisclosed-address-94568/home/1168336,EBRD/CCAR/Bay East,40806488,N,Y,37.7073197,-121.9227998
PAST SALE,February-2-2018,Single Family Residential,8296 Davona Dr,Dublin,CA,94568,770000,3,2.0,Dublin,1116,6872,1963,23,690,,Sold,,,http://www.redfin.com/CA/Dublin/8296-Davona-Dr-94568/home/1944809,EBRD/CCAR/Bay East,40807809,N,Y,37.7215036,-121.9279559
PAST SALE,February-9-2018,Single Family Residential,11296 Rothschild Ct,Dublin,CA,94568,1340000,4,2.5,Bordeaux Estates,2850,11021,1990,16,470,22,Sold,,,http://www.redfin.com/CA/Dublin/11296-Rothschild-Ct-94568/home/1806410,EBRD/CCAR/Bay East,40806178,N,Y,37.708664,-121.951747
PAST SALE,February-13-2018,Single Family Residential,8249 Elgin Ln,Dublin,CA,94568,780000,3,2.0,Glen Oaks,1116,7500,1962,12,699,,Sold,,,http://www.redfin.com/CA/Dublin/8249-Elgin-Ln-94568/home/1960640,EBRD/CCAR/Bay East,40806458,N,Y,37.7180246,-121.9345339
PAST SALE,February-14-2018,Single Family Residential,11473 Marwick Dr,Dublin,CA,94568,1200000,4,2.5,Dublin Hills,2465,23972,1988,11,487,,Sold,,,http://www.redfin.com/CA/Dublin/11473-Marwick-Dr-94568/home/1177153,EBRD/CCAR/Bay East,40807746,N,Y,37.7195562,-121.9508884
PAST SALE,February-12-2018,Condo/Co-op,7323 Starward Dr #13,Dublin,CA,94568,353300,1,1.0,Dublin,698,,1970,13,506,315,Sold,,,http://www.redfin.com/CA/Dublin/7323-Starward-Dr-94568/unit-13/home/12119183,EBRD/CCAR/Bay East,40806375,N,Y,37.7081672,-121.9343343
PAST SALE,January-29-2018,Townhouse,4225 Sheldon Cir,Pleasanton,CA,94588,600000,2,2.0,Brookfield Place,1118,1260,1985,27,537,318,Sold,,,http://www.redfin.com/CA/Pleasanton/4225-Sheldon-Cir-94588/home/1840509,EBRD/CCAR/Bay East,40804303,N,Y,37.6764161,-121.9151209
PAST SALE,February-13-2018,Single Family Residential,6744 Maple Dr,Dublin,CA,94568-2553,830000,4,2.5,Echo Park,1830,5538,1966,12,454,,Sold,,,http://www.redfin.com/CA/Dublin/6744-Maple-Dr-94568/home/547513,EBRD/CCAR/Bay East,40802070,N,Y,37.7071144,-121.9224887
PAST SALE,February-1-2018,Single Family Residential,7013 N MARIPOSA Ln,Dublin,CA,94568,853000,4,3.5,Dublin,2150,1472,2013,24,397,146,Sold,,,http://www.redfin.com/CA/Dublin/7013-N-Mariposa-Ln-94568/home/50264157,EBRD/CCAR/Bay East,40807213,N,Y,37.7165118,-121.910714
PAST SALE,,Multi-Family (2-4 Unit),379 Blossom Way,Hayward,CA,94541,961500,6,3.0,,2344,8164,1953,,410,,,,,http://www.redfin.com/CA/Hayward/379-Blossom-Way-94541/home/1556941,,,N,Y,37.6775144,-122.1054683
PAST SALE,February-9-2018,Condo/Co-op,260 Sunset Blvd #29,Hayward,CA,94541,361000,2,1.5,Hayward,926,,1981,16,390,330,Sold,,,http://www.redfin.com/CA/Hayward/260-Sunset-Blvd-94541/unit-29/home/1305157,EBRD/CCAR/Bay East,40807539,N,Y,37.673135,-122.100942
PAST SALE,,Single Family Residential,7793 Fairbrook Ct,Pleasanton,CA,94588,1012000,5,2.0,,2460,15717,1968,,411,,,,,http://www.redfin.com/CA/Pleasanton/7793-Fairbrook-Ct-94588/home/1170993,,,N,Y,37.6823947,-121.9231777
PAST SALE,February-6-2018,Single Family Residential,3076 Randall Way,Hayward,CA,94541,660000,3,2.0,Hay Hills,1374,7700,1962,19,480,,Sold,,,http://www.redfin.com/CA/Hayward/3076-Randall-Way-94541/home/965723,EBRD/CCAR/Bay East,40809232,N,Y,37.6760421,-122.0510507
PAST SALE,February-6-2018,Single Family Residential,36657 Lakewood Ct,Newark,CA,94560,975000,3,2.0,Hill Vista,1144,6600,1962,19,852,,Sold,,,http://www.redfin.com/CA/Newark/36657-Lakewood-Ct-94560/home/1538531,EBRD/CCAR/Bay East,40806960,N,Y,37.5466734,-122.0272319
PAST SALE,,Single Family Residential,36684 Capistrano Dr,Fremont,CA,94536,820000,3,2.0,,1406,6285,1955,,583,,,,,http://www.redfin.com/CA/Fremont/36684-Capistrano-Dr-94536/home/2032975,,,N,Y,37.5526416,-122.0222329
PAST SALE,,Single Family Residential,1004 Versailles Ave,Alameda,CA,94501,2369909,2,1.0,,1080,2646,1922,,2194,,,,,http://www.redfin.com/CA/Alameda/1004-Versailles-Ave-94501/home/1259671,,,N,Y,37.7556076,-122.2412153
PAST SALE,January-26-2018,Single Family Residential,4136 Penniman Ct,Oakland,CA,94619,380000,1,1.0,Laurel District,737,2900,1922,30,516,,Sold,,,http://www.redfin.com/CA/Oakland/4136-Penniman-Ave-94619/home/1587612,EBRD/CCAR/Bay East,40799330,N,Y,37.7853523,-122.2010885
PAST SALE,,Single Family Residential,6124 Laird Ave,Oakland,CA,94605,650000,3,2.0,,2068,5772,1930,,314,,,,,http://www.redfin.com/CA/Oakland/6124-Laird-Ave-94605/home/1891590,,,N,Y,37.7771976,-122.1801482
PAST SALE,February-22-2018,Single Family Residential,1724 Broadway,Alameda,CA,94501,870000,2,1.0,East End,1755,3800,1923,3,496,,Sold,,,http://www.redfin.com/CA/Alameda/1724-Broadway-94501/home/1519530,EBRD/CCAR/Bay East,40805374,N,Y,37.7666016,-122.235365
PAST SALE,February-9-2018,Single Family Residential,5214 Reedley Way,Castro Valley,CA,94546,930000,3,2.0,Proctor,1618,5000,1965,16,575,,Sold,,,http://www.redfin.com/CA/Castro-Valley/5214-Reedley-Way-94546/home/1205116,EBRD/CCAR/Bay East,40807216,N,Y,37.7165483,-122.0697955
PAST SALE,February-13-2018,Single Family Residential,5128 Camino Alta Mira,Castro Valley,CA,94546,840000,3,2.0,Upper Redwood,1486,13386,1974,12,565,,Sold,,,http://www.redfin.com/CA/Castro-Valley/5128-Camino-Alta-Mira-94546/home/827799,EBRD/CCAR/Bay East,40806878,N,Y,37.7205674,-122.0716491
PAST SALE,February-9-2018,Single Family Residential,4327 Malcolm Ave,Oakland,CA,94605,778000,3,2.0,Chabot Park,1590,12000,1955,16,489,,Sold,,,http://www.redfin.com/CA/Oakland/4327-Malcolm-Ave-94605/home/599982,EBRD/CCAR/Bay East,40804394,N,Y,37.7523127,-122.131336
PAST SALE,February-22-2018,Townhouse,77 Ironwood,Oakland,CA,94605,725000,3,2.5,Sequoyah Heights,1636,2405,1977,3,443,435,Sold,,,http://www.redfin.com/CA/Oakland/77-Ironwood-94605/home/603859,EBRD/CCAR/Bay East,40807902,N,Y,37.7644053,-122.1284516
PAST SALE,February-15-2018,Single Family Residential,7628 Surrey Ln,Oakland,CA,94605,945000,4,3.0,Sequoyah Hills,1925,9170,1966,10,491,,Sold,,,http://www.redfin.com/CA/Oakland/7628-Surrey-Ln-94605/home/1937022,EBRD/CCAR/Bay East,40802174,N,Y,37.7800831,-122.1425211
PAST SALE,January-26-2018,Single Family Residential,1523 Woolsey St,Berkeley,CA,94703,800000,3,1.5,Berkeley,1202,4995,1942,30,666,,Sold,,,http://www.redfin.com/CA/Berkeley/1523-Woolsey-St-94703/home/1364748,EBRD/CCAR/Bay East,40805640,N,Y,37.8509445,-122.2773737
PAST SALE,,Single Family Residential,1029 Aileen St,Oakland,CA,94608,400000,2,1.0,,1154,3861,1917,,347,,,,,http://www.redfin.com/CA/Oakland/1029-Aileen-St-94608/home/1194870,,,N,Y,37.8399995,-122.2793231
PAST SALE,,Single Family Residential,841 Alvarado Rd,Berkeley,CA,94705,850000,2,1.0,,1000,6165,1954,,850,,,,,http://www.redfin.com/CA/Berkeley/841-Alvarado-Rd-94705/home/630371,,,N,Y,37.8610152,-122.2376254
PAST SALE,,Single Family Residential,5880 Doyle St,Emeryville,CA,94608,235000,3,2.0,,1401,5000,1935,,168,,,,,http://www.redfin.com/CA/Emeryville/5880-Doyle-St-94608/home/1458001,,,N,Y,37.8414199,-122.2876961
PAST SALE,February-1-2018,Single Family Residential,170 Hillcrest Rd,BERKELEY,CA,94705,1210000,2,2.5,BERKELEY,1706,6000,1919,24,709,,Sold,,,http://www.redfin.com/CA/Berkeley/170-Hillcrest-Rd-94705/home/1226480,MLSListings,ML81684665,N,Y,37.85257,-122.2446722
PAST SALE,,Single Family Residential,25 Cabrillo Pl,Oakland,CA,94611,950000,3,3.0,,1420,6962,1940,,669,,,,,http://www.redfin.com/CA/Oakland/25-Cabrillo-Pl-94611/home/1290551,,,N,Y,37.8334664,-122.2094337
PAST SALE,January-26-2018,Single Family Residential,3722 Quigley St,Oakland,CA,94619,622000,2,1.0,Laurel,1011,6750,1918,30,615,,Sold,,,http://www.redfin.com/CA/Oakland/3722-Quigley-St-94619/home/549992,EBRD/CCAR/Bay East,40802196,N,Y,37.7909027,-122.2004339
PAST SALE,January-30-2018,Single Family Residential,2207 E 33rd St,Oakland,CA,94602,570000,2,1.5,Oakland,1802,3996,1925,26,316,,Sold,,,http://www.redfin.com/CA/Oakland/2207-E-33rd-St-94602/home/539852,EBRD/CCAR/Bay East,40797314,N,Y,37.7995668,-122.2256582
PAST SALE,January-29-2018,Single Family Residential,2003 Rosedale Ave,Oakland,CA,94601,684000,3,2.0,Boulevard Park,1156,3660,1918,27,592,,Sold,,,http://www.redfin.com/CA/Oakland/2003-Rosedale-Ave-94601/home/1465545,EBRD/CCAR/Bay East,40804824,N,Y,37.77854,-122.2129803
PAST SALE,,Single Family Residential,5932 Idlewild Ave,Livermore,CA,94551,219500,3,1.0,,1120,6300,1971,,196,,,,,http://www.redfin.com/CA/Livermore/5932-Idlewild-Ave-94551/home/1131983,,,N,Y,37.7222789,-121.7257578
PAST SALE,,Single Family Residential,6910 Hillstone Ct,Livermore,CA,94551,1229000,5,3.0,,2885,16010,2000,,426,,,,,http://www.redfin.com/CA/Livermore/6910-Hillstone-Ct-94551/home/1218259,,,N,Y,37.7303347,-121.7134673
PAST SALE,February-16-2018,Single Family Residential,4189 Sugar Pine Way,Livermore,CA,94551,650000,3,2.0,Springvalley Iii,1224,6166,1986,9,531,78,Sold,,,http://www.redfin.com/CA/Livermore/4189-Sugar-Pine-Way-94551/home/2007097,EBRD/CCAR/Bay East,40807140,N,Y,37.7113629,-121.7492218
PAST SALE,February-16-2018,Condo/Co-op,6162 Forget Me Not,Livermore,CA,94551,585000,3,2.5,Creekside,1401,,2004,9,418,297,Sold,,,http://www.redfin.com/CA/Livermore/6162-Forget-Me-Not-94551/home/2112369,EBRD/CCAR/Bay East,40806919,N,Y,37.713995,-121.722551
PAST SALE,February-20-2018,Single Family Residential,6200 Mines Rd,Livermore,CA,94550-9182,1100000,3,2.5,Livermore,2021,256568,1970,5,544,,Sold,,,http://www.redfin.com/CA/Livermore/6200-Mines-Rd-94550/home/1633666,EBRD/CCAR/Bay East,40811052,N,Y,37.635215,-121.706838
PAST SALE,February-22-2018,Townhouse,161 N L St #101,Livermore,CA,94550,595000,2,2.5,Livermore,1287,,2006,3,462,244,Sold,,,http://www.redfin.com/CA/Livermore/161-N-L-St-94550/unit-101/home/2113921,EBRD/CCAR/Bay East,40807476,N,Y,37.683026,-121.772508
PAST SALE,February-22-2018,Townhouse,1467 Portola Meadows Rd,Livermore,CA,94551,745000,3,3.0,Portola Meadows,1752,2716,1998,3,425,209,Sold,,,http://www.redfin.com/CA/Livermore/1467-Portola-Meadows-Rd-94551/home/896503,EBRD/CCAR/Bay East,40808295,N,Y,37.6949156,-121.7768536
PAST SALE,February-7-2018,Single Family Residential,518 Bell Ave,Livermore,CA,94550,700000,3,2.0,Sunset West,1519,6120,1966,18,461,,Sold,,,http://www.redfin.com/CA/Livermore/518-Bell-Ave-94550/home/736617,EBRD/CCAR/Bay East,40806970,N,Y,37.6614229,-121.793821
PAST SALE,February-5-2018,Single Family Residential,5883 Arlene Way,Livermore,CA,94550,976314,4,3.0,Stratford Park,2366,9698,1993,20,413,,Sold,,,http://www.redfin.com/CA/Livermore/5883-Arlene-Way-94550/home/1303032,EBRD/CCAR/Bay East,40805520,N,Y,37.6929333,-121.7221064
PAST SALE,February-6-2018,Single Family Residential,2572 Spyglass Hills Rd,Livermore,CA,94551,575000,3,2.0,North Livermore,1066,14045,1987,19,539,,Sold,,,http://www.redfin.com/CA/Livermore/2572-Spyglass-Hills-Rd-94551/home/1856275,EBRD/CCAR/Bay East,40807391,N,Y,37.7265776,-121.7254016
PAST SALE,February-8-2018,Single Family Residential,,Livermore,CA,94550,1330000,5,4.0,Tapestry,3678,15540,1994,17,362,,Sold,,,http://www.redfin.com/CA/Livermore/Undisclosed-address-94550/home/906515,EBRD/CCAR/Bay East,40807042,N,Y,37.663607,-121.761323
PAST SALE,February-6-2018,Single Family Residential,3428 Gravina Pl,Pleasanton,CA,94566,1735000,4,3.0,Ruby Hill Ascona,2627,8928,1999,19,660,215,Sold,,,http://www.redfin.com/CA/Pleasanton/3428-Gravina-Pl-94566/home/1205104,EBRD/CCAR/Bay East,40806557,N,Y,37.6409676,-121.8200069
PAST SALE,February-13-2018,Single Family Residential,856 Alden Ln,Livermore,CA,94550,900815,3,2.0,Alameda County,1466,10001,1971,12,614,,Sold,,,http://www.redfin.com/CA/Livermore/856-Alden-Ln-94550/home/899055,BAREIS,21800490,N,Y,37.6562486,-121.7850984
PAST SALE,February-14-2018,Single Family Residential,1880 Smoke Bellew,Livermore,CA,94550-1234,1425000,4,3.0,Vintage Collect.,3071,17036,1999,11,464,,Sold,,,http://www.redfin.com/CA/Livermore/1880-Smoke-Bellew-Rd-94550/home/1205381,EBRD/CCAR/Bay East,40807603,N,Y,37.6570831,-121.7974923
PAST SALE,February-14-2018,Single Family Residential,1559 4Th St,Livermore,CA,94550,668000,2,1.0,South Livermore,981,5000,1940,11,681,,Sold,,,http://www.redfin.com/CA/Livermore/1559-4-Hill-Cmn-94551/home/874465,EBRD/CCAR/Bay East,40807602,N,Y,37.676872,-121.775556
PAST SALE,February-13-2018,Condo/Co-op,102 Windward Cmn #2,Livermore,CA,94551,640000,3,2.5,Copperhill,1385,,1999,12,462,285,Sold,,,http://www.redfin.com/CA/Livermore/102-Windward-Cmn-94551/unit-2/home/1983437,EBRD/CCAR/Bay East,40807127,N,Y,37.7098579,-121.806146
PAST SALE,January-30-2018,Single Family Residential,1023 FIORE BELLA Way,Livermore,CA,94550,1325000,4,3.0,Alden Lane,3085,11887,2004,26,429,,Sold,,,http://www.redfin.com/CA/Livermore/1023-Fiore-Bella-Way-94550/home/1311147,EBRD/CCAR/Bay East,40799554,N,Y,37.6540829,-121.7847646
PAST SALE,February-23-2018,Single Family Residential,1537 Portola Ave,Livermore,CA,94551,845000,3,2.0,Livermore,2115,7660,1953,2,400,,Sold,,,http://www.redfin.com/CA/Livermore/1537-Portola-Ave-94551/home/1725367,EBRD/CCAR/Bay East,40807519,N,Y,37.6935401,-121.781151
PAST SALE,February-2-2018,Single Family Residential,1567 Wilton Rd,Livermore,CA,94551,830000,4,3.0,Summerset,1946,6500,1969,23,427,,Sold,,,http://www.redfin.com/CA/Livermore/1567-Wilton-Rd-94551/home/1884961,EBRD/CCAR/Bay East,40809077,N,Y,37.694898,-121.7947333
PAST SALE,February-23-2018,Single Family Residential,"2922 Worthing Cmn.,",Livermore,CA,94550,755000,4,3.5,Brighton,1955,1581,2016,2,386,96,Sold,,,http://www.redfin.com/CA/Livermore/2922-Worthing-Cmn-94550/home/95473848,EBRD/CCAR/Bay East,40806794,N,Y,37.686063,-121.761804
PAST SALE,February-7-2018,Single Family Residential,465 Swallow Ct,Livermore,CA,94551,825000,3,2.5,Summerset,1834,7885,1970,18,450,,Sold,,,http://www.redfin.com/CA/Livermore/465-Swallow-Ct-94551/home/897963,EBRD/CCAR/Bay East,40807025,N,Y,37.6838824,-121.79658
PAST SALE,February-7-2018,Single Family Residential,997 Madrone Way,Livermore,CA,94550,667000,3,2.0,Sunset,1148,6000,1959,18,581,,Sold,,,http://www.redfin.com/CA/Livermore/997-Madrone-Way-94550/home/900631,EBRD/CCAR/Bay East,40807621,N,Y,37.66539,-121.7835852
PAST SALE,February-13-2018,Single Family Residential,534 Palo Verde Cmns,Fremont,CA,94539,1210000,3,2.5,Warm Springs,1458,,2008,12,830,80,Sold,,,http://www.redfin.com/CA/Fremont/534-Palo-Verde-Cmn-94539/home/22657253,EBRD/CCAR/Bay East,40805177,N,Y,37.4615735,-121.917288
PAST SALE,February-14-2018,Condo/Co-op,5423 Iron Horse Pkwy,Dublin,CA,94568,880000,3,2.5,Dublin,1581,,2015,11,557,189,Sold,,,http://www.redfin.com/CA/Dublin/5423-Iron-Horse-Pkwy-94568/home/95472968,EBRD/CCAR/Bay East,40806994,N,Y,37.7057944,-121.8970128
PAST SALE,February-14-2018,Single Family Residential,819 Genevieve Pl,Pleasanton,CA,94566,1620000,4,3.0,Bonde Ranch,2953,12146,1997,11,549,,Sold,,,http://www.redfin.com/CA/Pleasanton/819-Genevieve-Pl-94566/home/1955037,EBRD/CCAR/Bay East,40810463,N,Y,37.6525543,-121.8670016
PAST SALE,February-14-2018,Single Family Residential,4483 Spring Mountain Way,Dublin,CA,94568,1315000,5,5.0,Dublin,3627,4899,2017,11,363,250,Sold,,,http://www.redfin.com/CA/Dublin/4483-Spring-Mountain-Way-94568/home/113354528,EBRD/CCAR/Bay East,40803023,N,Y,37.716655731201,-121.914344787598
PAST SALE,February-16-2018,Single Family Residential,6996 Amador Valley Blvd,Dublin,CA,94568,794000,3,2.0,Echo Park,1269,5399,1968,9,626,,Sold,,,http://www.redfin.com/CA/Dublin/6996-Amador-Valley-Blvd-94568/home/565804,EBRD/CCAR/Bay East,40805763,N,Y,37.7131964,-121.9212885
PAST SALE,February-16-2018,Single Family Residential,4532 Jacodo Pl,Dublin,CA,94568,1035000,4,3.5,Dublin Ranch,2557,2791,2013,9,405,186,Sold,,,http://www.redfin.com/CA/Dublin/4532-Jacodo-Pl-94568/home/40628268,EBRD/CCAR/Bay East,40806916,N,Y,37.7100505,-121.8625127
PAST SALE,February-16-2018,Single Family Residential,48449 Costa Mesa Ter,Fremont,CA,94539,3349000,5,5.5,Avalon Heights,4752,39000,2006,9,705,249,Sold,,,http://www.redfin.com/CA/Fremont/48449-Costa-Mesa-Ter-94539/home/1260900,EBRD/CCAR/Bay East,40808396,N,Y,37.4764385,-121.8980387
PAST SALE,February-16-2018,Single Family Residential,41310 Vargas Rd,Fremont,CA,94539,2240000,4,3.0,Mission Hills,2820,217800,1986,9,794,,Sold,,,http://www.redfin.com/CA/Fremont/41310-Vargas-Rd-94539/home/1721543,EBRD/CCAR/Bay East,40806687,N,Y,37.561904,-121.920488
PAST SALE,February-16-2018,Condo/Co-op,3251 CENTRAL Pkwy,Dublin,CA,94568,863500,3,2.5,Dublin Ranch,1951,,2015,9,443,300,Sold,,,http://www.redfin.com/CA/Dublin/3251-Central-Pkwy-94568/home/56660369,EBRD/CCAR/Bay East,40807176,N,Y,37.7088111,-121.8609394
PAST SALE,February-20-2018,Condo/Co-op,3465 Dublin Blvd #236,Dublin,CA,94568,615000,2,2.0,The Terraces,1124,,2007,5,547,365,Sold,,,http://www.redfin.com/CA/Dublin/3465-Dublin-Blvd-94568/unit-236/home/12119242,EBRD/CCAR/Bay East,40808419,N,Y,37.705435,-121.8630822
PAST SALE,February-20-2018,Single Family Residential,2439 Whitehorse Way,Dublin,CA,94568,1375000,5,4.0,Dublin,2744,6618,2014,5,501,130,Sold,,,http://www.redfin.com/CA/Dublin/2439-Whitehorse-Way-94568/home/50261901,EBRD/CCAR/Bay East,40807780,N,Y,37.7141088,-121.847699
PAST SALE,February-21-2018,Single Family Residential,6880 Portage Rd,Dublin,CA,94568,900000,4,2.0,Echo Park,1592,6725,1966,4,565,,Sold,,,http://www.redfin.com/CA/Dublin/6880-Portage-Rd-94568/home/1888486,EBRD/CCAR/Bay East,40806925,N,Y,37.7080724,-121.9231554
PAST SALE,February-22-2018,Single Family Residential,411 Amaral Cir,Pleasanton,CA,94566,988000,3,2.0,Old Downtown,1349,9078,1963,3,732,,Sold,,,http://www.redfin.com/CA/Pleasanton/411-Amaral-Cir-94566/home/754866,EBRD/CCAR/Bay East,40807679,N,Y,37.6606656,-121.8669126
PAST SALE,February-22-2018,Condo/Co-op,3360 Maguire Way #431,Dublin,CA,94568,295543,1,1.0,The Terraces,840,,2007,3,352,346,Sold,,,http://www.redfin.com/CA/Dublin/3360-Maguire-Way-94568/unit-431/home/12118032,EBRD/CCAR/Bay East,40807229,N,Y,37.7057578,-121.8620163
PAST SALE,February-21-2018,Single Family Residential,238 Mavis Dr,Pleasanton,CA,94566,725000,3,2.5,Arroyo Village,1249,2343,1987,4,580,305,Sold,,,http://www.redfin.com/CA/Pleasanton/238-Mavis-Dr-94566/home/1189004,EBRD/CCAR/Bay East,40807850,N,Y,37.664828,-121.860294
PAST SALE,February-21-2018,Single Family Residential,3200 Denton Ct,Pleasanton,CA,94566,1300000,2,2.0,Villages At Ironwood,2090,5329,2014,4,622,190,Sold,,,http://www.redfin.com/CA/Pleasanton/3200-Denton-Ct-94566/home/50264335,EBRD/CCAR/Bay East,40807778,N,Y,37.6795317,-121.8586183
PAST SALE,February-23-2018,Townhouse,5332 Campus Dr,Dublin,CA,94568,836000,4,3.0,Dublin,1753,,2015,2,477,189,Sold,,,http://www.redfin.com/CA/Dublin/5332-Campus-Dr-94568/home/95474739,EBRD/CCAR/Bay East,40809792,N,Y,37.705643,-121.89648
PAST SALE,February-14-2018,Single Family Residential,4031 Chadwick Pl,Dublin,CA,94568,1065000,4,3.5,Tassajara Creek,2179,3466,2003,11,489,195,Sold,,,http://www.redfin.com/CA/Dublin/4031-Chadwick-Pl-94568/home/1877312,EBRD/CCAR/Bay East,40806870,N,Y,37.718792,-121.8722936
PAST SALE,February-5-2018,Single Family Residential,4928 Volterra Dr,Dublin,CA,94568,1485000,5,5.5,Dublin,3640,5770,2015,20,408,90,Sold,,,http://www.redfin.com/CA/Dublin/4928-Volterra-Dr-94568/home/95474800,EBRD/CCAR/Bay East,40805813,N,Y,37.7206284,-121.8391363
PAST SALE,February-7-2018,Single Family Residential,3375 Morgan Ct,Pleasanton,CA,94588,1250000,4,3.0,Parkside,2278,8008,1981,18,549,,Sold,,,http://www.redfin.com/CA/Pleasanton/3375-Morgan-Ct-94588/home/1197425,EBRD/CCAR/Bay East,40809575,N,Y,37.6802748,-121.9019503
PAST SALE,February-9-2018,Single Family Residential,2253 Haggerty Dr,Dublin,CA,94568,1160000,4,2.5,Dublin,2310,6715,2012,16,502,86,Sold,,,http://www.redfin.com/CA/DUBLIN/2253-HAGGERTY-DR-94568/home/40628340,EBRD/CCAR/Bay East,40806383,N,Y,37.720458,-121.845186
PAST SALE,February-8-2018,Single Family Residential,5809 Idlewood Ct,Dublin,CA,94568,970000,3,2.5,Summerglen,1975,3797,1999,17,491,60,Sold,,,http://www.redfin.com/CA/Dublin/5809-Idlewood-Ct-94568/home/1994398,EBRD/CCAR/Bay East,40804097,N,Y,37.7136834,-121.8872789
PAST SALE,February-9-2018,Single Family Residential,3536 Pimlico Dr,Pleasanton,CA,94588,1038000,4,2.5,Fairland Terrace,2150,8638,1985,16,483,31,Sold,,,http://www.redfin.com/CA/Pleasanton/3536-Pimlico-Dr-94588/home/1188051,EBRD/CCAR/Bay East,40810089,N,Y,37.69624,-121.863088
PAST SALE,February-7-2018,Single Family Residential,4587 ALTA TERRA Rd,Dublin,CA,94568-2212,1330000,5,4.0,Dublin Ranch,2668,4860,2013,18,499,130,Sold,,,http://www.redfin.com/CA/Pleasanton/4587-Alta-Terra-Rd-94568/home/50264380,EBRD/CCAR/Bay East,40809709,N,Y,37.7149684,-121.8501899
PAST SALE,,Vacant Land,7051 Kylemore Ct,Dublin,CA,94568,1256000,,,,,3672,,,,,,,,http://www.redfin.com/CA/Dublin/7051-Kylemore-Ct-94568/home/143119279,,,N,Y,37.7356154,-121.8683087
PAST SALE,January-30-2018,Single Family Residential,542 Lorren Way,Livermore,CA,94550,841000,4,2.0,Livermore,1602,6833,1965,26,525,,Sold,,,http://www.redfin.com/CA/Livermore/542-Lorren-Way-94550/home/1625083,EBRD/CCAR/Bay East,40806025,N,Y,37.6739199,-121.7929755
PAST SALE,February-13-2018,Single Family Residential,5128 Blackbird Dr,PLEASANTON,CA,94566,1351000,4,2.5,PLEASANTON,2364,7452,1975,12,571,,Sold,,,http://www.redfin.com/CA/Pleasanton/5128-Blackbird-Dr-94566/home/1116587,MLSListings,ML81688230,N,Y,37.6796075,-121.8861673
PAST SALE,January-26-2018,Condo/Co-op,292 Wildrose Cmn #2,Livermore,CA,94551,565000,2,2.5,Copperhill,1213,,1999,30,466,280,Sold,,,http://www.redfin.com/CA/Livermore/292-Wildrose-Cmn-94551/unit-2/home/1159705,EBRD/CCAR/Bay East,40805203,N,Y,37.7084018,-121.8073894
PAST SALE,February-7-2018,Single Family Residential,2355 6Th St,Livermore,CA,94550,910000,3,2.0,Old South Side,1505,8700,1947,18,605,,Sold,,,http://www.redfin.com/CA/Livermore/2355-6th-St-94550/home/873903,EBRD/CCAR/Bay East,40806980,N,Y,37.678103,-121.7650249
PAST SALE,February-8-2018,Single Family Residential,1452 Hollyhock St,Livermore,CA,94551,660000,2,2.0,Springtown,1280,6000,1963,17,516,30,Sold,,,http://www.redfin.com/CA/Livermore/1452-Hollyhock-St-94551/home/1203975,EBRD/CCAR/Bay East,40807015,N,Y,37.7117516,-121.7412971
PAST SALE,February-13-2018,Single Family Residential,274 Amber Way,Livermore,CA,94550,877000,4,2.5,Tempo,2244,7000,1968,12,391,,Sold,,,http://www.redfin.com/CA/Livermore/274-Amber-Way-94550/home/2032074,EBRD/CCAR/Bay East,40807029,N,Y,37.6711681,-121.7997173
PAST SALE,January-31-2018,Single Family Residential,887 Jefferson Ave,Livermore,CA,94550,760000,4,2.0,Jensen,1702,6314,1959,25,447,,Sold,,,http://www.redfin.com/CA/Livermore/887-Jefferson-Ave-94550/home/1503235,EBRD/CCAR/Bay East,40806045,N,Y,37.6809697,-121.7442578
PAST SALE,February-15-2018,Single Family Residential,,Livermore,CA,94551,705000,3,2.0,Livermore,1366,6914,1969,10,516,,Sold,,,http://www.redfin.com/CA/Livermore/Undisclosed-address-94551/home/885628,EBRD/CCAR/Bay East,40808047,N,Y,37.6951183,-121.7943105
PAST SALE,February-22-2018,Single Family Residential,413 Sumal Cmn,Livermore,CA,94551,780000,3,3.0,Montage,1612,1753,2007,3,484,149,Sold,,,http://www.redfin.com/CA/Livermore/413-Sumal-Cmn-94551/home/17186150,EBRD/CCAR/Bay East,40806968,N,Y,37.7075236,-121.7997395
PAST SALE,February-22-2018,Single Family Residential,1857 Pine St,Livermore,CA,94551,525000,2,1.0,North Side,794,5000,1943,3,661,,Sold,,,http://www.redfin.com/CA/Livermore/1857-Pine-St-94551/home/1383665,EBRD/CCAR/Bay East,40808285,N,Y,37.6898204,-121.7773988
PAST SALE,February-7-2018,Single Family Residential,2784 Patcham Cmn,Livermore,CA,94550,780000,4,3.5,Brighton,1927,1396,2015,18,405,96,Sold,,,http://www.redfin.com/CA/Livermore/2784-Patcham-Cmn-94550/home/95472794,EBRD/CCAR/Bay East,40805357,N,Y,37.6851181,-121.76343
PAST SALE,February-6-2018,Single Family Residential,1027 Geneva St,Livermore,CA,94550,900000,3,2.0,Sunset East,1728,7090,1970,19,521,,Sold,,,http://www.redfin.com/CA/Livermore/1027-Geneva-St-94550/home/1471250,EBRD/CCAR/Bay East,40809295,N,Y,37.670854,-121.772708
PAST SALE,,Single Family Residential,2719 Spindrift Ct,Hayward,CA,94545,1010000,5,3.0,,3651,6012,2003,,277,,,,,http://www.redfin.com/CA/Hayward/2719-Spindrift-Ct-94545/home/1996099,,,N,Y,37.6084271,-122.0924656
PAST SALE,,Single Family Residential,3240 Chestnut St,Oakland,CA,94608,460000,3,1.0,,1020,3200,1895,,451,,,,,http://www.redfin.com/CA/Oakland/3240-Chestnut-St-94608/home/1627186,,,N,Y,37.8241736,-122.2794227
PAST SALE,January-30-2018,Condo/Co-op,988 Franklin St #435,Oakland,CA,94607,680000,3,2.0,Chinatown,1131,,1993,26,601,654,Sold,,,http://www.redfin.com/CA/Oakland/988-Franklin-St-94607/unit-435/home/524679,EBRD/CCAR/Bay East,40807214,N,Y,37.8008666,-122.2714414
PAST SALE,February-2-2018,Multi-Family (2-4 Unit),3328 M L King Jr Way,Oakland,CA,94609,540000,2,2.0,Oakland,1660,1800,1923,23,325,,Sold,,,http://www.redfin.com/CA/Oakland/3328-Martin-Luther-King-Jr-Way-94609/home/525623,EBRD/CCAR/Bay East,40803991,N,Y,37.8231296,-122.2698417
PAST SALE,January-30-2018,Single Family Residential,1234 E 24Th St,Oakland,CA,94606,760000,3,1.0,Highland Park,1434,3700,1912,26,530,,Sold,,,http://www.redfin.com/CA/Oakland/1234-E-24th-St-94606/home/534912,EBRD/CCAR/Bay East,40805871,N,Y,37.7967867,-122.2379357
PAST SALE,February-6-2018,Single Family Residential,34362 Perry Rd,Union City,CA,94587,940000,6,2.5,Union City,2179,9306,1975,19,431,,Sold,,,http://www.redfin.com/CA/Union-City/34362-Perry-Rd-94587/home/1656730,EBRD/CCAR/Bay East,40794997,N,Y,37.584939,-122.0278283
PAST SALE,February-1-2018,Single Family Residential,7324 Crow Canyon Rd,Castro Valley,CA,94552,3500000,5,4.0,Castro Valley,3500,2003760,1990,24,1000,,Sold,,,http://www.redfin.com/CA/Castro-Valley/7324-Crow-Canyon-Rd-94552/home/1261693,EBRD/CCAR/Bay East,40790371,N,Y,37.729186,-122.0344185
PAST SALE,February-13-2018,Single Family Residential,22792 Princeton Pl,Castro Valley,CA,94552,1125000,3,2.5,Palomares Hills,2082,4846,1999,12,540,56,Sold,,,http://www.redfin.com/CA/Castro-Valley/22792-Princeton-Pl-94552/home/1956346,EBRD/CCAR/Bay East,40799027,N,Y,37.7126968,-122.0163707
PAST SALE,February-14-2018,Townhouse,19555 Buren Pl,Castro Valley,CA,94552,975000,3,2.5,Palomares Hills,1785,3589,2002,11,546,263,Sold,,,http://www.redfin.com/CA/Castro-Valley/19555-Buren-Pl-94552/home/1208325,EBRD/CCAR/Bay East,40807528,N,Y,37.7192549,-122.026673
PAST SALE,February-14-2018,Multi-Family (2-4 Unit),8236 Birch St,Oakland,CA,94621,316500,1,1.0,Oakland,1250,5400,1945,11,253,,Sold,,,http://www.redfin.com/CA/Oakland/8236-Birch-St-94621/home/1533178,EBRD/CCAR/Bay East,40799020,N,Y,37.7577965,-122.1733854
PAST SALE,February-15-2018,Multi-Family (2-4 Unit),1600 83rd Ave,OAKLAND,CA,94621,410000,4,,OAKLAND,1594,5300,1911,10,257,,Sold,,,http://www.redfin.com/CA/Oakland/1600-83rd-Ave-94621/home/583365,MLSListings,ML81685163,N,Y,37.755764,-122.17657
PAST SALE,February-6-2018,Single Family Residential,1229 82Nd Ave,Oakland,CA,94621,350000,3,1.0,East Oakland,936,2860,1910,19,374,,Sold,,,http://www.redfin.com/CA/Oakland/1229-82nd-Ave-94621/home/580733,EBRD/CCAR/Bay East,40799860,N,Y,37.7541602,-122.1821104
PAST SALE,February-13-2018,Single Family Residential,5292 Belvedere,Oakland,CA,94601,730000,3,2.0,Maxwell  Park,1274,5330,1921,12,573,,Sold,,,http://www.redfin.com/CA/Oakland/5292-Belvedere-St-94601/home/555886,EBRD/CCAR/Bay East,40806332,N,Y,37.7736253,-122.1994141
PAST SALE,February-1-2018,Single Family Residential,1429 57th Ave,Oakland,CA,94621,585000,4,2.0,East Oakland,1848,6450,1922,24,317,,Sold,,,http://www.redfin.com/CA/Oakland/1429-57th-Ave-94621/home/2029800,EBRD/CCAR/Bay East,40801656,N,Y,37.7668139,-122.2011082
PAST SALE,January-31-2018,Single Family Residential,2570 14th Ave,Oakland,CA,94606,461000,2,1.0,Highland Park,835,3200,1915,25,552,,Sold,,,http://www.redfin.com/CA/Oakland/2570-14th-Ave-94606/home/1880628,EBRD/CCAR/Bay East,40802221,N,Y,37.7960877,-122.234124
PAST SALE,February-14-2018,Condo/Co-op,27787 Vasona Ct #17,Hayward,CA,94544,425000,1,1.5,Hayward Area,759,,1985,11,560,307,Sold,,,http://www.redfin.com/CA/Hayward/27787-Vasona-Ct-94544/unit-17/home/1708258,EBRD/CCAR/Bay East,40807382,N,Y,37.632318,-122.0697892
PAST SALE,February-14-2018,Townhouse,27847 Hummingbird Ct,HAYWARD,CA,94545,520000,3,1.5,HAYWARD,1254,946,1971,11,415,268,Sold,,,http://www.redfin.com/CA/Hayward/27847-Hummingbird-Ct-94545/home/1013228,MLSListings,ML81688585,N,Y,37.624815,-122.098181
PAST SALE,February-9-2018,Single Family Residential,27825 Biscayne Ave,Hayward,CA,94544,580000,3,2.0,Hayward,1325,5000,1954,16,438,,Sold,,,http://www.redfin.com/CA/Hayward/27825-Biscayne-Ave-94544/home/1942545,EBRD/CCAR/Bay East,40806051,N,Y,37.6297058,-122.0750005
PAST SALE,,Single Family Residential,27661 Havana Ave,Hayward,CA,94544,456000,3,2.0,,1000,5000,1954,,456,,,,,http://www.redfin.com/CA/Hayward/27661-Havana-Ave-94544/home/955919,,,N,Y,37.6299129,-122.0785736
PAST SALE,February-20-2018,Single Family Residential,1614 Welford Cir,HAYWARD,CA,94544,832000,4,2.5,HAYWARD,1901,3686,2004,5,438,125,Sold,,,http://www.redfin.com/CA/Hayward/1614-Welford-Cir-94544/home/708043,MLSListings,ML81688302,N,Y,37.6187888,-122.0670644
PAST SALE,February-23-2018,Single Family Residential,27890 Melbourne Ave,HAYWARD,CA,94545,650000,3,2.0,HAYWARD,1000,7400,1955,2,650,,Sold,,,http://www.redfin.com/CA/Hayward/27890-Melbourne-Ave-94545/home/1996373,MLSListings,ML81688238,N,Y,37.6251563,-122.0834116
PAST SALE,February-21-2018,Single Family Residential,329 Tennyson Rd,Hayward,CA,94544,535000,3,1.0,Downtown,1050,5750,1952,4,510,,Sold,,,http://www.redfin.com/CA/Hayward/329-Tennyson-Rd-94544/home/783165,EBRD/CCAR/Bay East,40807803,N,Y,37.635089,-122.0604403
PAST SALE,February-15-2018,Condo/Co-op,7665 Arbor Creek Cir #131,Dublin,CA,94568,515000,2,1.0,Arbor Creek,690,690,1987,10,746,275,Sold,,,http://www.redfin.com/CA/Dublin/7665-Arbor-Creek-Cir-94568/unit-131/home/1160213,EBRD/CCAR/Bay East,40805702,N,Y,37.707756,-121.938564
PAST SALE,February-15-2018,Condo/Co-op,710 E 22Nd St #101,Oakland,CA,94606,470710,2,1.5,Ivy Hill,814,,1965,10,578,460,Sold,,,http://www.redfin.com/CA/Oakland/710-E-22nd-St-94606/unit-101/home/1680540,EBRD/CCAR/Bay East,40806973,N,Y,37.7995837,-122.2443985
PAST SALE,February-15-2018,Single Family Residential,2123 104Th Ave,Oakland,CA,94603,375000,2,1.0,Oakland,874,3725,1957,10,429,,Sold,,,http://www.redfin.com/CA/Oakland/2123-104th-Ave-94603/home/1250832,EBRD/CCAR/Bay East,40806632,N,Y,37.7425061,-122.1592821
PAST SALE,February-2-2018,Single Family Residential,9809 Stanley Ave,Oakland,CA,94605,630000,4,2.0,Toler Heights,1357,5250,1960,23,464,,Sold,,,http://www.redfin.com/CA/Oakland/9809-Stanley-Ave-94605/home/1843790,EBRD/CCAR/Bay East,40806362,N,Y,37.7517826,-122.1530725
PAST SALE,February-21-2018,Condo/Co-op,3239 Kempton Ave #1,Oakland,CA,94611,810000,0,1.0,Lower Pied Ave,998,40145,1927,4,812,491,Sold,,,http://www.redfin.com/CA/Oakland/3239-Kempton-Ave-94611/unit-1/home/2004796,EBRD/CCAR/Bay East,40807963,N,Y,37.8190403,-122.2586074
PAST SALE,February-7-2018,Condo/Co-op,3849 Vineyard Ave Unit A,Pleasanton,CA,94566,350000,1,1.0,Shadow Creek,617,26954,1983,18,567,315,Sold,,,http://www.redfin.com/CA/Pleasanton/3849-Vineyard-Ave-94566/unit-A/home/125609613,EBRD/CCAR/Bay East,40805693,N,Y,37.66368,-121.863832
PAST SALE,January-31-2018,Single Family Residential,2809 Victoria Ridge Ct,Pleasanton,CA,94566,1600000,4,3.0,Vintage Heights,3013,8170,1991,25,531,,Sold,,,http://www.redfin.com/CA/Pleasanton/2809-Victoria-Ridge-Ct-94566/home/1922847,EBRD/CCAR/Bay East,40804757,N,Y,37.662969,-121.8459865
PAST SALE,January-31-2018,Single Family Residential,1028 Rhine Way,Pleasanton,CA,94566,1550000,5,3.0,Vintage Hills,2837,12069,1987,25,546,140,Sold,,,http://www.redfin.com/CA/Pleasanton/1028-Rhine-Way-94566/home/1988739,EBRD/CCAR/Bay East,40807727,N,Y,37.6573284,-121.8435178
PAST SALE,January-26-2018,Single Family Residential,47 Silver Oaks Ct,Pleasanton,CA,94566,3790000,5,5.5,Custom Ranch,6186,76230,2017,30,613,,Sold,,,http://www.redfin.com/CA/Pleasanton/47-Silver-Oaks-Ct-94566/home/143115515,EBRD/CCAR/Bay East,40804695,N,Y,37.663058,-121.8370274
PAST SALE,February-22-2018,Single Family Residential,1296 Creek Trail Dr,Pleasanton,CA,94566-5400,1465000,3,2.5,Nolan Farms,2537,8873,2000,3,577,97,Sold,,,http://www.redfin.com/CA/Pleasanton/1296-Creek-Trail-Dr-94566/home/1740711,EBRD/CCAR/Bay East,40808732,N,Y,37.6664816,-121.8858339
PAST SALE,February-23-2018,Single Family Residential,6056 Sycamore Ter,Pleasanton,CA,94566,2925000,6,6.5,Sycamore,7207,35141,2002,2,406,,Sold,,,http://www.redfin.com/CA/Pleasanton/6056-Sycamore-Ter-94566/home/627984,EBRD/CCAR/Bay East,40786387,N,Y,37.6455009,-121.8783278
PAST SALE,February-16-2018,Single Family Residential,93 Carrick Cir,Hayward,CA,94542,1090000,5,3.5,Stonebrae Country Club,3180,4863,2007,9,343,180,Sold,,,http://www.redfin.com/CA/Hayward/93-Carrick-Cir-94542/home/17186679,EBRD/CCAR/Bay East,40807169,N,Y,37.6555782,-122.0127513
PAST SALE,February-5-2018,Single Family Residential,2602 Dobbel Pl,Hayward,CA,94542,929000,5,3.0,Hayward Hills,2547,5021,2008,20,365,112,Sold,,,http://www.redfin.com/CA/Hayward/2602-Dobbel-Pl-94542/home/22051906,EBRD/CCAR/Bay East,40805281,N,Y,37.6544179,-122.0474766
PAST SALE,February-15-2018,Single Family Residential,2462 Fiji Way,San Leandro,CA,94577,687000,3,2.0,Marina Faire,1129,5040,1961,10,609,,Sold,,,http://www.redfin.com/CA/San-Leandro/2462-Fiji-Way-94577/home/1123930,EBRD/CCAR/Bay East,40808351,N,Y,37.6956331,-122.1796382
PAST SALE,February-14-2018,Single Family Residential,4601 Redding St,Oakland,CA,94619,415000,3,2.0,Maxwell  Park,1014,5247,1949,11,409,,Sold,,,http://www.redfin.com/CA/Oakland/4601-Redding-St-94619/home/1224177,EBRD/CCAR/Bay East,40807347,N,Y,37.7841209,-122.1926658
PAST SALE,February-22-2018,Single Family Residential,4239 Quigley Pl,Oakland,CA,94619,570000,2,1.0,Lower Maxwell Pk,1045,4256,1923,3,545,,Sold,,,http://www.redfin.com/CA/Oakland/4239-Quigley-Pl-94619/home/1432879,EBRD/CCAR/Bay East,40808699,N,Y,37.7868834,-122.1972973
PAST SALE,February-7-2018,Single Family Residential,19052 Center St,Castro Valley,CA,94546,919000,4,3.0,Upper Center,2348,5490,1955,18,391,,Sold,,,http://www.redfin.com/CA/Castro-Valley/19052-Center-St-94546/home/1417782,EBRD/CCAR/Bay East,40806367,N,Y,37.7056551,-122.0611506
PAST SALE,February-1-2018,Single Family Residential,21909 HOFFMAN Way,Castro Valley,CA,94546-6541,617000,3,2.0,Castro Valley,1267,5000,1959,24,487,,Sold,,,http://www.redfin.com/CA/Castro-Valley/21909-Hoffman-Way-94546/home/1503455,EBRD/CCAR/Bay East,40806876,N,Y,37.6902336,-122.0663667
PAST SALE,February-6-2018,Single Family Residential,18124 Judy St,CASTRO VALLEY,CA,94546,800000,3,2.0,CASTRO VALLEY,1396,6150,1953,19,573,,Sold,,,http://www.redfin.com/CA/Castro-Valley/18124-Judy-St-94546/home/1934322,MLSListings,ML81687956,N,Y,37.7125773,-122.0710277
PAST SALE,February-16-2018,Single Family Residential,5248 Crane Ave,Castro Valley,CA,94546-2532,935000,5,2.0,Castro Valley,2135,6344,1956,9,438,,Sold,,,http://www.redfin.com/CA/Castro-Valley/5248-Crane-Ave-94546/home/831571,EBRD/CCAR/Bay East,40806020,N,Y,37.7110161,-122.05973
PAST SALE,February-14-2018,Single Family Residential,1140 Gilbert St,Hayward,CA,94541,550000,2,1.0,Hayward,1298,6050,1948,11,424,,Sold,,,http://www.redfin.com/CA/Hayward/1140-Gilbert-St-94541/home/1968139,EBRD/CCAR/Bay East,40806357,N,Y,37.688261,-122.1010751
PAST SALE,February-16-2018,Single Family Residential,19712 Mabel Pl,Castro Valley,CA,94546,950000,3,2.0,Castro Valley,1971,5800,1981,9,482,,Sold,,,http://www.redfin.com/CA/Castro-Valley/19712-Mabel-Pl-94546/home/1995282,EBRD/CCAR/Bay East,40808730,N,Y,37.7026254,-122.0728698
PAST SALE,January-30-2018,Single Family Residential,17489 Kingston,Castro Valley,CA,94546-1122,802000,3,2.0,Castro Valley,1433,11026,1966,26,560,,Sold,,,http://www.redfin.com/CA/Castro-Valley/17489-Kingston-Way-94546/home/1147849,EBRD/CCAR/Bay East,40806690,N,Y,37.7174343,-122.0942852
PAST SALE,January-31-2018,Multi-Family (2-4 Unit),18297 Redwood Rd,Castro Valley,CA,94546,850000,4,2.0,Castro Valley,1680,5928,1961,25,506,,Sold,,,http://www.redfin.com/CA/Castro-Valley/18297-Redwood-Rd-94546/home/1362904,EBRD/CCAR/Bay East,40805951,N,Y,37.7121311,-122.0742237
PAST SALE,February-20-2018,Condo/Co-op,16425 Saratoga St Unit 203W,San Leandro,CA,94578,385000,2,1.5,Saratoga Hills,1022,,1981,5,377,585,Sold,,,http://www.redfin.com/CA/San-Leandro/16425-Saratoga-St-94578/unit-203W/home/796214,EBRD/CCAR/Bay East,40807984,N,Y,37.700694,-122.106726
PAST SALE,February-6-2018,Single Family Residential,17054 Rolando Ave,Castro Valley,CA,94546,740000,3,2.0,El Portal,1875,4760,1942,19,395,,Sold,,,http://www.redfin.com/CA/Castro-Valley/17054-Rolando-Ave-94546/home/1923184,EBRD/CCAR/Bay East,40807113,N,Y,37.695685,-122.097658
PAST SALE,February-8-2018,Condo/Co-op,34800 Starling Dr Apt 1,Union City,CA,94587,450000,2,1.0,Downtown Estates,810,,1972,17,556,375,Sold,,,http://www.redfin.com/CA/Union-City/34800-Starling-Dr-94587/unit-1/home/113802019,EBRD/CCAR/Bay East,40806959,N,Y,37.5840262,-122.0202224
PAST SALE,February-13-2018,Townhouse,280 Lindero Ter,Fremont,CA,94536,860000,3,2.0,The Trees,1240,2542,1973,12,694,310,Sold,,,http://www.redfin.com/CA/Fremont/280-Lindero-Ter-94536/home/1072542,EBRD/CCAR/Bay East,40807349,N,Y,37.5779196,-121.9917195
PAST SALE,February-15-2018,Single Family Residential,35955 Nickel St,Union City,CA,94587,1260888,4,2.5,Union City,2472,7755,2005,10,510,,Sold,,,http://www.redfin.com/CA/Union-City/35955-Nickel-St-94587/home/2111332,EBRD/CCAR/Bay East,40806942,N,Y,37.5855152,-122.0085462
PAST SALE,February-16-2018,Condo/Co-op,2241 Partridge Way #4,Union City,CA,94587,475000,2,1.0,Downtown Estates,798,,1972,9,595,375,Sold,,,http://www.redfin.com/CA/Union-City/2241-Partridge-Way-94587/unit-4/home/1825336,EBRD/CCAR/Bay East,40807107,N,Y,37.5845981,-122.019857
PAST SALE,February-16-2018,Single Family Residential,803 Decoto Rd,Union City,CA,94587,880000,4,3.0,Union City,3200,10099,1951,9,275,,Sold,,,http://www.redfin.com/CA/Union-City/803-Decoto-Rd-94587/home/1649517,EBRD/CCAR/Bay East,40802614,N,Y,37.5970778,-122.0184358
