SALE TYPE,SOLD DATE,PROPERTY TYPE,ADDRESS,CITY,STATE,ZIP,PRICE,BEDS,BATHS,LOCATION,SQUARE FEET,LOT SIZE,YEAR BUILT,DAYS ON MARKET,$/SQUARE FEET,HOA/MONTH,STATUS,NEXT OPEN HOUSE START TIME,NEXT OPEN HOUSE END TIME,URL (SEE http://www.redfin.com/buy-a-home/comparative-market-analysis FOR INFO ON PRICING),SOURCE,MLS#,FAVORITE,INTERESTED,LATITUDE,LONGITUDE
PAST SALE,,Single Family Residential,15105 Bellini Way,Morgan Hill,CA,95037,218500,3,1.0,,1235,4055,2003,,177,,,,,http://www.redfin.com/CA/Morgan-Hill/15105-Bellini-Way-95037/home/937762,,,N,Y,37.096159,-121.645923
PAST SALE,September-29-2017,Single Family Residential,350 Via Loma,MORGAN HILL,CA,95037,658250,2,1.0,MORGAN HILL,931,5750,1972,123,707,,Sold,,,http://www.redfin.com/CA/Morgan-Hill/350-Via-Loma-95037/home/1014501,MLSListings,ML81676275,N,Y,37.1409738,-121.668521
PAST SALE,September-22-2017,Single Family Residential,85 E 1st St,MORGAN HILL,CA,95037,786500,2,1.0,MORGAN HILL,871,9287,1958,130,903,,Sold,,,http://www.redfin.com/CA/Morgan-Hill/85-E-1st-St-95037/home/1100114,MLSListings,ML81671808,N,Y,37.1304431,-121.652572
PAST SALE,January-25-2018,Other,215 Tennant Ave,MORGAN HILL,CA,95037,1000000,,,MORGAN HILL,,46173,,5,,,Sold,,,http://www.redfin.com/CA/Morgan-Hill/215-Tennant-Ave-95037/home/12177366,MLSListings,ML81682401,N,Y,37.1149259,-121.639576
PAST SALE,September-1-2017,Single Family Residential,15585 Hill Rd,MORGAN HILL,CA,95037,800000,2,1.0,MORGAN HILL,900,63597,1958,151,889,,Sold,,,http://www.redfin.com/CA/Morgan-Hill/15585-Hill-Rd-95037/home/1026155,MLSListings,ML81672519,N,Y,37.120238,-121.605094
PAST SALE,November-20-2017,Single Family Residential,621 Hale Ave,MORGAN HILL,CA,95037,500000,3,1.0,MORGAN HILL,1200,24393,1960,71,417,,Sold,,,http://www.redfin.com/CA/Morgan-Hill/621-Hale-Ave-95037/home/1772721,MLSListings,ML81671203,N,Y,37.1714544,-121.7112141
PAST SALE,August-10-2017,Single Family Residential,35 Wright Ave,MORGAN HILL,CA,95037,528000,2,1.0,MORGAN HILL,889,4300,1940,173,594,,Sold,,,http://www.redfin.com/CA/Morgan-Hill/35-Wright-Ave-95037/home/1238095,MLSListings,ML81648301,N,Y,37.1348986,-121.6595685
PAST SALE,November-14-2017,Single Family Residential,330 Via Loma,MORGAN HILL,CA,95037,730000,4,1.0,MORGAN HILL,1320,6000,1968,77,553,,Sold,,,http://www.redfin.com/CA/Morgan-Hill/330-Via-Loma-95037/home/1589226,MLSListings,ML81681082,N,Y,37.1416321,-121.6686566
PAST SALE,,Condo/Co-op,18429 Opal Ln,Morgan Hill,CA,95037,390000,1,1.0,,1090,,2008,,358,,,,,http://www.redfin.com/CA/Morgan-Hill/18429-Opal-Ln-95037/home/23047011,,,N,Y,37.1459126,-121.660275
PAST SALE,January-17-2018,Condo/Co-op,58 E 4th St,MORGAN HILL,CA,95037,500000,2,1.0,MORGAN HILL,788,820,1956,13,635,200,Sold,,,http://www.redfin.com/CA/Morgan-Hill/58-E-4th-St-95037/home/1531107,MLSListings,ML81686149,N,Y,37.127664,-121.650256
PAST SALE,November-1-2017,Single Family Residential,9610 Monterey Rd,MORGAN HILL,CA,95037,692000,2,1.0,MORGAN HILL,780,19650,1950,90,887,,Sold,,,http://www.redfin.com/CA/Morgan-Hill/9610-Monterey-Rd-95037/home/40176560,MLSListings,ML81655438,N,Y,37.1988777,-121.7202275
PAST SALE,August-7-2017,Single Family Residential,16225 Church St,MORGAN HILL,CA,95037,650000,2,1.0,MORGAN HILL,736,6500,1953,176,883,,Sold,,,http://www.redfin.com/CA/Morgan-Hill/16225-Church-St-95037/home/1625640,MLSListings,ML81655355,N,Y,37.1165161,-121.6427243
PAST SALE,,Condo/Co-op,18226 Hale Ave Apt G,Morgan Hill,CA,95037,435000,3,1.0,,1145,,1976,,380,,,,,http://www.redfin.com/CA/Morgan-Hill/18226-Hale-Ave-95037/unit-G/home/1014871,,,N,Y,37.138008,-121.664772
PAST SALE,September-22-2017,Townhouse,16980 Sugar Pine Dr,MORGAN HILL,CA,95037,600000,2,1.5,MORGAN HILL,1148,3528,1991,130,523,275,Sold,,,http://www.redfin.com/CA/Morgan-Hill/16980-Sugarpine-Dr-95037/home/1028859,MLSListings,ML81667921,N,Y,37.1354789,-121.620929
PAST SALE,August-31-2017,Townhouse,18202 Hale Ave Unit C,MORGAN HILL,CA,95037,439950,3,1.5,MORGAN HILL,1145,1160,1976,152,384,260,Sold,,,http://www.redfin.com/CA/Morgan-Hill/18202-Hale-Ave-95037/unit-C/home/706205,MLSListings,ML81673871,N,Y,37.1370239,-121.665264
PAST SALE,November-28-2017,Single Family Residential,17225 Torrey Ct,Morgan Hill,CA,95037,715000,3,1.5,Crestview,1484,6600,1957,63,482,,Sold,,,http://www.redfin.com/CA/Morgan-Hill/17225-Torrey-Ct-95037/home/1325443,EBRD/CCAR/Bay East,40800766,N,Y,37.1230915,-121.6607468
PAST SALE,December-11-2017,Townhouse,18224 Hale Ave Unit D,MORGAN HILL,CA,95037,475000,2,1.5,MORGAN HILL,952,1160,1976,50,499,280,Sold,,,http://www.redfin.com/CA/Morgan-Hill/18224-Hale-Ave-95037/unit-D/home/1654527,MLSListings,ML81683825,N,Y,37.1378392,-121.6648172
PAST SALE,August-16-2017,Single Family Residential,1570 Peppertree Ct,MORGAN HILL,CA,95037,695000,3,1.5,MORGAN HILL,1065,7840,1976,167,653,,Sold,,,http://www.redfin.com/CA/Morgan-Hill/1570-Peppertree-Ct-95037/home/1394937,MLSListings,ML81669609,N,Y,37.1354355,-121.6241684
PAST SALE,August-23-2017,Townhouse,433 Creekside Ln,MORGAN HILL,CA,95037,520500,2,1.5,MORGAN HILL,1036,1584,1984,160,502,300,Sold,,,http://www.redfin.com/CA/Morgan-Hill/433-Creekside-Ln-95037/home/1003741,MLSListings,ML81669999,N,Y,37.1287122,-121.6429802
PAST SALE,November-1-2017,Townhouse,15133 Yosemite Way,MORGAN HILL,CA,95037,614000,2,1.5,MORGAN HILL,1758,1695,1978,90,349,356,Sold,,,http://www.redfin.com/CA/Morgan-Hill/15133-Yosemite-Way-95037/home/1032843,MLSListings,ML81679712,N,Y,37.0977744,-121.641821
PAST SALE,October-9-2017,Townhouse,18210 Hale Ave Unit A,MORGAN HILL,CA,95037,490000,3,1.5,MORGAN HILL,1145,1160,1976,113,428,285,Sold,,,http://www.redfin.com/CA/Morgan-Hill/18210-Hale-Ave-95037/unit-A/home/1272420,MLSListings,ML81675673,N,Y,37.137721,-121.664097
PAST SALE,November-7-2017,Townhouse,18212 Hale Ave Unit C,MORGAN HILL,CA,95037,485000,3,1.5,MORGAN HILL,1145,1160,1976,84,424,280,Sold,,,http://www.redfin.com/CA/Morgan-Hill/18212-Hale-Ave-95037/unit-C/home/1578154,MLSListings,ML81680223,N,Y,37.137885,-121.664478
PAST SALE,,Townhouse,18210 Hale Ave Apt B,Morgan Hill,CA,95037,500000,3,1.0,,1145,1160,1976,,437,,,,,http://www.redfin.com/CA/Morgan-Hill/18210-Hale-Ave-95037/unit-B/home/1293607,,,N,Y,37.137721,-121.664097
PAST SALE,October-31-2017,Townhouse,18204 Hale Ave Unit F,MORGAN HILL,CA,95037,502000,3,1.5,MORGAN HILL,1145,1160,1976,91,438,280,Sold,,,http://www.redfin.com/CA/Morgan-Hill/18204-Hale-Ave-95037/unit-F/home/1810479,MLSListings,ML81679840,N,Y,37.137248,-121.664886
PAST SALE,August-10-2017,Townhouse,17151 Creekside Cir,MORGAN HILL,CA,95037,526900,2,1.5,MORGAN HILL,1036,1584,1986,173,509,300,Sold,,,http://www.redfin.com/CA/Morgan-Hill/17151-Creekside-Cir-95037/home/1011952,MLSListings,ML81653883,N,Y,37.128817,-121.6456856
PAST SALE,August-8-2017,Single Family Residential,50 E Middle Ave,SAN MARTIN,CA,95046,550000,3,2.0,SAN MARTIN,1630,8928,1935,175,337,,Sold,,,http://www.redfin.com/CA/San-Martin/50-E-Middle-Ave-95046/home/1162825,MLSListings,ML81637794,N,Y,37.1003398,-121.6221856
PAST SALE,August-18-2017,Single Family Residential,16645 Trail Dr,MORGAN HILL,CA,95037,885800,3,2.0,MORGAN HILL,1859,7604,1984,165,476,,Sold,,,http://www.redfin.com/CA/Morgan-Hill/16645-Trail-Dr-95037/home/1366180,MLSListings,ML81669131,N,Y,37.13544,-121.6042196
PAST SALE,August-16-2017,Single Family Residential,13915 Sycamore Dr,MORGAN HILL,CA,95037,935000,3,2.0,MORGAN HILL,1300,129851,1962,167,719,,Sold,,,http://www.redfin.com/CA/Morgan-Hill/13915-Sycamore-Dr-95037/home/1788536,MLSListings,ML81637974,N,Y,37.072485,-121.670485
PAST SALE,August-18-2017,Condo/Co-op,181 Del Monte Ln,MORGAN HILL,CA,95037,555000,2,2.0,MORGAN HILL,1365,2450,1986,165,407,410,Sold,,,http://www.redfin.com/CA/Morgan-Hill/181-Del-Monte-Ln-95037/home/1573295,MLSListings,ML81652682,N,Y,37.134104,-121.662867
PAST SALE,November-1-2017,Condo/Co-op,155 Del Monte Ln,MORGAN HILL,CA,95037,555000,2,2.0,MORGAN HILL,1365,2450,1986,90,407,410,Sold,,,http://www.redfin.com/CA/Morgan-Hill/155-Del-Monte-Ln-95037/home/1014980,MLSListings,ML81673619,N,Y,37.134358,-121.66216
PAST SALE,December-26-2017,Single Family Residential,523 Dougherty Ave,MORGAN HILL,CA,95037,740000,4,2.0,MORGAN HILL,2024,43558,1974,35,366,,Sold,,,http://www.redfin.com/CA/Morgan-Hill/523-Dougherty-Ave-95037/home/1010219,MLSListings,ML81679032,N,Y,37.1638452,-121.6907027
PAST SALE,January-9-2018,Single Family Residential,5096 Fallen Oak Dr,MORGAN HILL,CA,95037,1100000,2,2.0,MORGAN HILL,1806,968338,1986,21,609,,Sold,,,http://www.redfin.com/CA/Morgan-Hill/5096-Fallen-Oak-Dr-95037/home/143060463,MLSListings,ML81684127,N,Y,37.105114,-121.749712
PAST SALE,August-14-2017,Townhouse,16767 San Luis Way,MORGAN HILL,CA,95037,640000,3,2.0,MORGAN HILL,1757,1560,1997,169,364,263,Sold,,,http://www.redfin.com/CA/Morgan-Hill/16767-San-Luis-Way-95037/home/561734,MLSListings,ML81670385,N,Y,37.1256374,-121.6411522
PAST SALE,August-11-2017,Single Family Residential,180 Spring Ave,MORGAN HILL,CA,95037,700000,4,2.0,MORGAN HILL,2058,8060,1963,172,340,,Sold,,,http://www.redfin.com/CA/Morgan-Hill/180-Spring-Ave-95037/home/590368,MLSListings,ML81668999,N,Y,37.1208477,-121.6506417
PAST SALE,,Single Family Residential,395 W Main Ave,Morgan Hill,CA,95037,200000,4,2.0,,2416,21000,1900,,83,,,,,http://www.redfin.com/CA/Morgan-Hill/395-W-Main-Ave-95037/home/1105769,,,N,Y,37.1265681,-121.6619452
PAST SALE,September-28-2017,Condo/Co-op,126 Nogal Ln,MORGAN HILL,CA,95037,669990,3,2.0,MORGAN HILL,1521,,2017,124,440,191,Sold,,,http://www.redfin.com/CA/MORGAN-HILL/126-NOGAL-LN-95037/home/143044009,MLSListings,ML81674686,N,Y,37.1305012,-121.6543901
PAST SALE,September-29-2017,Single Family Residential,17205 Grand Prix Way,MORGAN HILL,CA,95037,735000,4,2.0,MORGAN HILL,1652,7350,1977,123,445,,Sold,,,http://www.redfin.com/CA/Morgan-Hill/17205-Grand-Prix-Way-95037/home/1556055,MLSListings,ML81672446,N,Y,37.1320316,-121.6427979
PAST SALE,,Condo/Co-op,170 Pear Dr,Morgan Hill,CA,95037,795000,3,2.0,,1867,,2017,,426,,,,,http://www.redfin.com/CA/Morgan-Hill/170-Pear-Dr-95037/home/143043998,,,N,Y,37.1427699,-121.6223009
PAST SALE,August-31-2017,Single Family Residential,1830 Bluebonnet Ct,MORGAN HILL,CA,95037,690000,3,2.0,MORGAN HILL,1612,5605,1986,152,428,160,Sold,,,http://www.redfin.com/CA/Morgan-Hill/1830-Bluebonnet-Ct-95037/home/1638470,MLSListings,ML81670642,N,Y,37.138717,-121.6225377
PAST SALE,,Single Family Residential,16625 Jackson Oaks Dr,Morgan Hill,CA,95037,164000,3,2.0,,2264,16065,1975,,72,,,,,http://www.redfin.com/CA/Morgan-Hill/16625-Jackson-Oaks-Dr-95037/home/1013157,,,N,Y,37.1408538,-121.590724
PAST SALE,September-5-2017,Single Family Residential,17141 Parkview Dr,MORGAN HILL,CA,95037,947500,4,2.0,MORGAN HILL,1952,20000,1967,147,485,35,Sold,,,http://www.redfin.com/CA/Morgan-Hill/17141-Park-View-Dr-95037/home/1238070,MLSListings,ML81669502,N,Y,37.1482664,-121.5978196
PAST SALE,September-14-2017,Single Family Residential,873 Serene Ct,MORGAN HILL,CA,95037,820000,3,2.0,MORGAN HILL,1731,8946,1993,138,474,,Sold,,,http://www.redfin.com/CA/Morgan-Hill/873-Serene-Ct-95037/home/1011841,MLSListings,ML81673427,N,Y,37.136087,-121.638425
PAST SALE,,Condo/Co-op,174 NOGAL LN,MORGAN HILL,CA,95037,626500,2,2.0,,1468,,2017,,427,,,,,http://www.redfin.com/CA/MORGAN-HILL/174-NOGAL-LN-95037/home/143043990,,,N,Y,37.1305012,-121.6543901
PAST SALE,August-17-2017,Single Family Residential,16989 Sara Jane Ln,MORGAN HILL,CA,95037,765000,3,2.0,MORGAN HILL,1446,4158,1977,166,529,145,Sold,,,http://www.redfin.com/CA/Morgan-Hill/16989-Sara-Jane-Ln-95037/home/1013263,MLSListings,ML81667192,N,Y,37.1465845,-121.5969335
PAST SALE,September-1-2017,Single Family Residential,17609 Raccoon Ct,MORGAN HILL,CA,95037,1060000,3,2.0,MORGAN HILL,2833,24800,1982,151,374,35,Sold,,,http://www.redfin.com/CA/Morgan-Hill/17609-Raccoon-Ct-95037/home/1162074,MLSListings,ML81655995,N,Y,37.1571103,-121.6106597
PAST SALE,September-20-2017,Single Family Residential,17109 Shady Lane Dr,MORGAN HILL,CA,95037,865000,3,2.0,MORGAN HILL,1443,12825,1957,132,599,38,Sold,,,http://www.redfin.com/CA/Morgan-Hill/17109-Shady-Lane-Dr-95037/home/1376392,MLSListings,ML81672863,N,Y,37.1504034,-121.5947642
PAST SALE,,Single Family Residential,17055 Peppertree Dr,Morgan Hill,CA,95037,680000,3,2.0,,1160,4500,1980,,586,,,,,http://www.redfin.com/CA/Morgan-Hill/17055-Peppertree-Dr-95037/home/1111191,,,N,Y,37.1357447,-121.625507
PAST SALE,October-31-2017,Single Family Residential,16550 Jackson Oaks Dr,MORGAN HILL,CA,95037,832500,3,2.0,MORGAN HILL,2400,12400,1973,91,347,33,Sold,,,http://www.redfin.com/CA/Morgan-Hill/16550-Jackson-Oaks-Dr-95037/home/845152,MLSListings,ML81654498,N,Y,37.141151,-121.5889938
PAST SALE,October-23-2017,Single Family Residential,135 Foothill Ct,MORGAN HILL,CA,95037,775000,3,2.0,MORGAN HILL,1310,7440,1963,99,592,,Sold,,,http://www.redfin.com/CA/Morgan-Hill/135-Foothill-Ct-95037/home/1016954,MLSListings,ML81677320,N,Y,37.1208348,-121.6494921
PAST SALE,October-25-2017,Single Family Residential,17762 Calle Central,MORGAN HILL,CA,95037,840000,3,2.0,MORGAN HILL,1743,5912,2000,97,482,120,Sold,,,http://www.redfin.com/CA/Morgan-Hill/17762-Calle-Central-95037/home/1733720,MLSListings,ML81674004,N,Y,37.1382415,-121.6503143
PAST SALE,,Single Family Residential,3155 Thomas Grade,Morgan Hill,CA,95037,650000,4,2.0,,2154,17898,1974,,302,,,,,http://www.redfin.com/CA/Morgan-Hill/3155-Thomas-Grade-95037/home/1521441,,,N,Y,37.142419,-121.5967366
PAST SALE,December-20-2017,Single Family Residential,1600 Almond Way,MORGAN HILL,CA,95037,798000,4,2.0,MORGAN HILL,1296,7267,1975,41,616,,Sold,,,http://www.redfin.com/CA/Morgan-Hill/1600-Almond-Way-95037/home/1657002,MLSListings,ML81685867,N,Y,37.1393741,-121.6253464
PAST SALE,,Single Family Residential,560 W Edmundson Ave,Morgan Hill,CA,95037,1280000,4,2.0,,2040,75794,1972,,627,,,,,http://www.redfin.com/CA/Morgan-Hill/560-W-Edmundson-Ave-95037/home/1016957,,,N,Y,37.1092929,-121.6508012
PAST SALE,January-11-2018,Single Family Residential,675 Connemara Dr,MORGAN HILL,CA,95037,895000,3,2.0,MORGAN HILL,1874,5779,2015,19,478,86,Sold,,,http://www.redfin.com/CA/Morgan-Hill/675-Connemara-Dr-95037/home/64460188,MLSListings,ML81684054,N,Y,37.0998002,-121.6413396
PAST SALE,,Single Family Residential,15235 Pratola Ct,Morgan Hill,CA,95037,112500,3,2.0,,1308,7000,1976,,86,,,,,http://www.redfin.com/CA/Morgan-Hill/15235-Pratola-Ct-95037/home/1252112,,,N,Y,37.0986246,-121.6437739
PAST SALE,December-11-2017,Condo/Co-op,2248 Brega Ln #22,MORGAN HILL,CA,95037,512500,2,2.0,MORGAN HILL,1104,1134,1987,50,464,366,Sold,,,http://www.redfin.com/CA/Morgan-Hill/2248-Brega-Ln-95037/unit-22/home/1657365,MLSListings,ML81682814,N,Y,37.138604,-121.611696
PAST SALE,January-12-2018,Single Family Residential,15120 Via Corfinio,MORGAN HILL,CA,95037,775000,3,2.0,MORGAN HILL,1380,5580,1993,18,562,,Sold,,,http://www.redfin.com/CA/Morgan-Hill/15120-Via-Corfinio-95037/home/951756,MLSListings,ML81686635,N,Y,37.0975416,-121.644081
PAST SALE,August-22-2017,Single Family Residential,16685 San Ramon Dr,MORGAN HILL,CA,95037,700000,3,2.0,MORGAN HILL,1437,5532,2002,161,487,,Sold,,,http://www.redfin.com/CA/Morgan-Hill/16685-San-Ramon-Dr-95037/home/1735219,MLSListings,ML81670159,N,Y,37.1254033,-121.6354627
PAST SALE,September-15-2017,Townhouse,16764 San Luis Way,MORGAN HILL,CA,95037,645000,3,2.0,MORGAN HILL,1757,1848,1996,137,367,263,Sold,,,http://www.redfin.com/CA/Morgan-Hill/16764-San-Luis-Way-95037/home/1485491,MLSListings,ML81672276,N,Y,37.126071,-121.641064
PAST SALE,September-15-2017,Single Family Residential,870 Via Del Castille,MORGAN HILL,CA,95037,850000,3,2.0,MORGAN HILL,1501,7182,1974,137,566,,Sold,,,http://www.redfin.com/CA/Morgan-Hill/870-Via-Del-Castille-95037/home/1018243,MLSListings,ML81672694,N,Y,37.099065,-121.6469591
PAST SALE,September-20-2017,Single Family Residential,14805 Native Dancer Dr,MORGAN HILL,CA,95037,980000,4,2.0,MORGAN HILL,2000,19481,1978,132,490,14,Sold,,,http://www.redfin.com/CA/Morgan-Hill/14805-Native-Dancer-Dr-95037/home/1017689,MLSListings,ML81669080,N,Y,37.0948441,-121.637718
PAST SALE,September-28-2017,Mobile/Manufactured Home,200 Burnett Ave #23,MORGAN HILL,CA,95037,200000,3,2.0,MORGAN HILL,1420,,2004,124,141,,Sold,,,http://www.redfin.com/CA/Morgan-Hill/200-Burnett-Ave-95037/unit-23/home/1234015,MLSListings,ML81667178,N,Y,37.1551402,-121.6723308
PAST SALE,October-4-2017,Condo/Co-op,175 Del Monte Ln,MORGAN HILL,CA,95037,550000,2,2.0,MORGAN HILL,1365,2450,1986,118,403,410,Sold,,,http://www.redfin.com/CA/Morgan-Hill/175-Del-Monte-Ln-95037/home/1512738,MLSListings,ML81674316,N,Y,37.13397,-121.662751
PAST SALE,September-29-2017,Single Family Residential,765 Alamo Dr,MORGAN HILL,CA,95037,725000,3,2.0,MORGAN HILL,1727,5832,1976,123,420,,Sold,,,http://www.redfin.com/CA/Morgan-Hill/765-Alamo-Dr-95037/home/1750307,MLSListings,ML81675422,N,Y,37.0998211,-121.6446939
PAST SALE,,Condo/Co-op,156 Nogal Ln,Morgan Hill,CA,95037,797500,3,2.0,,2364,,2017,,337,,,,,http://www.redfin.com/CA/Morgan-Hill/156-Nogal-Ln-95037/home/143043994,,,N,Y,37.138289,-121.6628898
PAST SALE,,Single Family Residential,16815 Ranger Ct,Morgan Hill,CA,95037,680000,4,2.0,,1582,7400,1977,,430,,,,,http://www.redfin.com/CA/Morgan-Hill/16815-Ranger-Ct-95037/home/1197469,,,N,Y,37.1371649,-121.6092725
PAST SALE,August-22-2017,Single Family Residential,14660 Excaliber Ct,MORGAN HILL,CA,95037,657000,2,2.0,MORGAN HILL,1350,4460,1994,161,487,200,Sold,,,http://www.redfin.com/CA/Morgan-Hill/14660-Excaliber-Ct-95037/home/1531296,MLSListings,ML81649266,N,Y,37.0934079,-121.640845
PAST SALE,August-29-2017,Condo/Co-op,16820 Sorrel Way,MORGAN HILL,CA,95037,554000,3,2.0,MORGAN HILL,1453,1760,1987,154,381,366,Sold,,,http://www.redfin.com/CA/Morgan-Hill/16820-Sorrel-Way-95037/home/661774,MLSListings,ML81669684,N,Y,37.138699,-121.609668
PAST SALE,November-17-2017,Other,2275 E Dunne Ave,MORGAN HILL,CA,95037,2500000,,,MORGAN HILL,,363290,,74,,,Sold,,,http://www.redfin.com/CA/Morgan-Hill/2275-E-Dunne-Ave-95037/home/1012435,MLSListings,ML81655375,N,Y,37.141832,-121.610821
PAST SALE,October-11-2017,Single Family Residential,17420 Blue Jay Ct,MORGAN HILL,CA,95037,880000,4,2.0,MORGAN HILL,2034,28520,1971,111,433,42,Sold,,,http://www.redfin.com/CA/Morgan-Hill/17420-Blue-Jay-Ct-95037/home/1376399,MLSListings,ML81676413,N,Y,37.1530978,-121.6038232
PAST SALE,December-12-2017,Townhouse,16986 Sorrel Way,MORGAN HILL,CA,95037,510000,2,2.0,MORGAN HILL,1104,1134,1987,49,462,366,Sold,,,http://www.redfin.com/CA/Morgan-Hill/16986-Sorrel-Way-95037/home/1162872,MLSListings,ML81684086,N,Y,37.13978,-121.610785
PAST SALE,December-15-2017,Single Family Residential,1630 Bluebonnet Way,MORGAN HILL,CA,95037,739000,4,2.0,MORGAN HILL,1296,8824,1975,46,570,,Sold,,,http://www.redfin.com/CA/Morgan-Hill/1630-Bluebonnet-Ct-95037/home/1013513,MLSListings,ML81673598,N,Y,37.1381799,-121.6242773
PAST SALE,October-27-2017,Single Family Residential,15885 La Porte Ct,MORGAN HILL,CA,95037,820000,3,2.0,MORGAN HILL,1575,7350,1981,95,521,,Sold,,,http://www.redfin.com/CA/Morgan-Hill/15885-La-Porte-Ct-95037/home/1733764,MLSListings,ML81677363,N,Y,37.1087559,-121.6463926
PAST SALE,November-9-2017,Single Family Residential,16630 Cory Ln,MORGAN HILL,CA,95037,816000,3,2.0,MORGAN HILL,2088,7931,1989,82,391,,Sold,,,http://www.redfin.com/CA/Morgan-Hill/16630-Cory-Ln-95037/home/1111420,MLSListings,ML81681508,N,Y,37.1231244,-121.6392183
PAST SALE,November-7-2017,Single Family Residential,399 Calle Caballeria,MORGAN HILL,CA,95037,762000,3,2.0,MORGAN HILL,1326,5814,1994,84,575,,Sold,,,http://www.redfin.com/CA/Morgan-Hill/399-Calle-Caballeria-95037/home/1012614,MLSListings,ML81679938,N,Y,37.1319216,-121.6484131
PAST SALE,November-17-2017,Single Family Residential,790 Cordova Ct,MORGAN HILL,CA,95037,915000,3,2.0,MORGAN HILL,1756,7280,1971,74,521,,Sold,,,http://www.redfin.com/CA/Morgan-Hill/790-Cordova-Ct-95037/home/686301,MLSListings,ML81681853,N,Y,37.0999582,-121.6460719
PAST SALE,November-21-2017,Single Family Residential,835 Santiago Pl,MORGAN HILL,CA,95037,875000,3,2.0,MORGAN HILL,1586,8120,1974,70,552,,Sold,,,http://www.redfin.com/CA/Morgan-Hill/835-Santiago-Pl-95037/home/1017550,MLSListings,ML81681440,N,Y,37.0998886,-121.6478062
PAST SALE,December-4-2017,Single Family Residential,17838 Calle Tierra,MORGAN HILL,CA,95037,890000,3,2.0,MORGAN HILL,1745,6000,2001,57,510,120,Sold,,,http://www.redfin.com/CA/Morgan-Hill/17838-Calle-Tierra-95037/home/897021,MLSListings,ML81683622,N,Y,37.1393384,-121.6499438
PAST SALE,January-2-2018,Mobile/Manufactured Home,5 Spring St #5,MORGAN HILL,CA,95037,395000,2,2.0,MORGAN HILL,1750,,1999,28,226,,Sold,,,http://www.redfin.com/CA/Morgan-Hill/5-Spring-Ln-95037/unit-5/home/144346793,MLSListings,ML81685243,N,Y,37.0930698,-121.6362981
PAST SALE,January-4-2018,Mobile/Manufactured Home,214 Leisure Dr #214,MORGAN HILL,CA,95037,380000,2,2.0,MORGAN HILL,1509,,1981,26,252,,Sold,,,http://www.redfin.com/CA/Morgan-Hill/214-Leisure-Dr-95037/unit-214/home/143827212,MLSListings,ML81678214,N,Y,37.0926178,-121.6397992
PAST SALE,,Single Family Residential,2310 Fountain Oaks Dr,Morgan Hill,CA,95037,700000,4,2.0,,1502,7200,1977,,466,,,,,http://www.redfin.com/CA/Morgan-Hill/2310-Fountain-Oaks-Dr-95037/home/1366160,,,N,Y,37.1360783,-121.6087336
PAST SALE,January-11-2018,Single Family Residential,2015 Bayo Claros Cir,MORGAN HILL,CA,95037,820000,3,2.0,MORGAN HILL,1504,4448,1987,19,545,160,Sold,,,http://www.redfin.com/CA/Morgan-Hill/2015-Bayo-Claros-Cir-95037/home/617581,MLSListings,ML81686479,N,Y,37.1381665,-121.6211074
PAST SALE,September-25-2017,Mobile/Manufactured Home,19 Chestnut Ct #19,MORGAN HILL,CA,95037,333333,2,2.0,MORGAN HILL,1040,,1990,127,321,,Sold,,,http://www.redfin.com/CA/Morgan-Hill/19-Chestnut-Ct-95037/unit-19/home/88633606,MLSListings,ML81673573,N,Y,37.0925562,-121.635308
PAST SALE,September-26-2017,Condo/Co-op,131 La Crosse Dr,MORGAN HILL,CA,95037,490000,2,2.0,MORGAN HILL,1008,435,1984,126,486,375,Sold,,,http://www.redfin.com/CA/Morgan-Hill/131-La-Crosse-Dr-95037/home/706222,MLSListings,ML81672764,N,Y,37.110563,-121.645166
PAST SALE,,Single Family Residential,16190 Church St,Morgan Hill,CA,95037,715000,3,2.0,,1326,9750,1955,,539,,,,,http://www.redfin.com/CA/Morgan-Hill/16190-Church-St-95037/home/1025463,,,N,Y,37.1162257,-121.6419568
PAST SALE,November-16-2017,Mobile/Manufactured Home,269 Cherry Ct #269,MORGAN HILL,CA,95037,340150,2,2.0,MORGAN HILL,1296,,1983,75,262,,Sold,,,http://www.redfin.com/CA/Morgan-Hill/269-Cherry-Ct-95037/unit-269/home/63740464,MLSListings,ML81675623,N,Y,37.0932245,-121.6397494
PAST SALE,December-29-2017,Mobile/Manufactured Home,575 San Pedro Ave #35,MORGAN HILL,CA,95037,190000,2,2.0,MORGAN HILL,1440,,1971,32,132,,Sold,,,http://www.redfin.com/CA/Morgan-Hill/575-San-Pedro-Ave-95037/unit-35/home/63740337,MLSListings,ML81670045,N,Y,37.125802,-121.638919
PAST SALE,August-15-2017,Mobile/Manufactured Home,200 Burnett Ave #3,MORGAN HILL,CA,95037,115000,3,2.0,MORGAN HILL,1560,,1975,168,74,,Sold,,,http://www.redfin.com/CA/Morgan-Hill/200-Burnett-Ave-95037/unit-3/home/1068127,MLSListings,ML81650012,N,Y,37.1551402,-121.6723308
PAST SALE,August-22-2017,Single Family Residential,550 Claremont Dr,MORGAN HILL,CA,95037,770000,3,2.0,MORGAN HILL,1520,9520,1951,161,507,,Sold,,,http://www.redfin.com/CA/Morgan-Hill/550-Claremont-Dr-95037/home/1293548,MLSListings,ML81669290,N,Y,37.126948,-121.664601
PAST SALE,,Single Family Residential,17050 John Telfer Dr,Morgan Hill,CA,95037,318500,3,2.0,,2012,9350,1966,,158,,,,,http://www.redfin.com/CA/Morgan-Hill/17050-John-Telfer-Dr-95037/home/1333067,,,N,Y,37.1213209,-121.6651557
PAST SALE,November-15-2017,Mobile/Manufactured Home,275 Burnett Ave #125,MORGAN HILL,CA,95037,147782,2,2.0,MORGAN HILL,1152,,1974,76,128,,Sold,,,http://www.redfin.com/CA/Morgan-Hill/275-Burnett-Ave-95037/unit-125/home/1093237,MLSListings,ML81680940,N,Y,37.1577177,-121.6726083
PAST SALE,,Multi-Family (2-4 Unit),18055 Monterey Rd,Morgan Hill,CA,95037,1300000,,,,4200,109858,1945,,310,,,,,http://www.redfin.com/CA/Morgan-Hill/18055-Monterey-Rd-95037/home/95957835,,,N,Y,37.1379973,-121.6608839
PAST SALE,,Condo/Co-op,144 NOGAL LN,MORGAN HILL,CA,95037,646000,2,2.0,,1468,,2017,,440,,,,,http://www.redfin.com/CA/MORGAN-HILL/144-NOGAL-LN-95037/home/143043992,,,N,Y,37.1305012,-121.6543901
PAST SALE,October-30-2017,Single Family Residential,16590 Oak Glen Ave,MORGAN HILL,CA,95037,826000,3,2.0,MORGAN HILL,1552,28390,1947,92,532,,Sold,,,http://www.redfin.com/CA/Morgan-Hill/16590-Oak-Glen-Ave-95037/home/604978,MLSListings,ML81679277,N,Y,37.1085797,-121.680169
PAST SALE,November-7-2017,Single Family Residential,15180 Via Corfinio,MORGAN HILL,CA,95037,835000,3,2.0,MORGAN HILL,1531,7020,1977,84,545,,Sold,,,http://www.redfin.com/CA/Morgan-Hill/15180-Via-Corfinio-95037/home/1845478,MLSListings,ML81679169,N,Y,37.0981929,-121.6451664
PAST SALE,November-27-2017,Mobile/Manufactured Home,75 Mulberry Ct #75,MORGAN HILL,CA,95037,415000,3,2.0,MORGAN HILL,1456,,2016,64,285,,Sold,,,http://www.redfin.com/CA/Morgan-Hill/75-Mulberry-Ct-95037/unit-75/home/21854705,MLSListings,ML81677013,N,Y,37.0920405,-121.636673
PAST SALE,December-1-2017,Single Family Residential,1230 Llagas Rd,MORGAN HILL,CA,95037,1240000,4,2.0,MORGAN HILL,2400,47044,1964,60,517,,Sold,,,http://www.redfin.com/CA/Morgan-Hill/1230-Llagas-Rd-95037/home/1242060,MLSListings,ML81678976,N,Y,37.133745,-121.6820351
PAST SALE,November-13-2017,Townhouse,17080 Viewcrest Ln,MORGAN HILL,CA,95037,685000,3,2.0,MORGAN HILL,2338,1296,1986,78,293,270,Sold,,,http://www.redfin.com/CA/Morgan-Hill/17080-Viewcrest-Ln-95037/home/1197271,MLSListings,ML81680760,N,Y,37.1244224,-121.6559288
PAST SALE,November-21-2017,Single Family Residential,16979 Sara Jane Ln,MORGAN HILL,CA,95037,750000,3,2.0,MORGAN HILL,1322,3069,1977,70,567,145,Sold,,,http://www.redfin.com/CA/Morgan-Hill/16979-Sara-Jane-Ln-95037/home/656413,MLSListings,ML81681572,N,Y,37.1462719,-121.5964894
PAST SALE,,Single Family Residential,75 PASEO MADRE CT,MORGAN HILL,CA,95037,925000,4,2.0,,2580,4249,2017,,359,,,,,http://www.redfin.com/CA/MORGAN-HILL/75-PASEO-MADRE-CT-95037/home/143043977,,,N,Y,37.1305012,-121.6543901
PAST SALE,December-19-2017,Single Family Residential,2735 Fountain Oaks Dr,MORGAN HILL,CA,95037,770000,3,2.0,MORGAN HILL,1610,7035,1977,42,478,,Sold,,,http://www.redfin.com/CA/Morgan-Hill/2735-Fountain-Oaks-Dr-95037/home/1773091,MLSListings,ML81684252,N,Y,37.1388856,-121.605437
PAST SALE,,Single Family Residential,17020 Oak Leaf Dr,Morgan Hill,CA,95037,525000,4,2.0,,2416,14300,1976,,217,,,,,http://www.redfin.com/CA/Morgan-Hill/17020-Oak-Leaf-Dr-95037/home/1012066,,,N,Y,37.1457673,-121.5973928
PAST SALE,,Single Family Residential,17537 Calle Del Sol,Morgan Hill,CA,95037,177227,3,2.0,,1657,4896,1994,,107,,,,,http://www.redfin.com/CA/Morgan-Hill/17537-Calle-Del-Sol-95037/home/1147928,,,N,Y,37.132414,-121.6503005
PAST SALE,December-15-2017,Single Family Residential,15195 La Alameda Dr,MORGAN HILL,CA,95037,870000,3,2.0,MORGAN HILL,1582,5870,2014,46,550,86,Sold,,,http://www.redfin.com/CA/Morgan-Hill/15195-La-Alameda-Dr-95037/home/62324284,MLSListings,ML81683963,N,Y,37.099246,-121.6418635
PAST SALE,December-27-2017,Mobile/Manufactured Home,86 Park #86,MORGAN HILL,CA,95037,372500,3,2.0,MORGAN HILL,1368,,1995,34,272,,Sold,,,http://www.redfin.com/CA/Morgan-Hill/86-Park-Dr-95037/unit-86/home/143730101,MLSListings,ML81674807,N,Y,37.0926558,-121.6374072
PAST SALE,December-29-2017,Condo/Co-op,16900 Sorrel Way,MORGAN HILL,CA,95037,598000,3,2.0,MORGAN HILL,1453,1376,1987,32,412,366,Sold,,,http://www.redfin.com/CA/Morgan-Hill/16900-Sorrel-Way-95037/home/1869271,MLSListings,ML81685937,N,Y,37.1390594,-121.6100463
PAST SALE,December-29-2017,Condo/Co-op,193 Del Monte Ln,MORGAN HILL,CA,95037,560000,2,2.0,MORGAN HILL,1365,1308,1986,32,410,410,Sold,,,http://www.redfin.com/CA/Morgan-Hill/193-Del-Monte-Ln-95037/home/1064309,MLSListings,ML81685775,N,Y,37.13435,-121.663078
PAST SALE,,Single Family Residential,1195 Llagas Rd,Morgan Hill,CA,95037,862000,4,2.0,,1504,37000,1974,,573,,,,,http://www.redfin.com/CA/Morgan-Hill/1195-Llagas-Rd-95037/home/661160,,,N,Y,37.134375,-121.6803986
PAST SALE,December-29-2017,Single Family Residential,2730 Hay Loft Way,MORGAN HILL,CA,95037,850000,3,2.0,MORGAN HILL,1736,7125,1976,32,490,,Sold,,,http://www.redfin.com/CA/Morgan-Hill/2730-Hay-Loft-Way-95037/home/1115896,MLSListings,ML81680453,N,Y,37.1392652,-121.6059642
PAST SALE,,Single Family Residential,240 Hazelton Ct,Morgan Hill,CA,95037,625000,4,2.0,,1952,10725,1978,,320,,,,,http://www.redfin.com/CA/Morgan-Hill/240-Hazelton-Ct-95037/home/1014227,,,N,Y,37.1385712,-121.6647999
PAST SALE,January-10-2018,Condo/Co-op,16922 Sorrel Way,MORGAN HILL,CA,95037,533000,2,2.0,MORGAN HILL,1104,1198,1987,20,483,366,Sold,,,http://www.redfin.com/CA/Morgan-Hill/16922-Sorrel-Way-95037/home/1028004,MLSListings,ML81685726,N,Y,37.13946,-121.61045
PAST SALE,January-25-2018,Single Family Residential,16738 Audrey Dr,MORGAN HILL,CA,95037,535000,2,2.0,MORGAN HILL,824,2195,1990,5,649,150,Sold,,,http://www.redfin.com/CA/Morgan-Hill/16738-Audrey-Dr-95037/home/1736929,MLSListings,ML81687199,N,Y,37.1279018,-121.6352765
PAST SALE,August-4-2017,Single Family Residential,16955 PINE Way,MORGAN HILL,CA,95037,765000,3,2.0,MORGAN HILL,1474,5907,1994,179,519,,Sold,,,http://www.redfin.com/CA/Morgan-Hill/16955-Pine-Way-95037/home/1234372,MLSListings,ML81656162,N,Y,37.1347063,-121.6220579
PAST SALE,,Single Family Residential,17720 Florence Ct,Morgan Hill,CA,95037,245000,4,2.0,,1646,7426,1975,,149,,,,,http://www.redfin.com/CA/Morgan-Hill/17720-Florence-Ct-95037/home/1376452,,,N,Y,37.1285124,-121.665349
PAST SALE,August-10-2017,Single Family Residential,270 Longview Dr,MORGAN HILL,CA,95037,685000,3,2.0,MORGAN HILL,1402,6510,1959,173,489,,Sold,,,http://www.redfin.com/CA/Morgan-Hill/270-Longview-Dr-95037/home/1531171,MLSListings,ML81654809,N,Y,37.1313689,-121.6628929
PAST SALE,August-21-2017,Single Family Residential,16980 Helene Ct,MORGAN HILL,CA,95037,730000,3,2.0,MORGAN HILL,1446,3328,1977,162,505,145,Sold,,,http://www.redfin.com/CA/Morgan-Hill/16980-Helene-Ln-95037/home/1013367,MLSListings,ML81669919,N,Y,37.1462197,-121.5958867
PAST SALE,September-5-2017,Single Family Residential,1460 Kelly Park Cir,MORGAN HILL,CA,95037,705000,3,2.0,MORGAN HILL,1299,6400,1986,147,543,209,Sold,,,http://www.redfin.com/CA/Morgan-Hill/1460-Kelly-Park-Cir-95037/home/1452145,MLSListings,ML81669255,N,Y,37.1371736,-121.6296984
PAST SALE,,Condo/Co-op,168 NOGAL LN,MORGAN HILL,CA,95037,834500,3,2.0,,2057,,2017,,406,,,,,http://www.redfin.com/CA/MORGAN-HILL/168-NOGAL-LN-95037/home/143043991,,,N,Y,37.1305012,-121.6543901
PAST SALE,September-26-2017,Single Family Residential,17360 Calle Mazatan,MORGAN HILL,CA,95037,650000,3,2.0,MORGAN HILL,1220,7800,1976,126,533,,Sold,,,http://www.redfin.com/CA/Morgan-Hill/17360-Calle-Mazatan-95037/home/1291455,MLSListings,ML81653733,N,Y,37.1321416,-121.6468084
PAST SALE,October-12-2017,Single Family Residential,95 W Main Ave,MORGAN HILL,CA,95037,780000,4,2.0,MORGAN HILL,1312,4800,1895,110,595,,Sold,,,http://www.redfin.com/CA/Morgan-Hill/95-W-Main-Ave-95037/home/1014103,MLSListings,ML81655472,N,Y,37.1295462,-121.6564184
PAST SALE,October-18-2017,Mobile/Manufactured Home,162 Walnut Dr #162,MORGAN HILL,CA,95037,405000,3,2.0,MORGAN HILL,1620,,2011,104,250,,Sold,,,http://www.redfin.com/CA/Morgan-Hill/162-Walnut-Dr-95037/unit-162/home/39583153,MLSListings,ML81674998,N,Y,37.0946636,-121.6389387
PAST SALE,November-3-2017,Mobile/Manufactured Home,215 Leisure Dr #215,MORGAN HILL,CA,95037,415000,2,2.0,MORGAN HILL,1500,,1983,88,277,,Sold,,,http://www.redfin.com/CA/Morgan-Hill/215-Leisure-Dr-95037/unit-215/home/63740449,MLSListings,ML81678111,N,Y,37.092588,-121.639778
PAST SALE,October-25-2017,Condo/Co-op,153 Del Monte Ln,MORGAN HILL,CA,95037,555000,2,2.0,MORGAN HILL,1365,2450,1986,97,407,410,Sold,,,http://www.redfin.com/CA/Morgan-Hill/153-Del-Monte-Ln-95037/home/1014222,MLSListings,ML81679120,N,Y,37.134431,-121.662029
PAST SALE,November-1-2017,Condo/Co-op,110 La Crosse Dr,MORGAN HILL,CA,95037,500000,2,2.0,MORGAN HILL,1008,435,1984,90,496,375,Sold,,,http://www.redfin.com/CA/Morgan-Hill/110-La-Crosse-Dr-95037/home/1539651,MLSListings,ML81680190,N,Y,37.109746,-121.645016
PAST SALE,October-2-2017,Single Family Residential,355 Spring Ave,MORGAN HILL,CA,95037,710000,4,2.0,MORGAN HILL,1512,9000,1959,120,470,,Sold,,,http://www.redfin.com/CA/Morgan-Hill/355-Spring-Ave-95037/home/1003917,MLSListings,ML81676626,N,Y,37.1200104,-121.6541775
PAST SALE,October-27-2017,Single Family Residential,1500 Bautista Way,MORGAN HILL,CA,95037,985000,3,2.0,MORGAN HILL,1817,7237,2016,95,542,75,Sold,,,http://www.redfin.com/CA/Morgan-Hill/1500-Bautista-Way-95037/home/108510578,MLSListings,ML81674677,N,Y,37.1545604,-121.6415299
PAST SALE,,Single Family Residential,17330 Shelton Way,Morgan Hill,CA,95037,810000,4,2.0,,1764,4496,2013,,459,,,,,http://www.redfin.com/CA/Morgan-Hill/17330-Shelton-Way-95037/home/52663895,,,N,Y,37.1390029,-121.62748
PAST SALE,September-28-2017,Condo/Co-op,16933 Sorrel Way,MORGAN HILL,CA,95037,480000,2,2.0,MORGAN HILL,1104,1134,1987,124,435,365,Sold,,,http://www.redfin.com/CA/Morgan-Hill/16933-Sorrel-Way-95037/home/1027993,MLSListings,ML81674357,N,Y,37.139301,-121.610943
PAST SALE,October-11-2017,Single Family Residential,16650 Finley Ridge Dr,MORGAN HILL,CA,95037,985000,4,2.0,MORGAN HILL,1800,887317,1998,111,547,58,Sold,,,http://www.redfin.com/CA/Morgan-Hill/16650-Finley-Ridge-Ct-95037/home/142994551,MLSListings,ML81671277,N,Y,37.152479,-121.565746
PAST SALE,October-24-2017,Condo/Co-op,16993 Sorrel Way,MORGAN HILL,CA,95037,525000,2,2.0,MORGAN HILL,1104,1134,1987,98,476,366,Sold,,,http://www.redfin.com/CA/Morgan-Hill/16993-Sorrel-Way-95037/home/1810787,MLSListings,ML81678270,N,Y,37.139701,-121.611359
PAST SALE,October-31-2017,Condo/Co-op,16988 Sorrel Way,MORGAN HILL,CA,95037,490000,2,2.0,MORGAN HILL,1104,1134,1987,91,444,366,Sold,,,http://www.redfin.com/CA/Morgan-Hill/16988-Sorrel-Way-95037/home/1252407,MLSListings,ML81656222,N,Y,37.139832,-121.610839
PAST SALE,December-31-2017,Single Family Residential,17245 Birch Way,MORGAN HILL,CA,95037,801000,4,2.0,MORGAN HILL,1296,7245,1975,30,618,,Sold,,,http://www.redfin.com/CA/Morgan-Hill/17245-Birch-Way-95037/home/853554,MLSListings,ML81685395,N,Y,37.13985,-121.6247589
PAST SALE,September-7-2017,Single Family Residential,17020 Viewcrest Ln,MORGAN HILL,CA,95037,577000,3,2.0,MORGAN HILL,1540,1188,1984,145,375,270,Sold,,,http://www.redfin.com/CA/Morgan-Hill/17020-Viewcrest-Ln-95037/home/1016196,MLSListings,ML81656419,N,Y,37.1239347,-121.6554876
PAST SALE,September-14-2017,Mobile/Manufactured Home,18055 N Monterey Rd #12,MORGAN HILL,CA,95037,85000,2,2.0,MORGAN HILL,924,,1983,138,92,,Sold,,,http://www.redfin.com/CA/Morgan-Hill/18055-Monterey-Rd-95037/unit-12/home/1064303,MLSListings,ML81673516,N,Y,37.137222,-121.661882
PAST SALE,September-8-2017,Single Family Residential,110 Foothill Ct,MORGAN HILL,CA,95037,680000,3,2.0,MORGAN HILL,1310,12070,1963,144,519,,Sold,,,http://www.redfin.com/CA/Morgan-Hill/110-Foothill-Ct-95037/home/1190149,MLSListings,ML81670379,N,Y,37.1205318,-121.6489137
PAST SALE,October-24-2017,Single Family Residential,660 La Crosse Dr,MORGAN HILL,CA,95037,890000,3,2.0,MORGAN HILL,1761,9350,1977,98,505,,Sold,,,http://www.redfin.com/CA/Morgan-Hill/660-La-Crosse-Dr-95037/home/1018262,MLSListings,ML81678423,N,Y,37.1041913,-121.6468862
PAST SALE,November-13-2017,Single Family Residential,17677 Peak Ave,MORGAN HILL,CA,95037,700000,4,2.0,MORGAN HILL,1862,7000,1948,78,376,,Sold,,,http://www.redfin.com/CA/Morgan-Hill/17677-Peak-Ave-95037/home/1720745,MLSListings,ML81678093,N,Y,37.1279473,-121.6639678
PAST SALE,November-30-2017,Mobile/Manufactured Home,200 Burnett Ave #159,MORGAN HILL,CA,95037,180000,3,2.0,MORGAN HILL,1440,,1970,61,125,,Sold,,,http://www.redfin.com/CA/Morgan-Hill/200-Burnett-Ave-95037/unit-159/home/1012414,MLSListings,ML81679942,N,Y,37.1551402,-121.6723308
PAST SALE,November-17-2017,Single Family Residential,15195 La Rocca Ct,MORGAN HILL,CA,95037,790000,3,2.0,MORGAN HILL,1317,6955,1977,74,600,,Sold,,,http://www.redfin.com/CA/Morgan-Hill/15195-La-Rocca-Ct-95037/home/1320535,MLSListings,ML81682869,N,Y,37.0985573,-121.6450779
PAST SALE,December-27-2017,Single Family Residential,15635 La Bella Ct,MORGAN HILL,CA,95037,920000,4,2.0,MORGAN HILL,1808,9900,1977,34,509,,Sold,,,http://www.redfin.com/CA/Morgan-Hill/15635-La-Bella-Ct-95037/home/1770027,MLSListings,ML81682613,N,Y,37.105143,-121.6473779
PAST SALE,December-22-2017,Single Family Residential,15895 La Escuela Ct,MORGAN HILL,CA,95037,910000,3,2.0,MORGAN HILL,1717,7560,1985,39,530,,Sold,,,http://www.redfin.com/CA/Morgan-Hill/15895-La-Escuela-Ct-95037/home/1694787,MLSListings,ML81685771,N,Y,37.1061838,-121.6486922
PAST SALE,December-29-2017,Single Family Residential,460 W Edmundson Ave,MORGAN HILL,CA,95037,1150000,4,2.0,MORGAN HILL,1954,58370,1962,32,589,,Sold,,,http://www.redfin.com/CA/Morgan-Hill/460-W-Edmundson-Ave-95037/home/1470377,MLSListings,ML81681343,N,Y,37.1092713,-121.6487941
PAST SALE,,Single Family Residential,19091 Saffron Dr,Morgan Hill,CA,95037,546000,4,2.0,,1513,4448,2002,,361,,,,,http://www.redfin.com/CA/Morgan-Hill/19091-Saffron-Dr-95037/home/1366757,,,N,Y,37.1500137,-121.671878
PAST SALE,January-19-2018,Single Family Residential,415 San Juan Dr,MORGAN HILL,CA,95037,865000,4,2.5,MORGAN HILL,2292,4618,2006,11,377,81,Sold,,,http://www.redfin.com/CA/Morgan-Hill/415-San-Juan-Dr-95037/home/17292535,MLSListings,ML81686897,N,Y,37.1250925,-121.641641
PAST SALE,October-30-2017,Single Family Residential,545 Encino Dr,MORGAN HILL,CA,95037,945000,4,2.5,MORGAN HILL,2250,7605,1977,92,420,,Sold,,,http://www.redfin.com/CA/Morgan-Hill/545-Encino-Dr-95037/home/1197318,MLSListings,ML81677493,N,Y,37.1024057,-121.6449358
PAST SALE,September-29-2017,Single Family Residential,1616 Morning Star Dr,MORGAN HILL,CA,95037,1150000,3,2.5,MORGAN HILL,2327,10268,1998,123,494,75,Sold,,,http://www.redfin.com/CA/Morgan-Hill/1616-Morning-Star-Dr-95037/home/1291513,MLSListings,ML81675842,N,Y,37.1643633,-121.6472191
PAST SALE,,Single Family Residential,317 Casa Loma Rd Unit B,Morgan Hill,CA,95037,1175000,4,3.0,,2940,221650,1972,,400,,,,,http://www.redfin.com/CA/Morgan-Hill/317-Casa-Loma-Rd-95037/unit-B/home/1783195,,,N,Y,37.1503242,-121.747916
PAST SALE,October-31-2017,Single Family Residential,16905 Cory Dr,MORGAN HILL,CA,95037,850000,4,2.5,MORGAN HILL,2316,4408,2013,91,367,100,Sold,,,http://www.redfin.com/CA/Morgan-Hill/16905-Cory-Dr-95037/home/44594467,MLSListings,ML81677143,N,Y,37.126481,-121.642025
PAST SALE,November-9-2017,Townhouse,2167 Darnis Cir,MORGAN HILL,CA,95037,637000,2,2.5,MORGAN HILL,1674,1660,1986,82,381,385,Sold,,,http://www.redfin.com/CA/Morgan-Hill/2167-Darnis-Cir-95037/home/1148271,MLSListings,ML81680213,N,Y,37.137776,-121.611886
PAST SALE,,Condo/Co-op,162 Nogal Ln,Morgan Hill,CA,95037,802500,3,2.0,,2364,,2017,,339,,,,,http://www.redfin.com/CA/Morgan-Hill/162-Nogal-Ln-95037/home/109045811,,,N,Y,37.138289,-121.6628898
PAST SALE,January-12-2018,Condo/Co-op,14966 Tahoe Way,MORGAN HILL,CA,95037,660000,3,2.5,MORGAN HILL,1821,2187,1980,18,362,356,Sold,,,http://www.redfin.com/CA/Morgan-Hill/14966-Tahoe-Way-95037/home/1599716,MLSListings,ML81685561,N,Y,37.097295,-121.639533
PAST SALE,August-4-2017,Single Family Residential,786 Bugatti Pl,MORGAN HILL,CA,95037,930000,3,2.5,MORGAN HILL,2100,9737,1997,179,443,55,Sold,,,http://www.redfin.com/CA/Morgan-Hill/786-Bugatti-Pl-95037/home/706075,MLSListings,ML81650476,N,Y,37.137819,-121.642274
PAST SALE,November-17-2017,Townhouse,18039 Hillwood Ln,MORGAN HILL,CA,95037,640000,2,2.5,MORGAN HILL,1692,1740,1984,74,378,290,Sold,,,http://www.redfin.com/CA/Morgan-Hill/18039-Hillwood-Ln-95037/home/1105796,MLSListings,ML81677270,N,Y,37.1344653,-121.6653826
PAST SALE,August-16-2017,Single Family Residential,19401 Dougherty Ave,MORGAN HILL,CA,95037,1012500,3,2.5,MORGAN HILL,2842,4950,2010,167,356,80,Sold,,,http://www.redfin.com/CA/Morgan-Hill/19401-Dougherty-Ave-95037/home/40175504,MLSListings,ML81667537,N,Y,37.1522413,-121.6782892
PAST SALE,October-27-2017,Single Family Residential,225 Cosmo Ave,MORGAN HILL,CA,95037,877000,4,2.5,MORGAN HILL,2183,6273,1999,95,402,,Sold,,,http://www.redfin.com/CA/Morgan-Hill/225-Cosmo-Ave-95037/home/1293674,MLSListings,ML81680159,N,Y,37.1174734,-121.6498206
PAST SALE,August-22-2017,Single Family Residential,16965 Cory Dr,MORGAN HILL,CA,95037,795000,3,2.5,MORGAN HILL,1992,4967,2007,161,399,100,Sold,,,http://www.redfin.com/CA/Morgan-Hill/16965-Cory-Dr-95037/home/17291637,MLSListings,ML81670329,N,Y,37.1272251,-121.6401507
PAST SALE,November-9-2017,Single Family Residential,17420 Ringel Dr,MORGAN HILL,CA,95037,1215000,4,2.5,MORGAN HILL,3188,16308,1988,82,381,,Sold,,,http://www.redfin.com/CA/Morgan-Hill/17420-Ringel-Dr-95037/home/1209910,MLSListings,ML81682099,N,Y,37.1429276,-121.6259257
PAST SALE,November-28-2017,Townhouse,18006 Hillwood Ln,MORGAN HILL,CA,95037,625000,3,2.5,MORGAN HILL,1759,1792,1984,63,355,290,Sold,,,http://www.redfin.com/CA/Morgan-Hill/18006-Hillwood-Ln-95037/home/1162110,MLSListings,ML81681314,N,Y,37.1346053,-121.6646111
PAST SALE,January-10-2018,Single Family Residential,110 Curry Ave,MORGAN HILL,CA,95037,850000,3,2.5,MORGAN HILL,2542,7899,2003,20,334,90,Sold,,,http://www.redfin.com/CA/Morgan-Hill/110-Curry-Ave-95037/home/790804,MLSListings,ML81675421,N,Y,37.1514893,-121.6734847
PAST SALE,November-21-2017,Single Family Residential,15410 La Alameda Dr,MORGAN HILL,CA,95037,850000,3,2.5,MORGAN HILL,1615,12012,1966,70,526,,Sold,,,http://www.redfin.com/CA/Morgan-Hill/15410-La-Alameda-Dr-95037/home/1505791,MLSListings,ML81682234,N,Y,37.1016084,-121.6448683
PAST SALE,November-29-2017,Single Family Residential,500 Las Coches Ct,MORGAN HILL,CA,95037,870000,4,2.5,MORGAN HILL,2250,7102,1976,62,387,,Sold,,,http://www.redfin.com/CA/Morgan-Hill/500-Las-Coches-Ct-95037/home/1320603,MLSListings,ML81678946,N,Y,37.1031059,-121.6439298
PAST SALE,October-31-2017,Single Family Residential,639 Saint James Dr,MORGAN HILL,CA,95037,880000,4,2.5,MORGAN HILL,2499,4323,2014,91,352,,Sold,,,http://www.redfin.com/CA/Morgan-Hill/639-Saint-James-Dr-95037/home/63495802,MLSListings,ML81675136,N,Y,37.1193959,-121.6328211
PAST SALE,,Single Family Residential,231 Basil Ave,Morgan Hill,CA,95037,960000,4,2.0,,2601,4777,2010,,369,,,,,http://www.redfin.com/CA/Morgan-Hill/231-Basil-Ave-95037/home/26774414,,,N,Y,37.1507513,-121.6771583
PAST SALE,,Single Family Residential,17032 Heatherwood Way,Morgan Hill,CA,95037,1025000,4,2.0,,2069,6098,2000,,495,,,,,http://www.redfin.com/CA/Morgan-Hill/17032-Heatherwood-Way-95037/home/726598,,,N,Y,37.1383889,-121.6166028
PAST SALE,December-15-2017,Single Family Residential,1580 Mission Avenida,MORGAN HILL,CA,95037,1085000,4,2.5,MORGAN HILL,2220,7791,2004,46,489,77,Sold,,,http://www.redfin.com/CA/Morgan-Hill/1580-Mission-Avenida-95037/home/1720996,MLSListings,ML81685639,N,Y,37.1576442,-121.6432021
PAST SALE,September-21-2017,Single Family Residential,18600 Castle Lake Dr,MORGAN HILL,CA,95037,1150000,3,2.5,MORGAN HILL,2148,46127,1988,131,535,,Sold,,,http://www.redfin.com/CA/Morgan-Hill/18600-Castle-Lake-Dr-95037/home/1252032,MLSListings,ML81670977,N,Y,37.1347375,-121.6812012
PAST SALE,January-5-2018,Single Family Residential,29 Cumin Ln,MORGAN HILL,CA,95037,715000,3,2.5,MORGAN HILL,1703,1577,2016,25,420,241,Sold,,,http://www.redfin.com/CA/Morgan-Hill/29-Cumin-Ln-95037/home/112869102,MLSListings,ML81655778,N,Y,37.1553356,-121.6777223
PAST SALE,January-3-2018,Single Family Residential,672 Saint Timothy Ct,MORGAN HILL,CA,95037,988000,4,2.5,MORGAN HILL,2499,5245,2013,27,395,65,Sold,,,http://www.redfin.com/CA/Morgan-Hill/672-Saint-Timothy-Ct-95037/home/52404858,MLSListings,ML81685132,N,Y,37.1199728,-121.6325682
PAST SALE,November-29-2017,Single Family Residential,14955 Sword Dancer Ct,MORGAN HILL,CA,95037,815000,3,2.5,MORGAN HILL,2145,4998,1977,62,380,,Sold,,,http://www.redfin.com/CA/Morgan-Hill/14955-Sword-Dancer-Ct-95037/home/1162243,MLSListings,ML81682381,N,Y,37.0957504,-121.6413067
PAST SALE,October-13-2017,Single Family Residential,17950 Del Monte Ave,MORGAN HILL,CA,95037,750000,4,2.5,MORGAN HILL,1825,2613,2005,109,411,,Sold,,,http://www.redfin.com/CA/Morgan-Hill/17950-Del-Monte-Ave-95037/home/2124905,MLSListings,ML81676805,N,Y,37.13486,-121.6609745
PAST SALE,January-4-2018,Single Family Residential,17525 Carriage Lamp Way,MORGAN HILL,CA,95037,752000,2,2.5,MORGAN HILL,1363,4000,1985,26,552,230,Sold,,,http://www.redfin.com/CA/Morgan-Hill/17525-Carriage-Lamp-Way-95037/home/909319,MLSListings,ML81685836,N,Y,37.1367662,-121.6445057
PAST SALE,December-2-2017,Single Family Residential,360 Calle Cerro,MORGAN HILL,CA,95037,750000,3,2.5,MORGAN HILL,1777,3800,1998,59,422,145,Sold,,,http://www.redfin.com/CA/Morgan-Hill/360-Calle-Cerro-95037/home/1003753,MLSListings,ML81683334,N,Y,37.1341212,-121.6521221
PAST SALE,December-11-2017,Single Family Residential,17175 Copper Hill Dr,MORGAN HILL,CA,95037,1200000,4,2.5,MORGAN HILL,3040,24308,1968,50,395,30,Sold,,,http://www.redfin.com/CA/Morgan-Hill/17175-Copper-Hill-Dr-95037/home/1783160,MLSListings,ML81672860,N,Y,37.1495228,-121.5988361
PAST SALE,September-22-2017,Single Family Residential,18600 Castle Hill Dr,MORGAN HILL,CA,95037,1125000,5,2.5,MORGAN HILL,3178,70622,1987,130,354,,Sold,,,http://www.redfin.com/CA/Morgan-Hill/18600-Castle-Hill-Dr-95037/home/1787837,MLSListings,ML81668042,N,Y,37.1344308,-121.6869418
PAST SALE,December-15-2017,Condo/Co-op,137 Banano Ln,MORGAN HILL,CA,95037,789990,3,2.5,MORGAN HILL,2094,,2017,46,377,191,Sold,,,http://www.redfin.com/CA/MORGAN-HILL/137-Banano-Ln-95037/home/142991252,MLSListings,ML81671111,N,Y,37.1305012,-121.6543901
PAST SALE,November-28-2017,Townhouse,2163 Darnis Cir,MORGAN HILL,CA,95037,660000,3,2.5,MORGAN HILL,1716,1660,1986,63,385,385,Sold,,,http://www.redfin.com/CA/Morgan-Hill/2163-Darnis-Cir-95037/home/1589534,MLSListings,ML81682532,N,Y,37.137639,-121.611806
PAST SALE,November-3-2017,Single Family Residential,55 La Crosse Dr,MORGAN HILL,CA,95037,875000,4,2.5,MORGAN HILL,2342,7035,1985,88,374,,Sold,,,http://www.redfin.com/CA/Morgan-Hill/55-La-Crosse-Dr-95037/home/1016516,MLSListings,ML81679189,N,Y,37.1067943,-121.6500254
PAST SALE,January-4-2018,Single Family Residential,18 Paquita Espana Ct,MORGAN HILL,CA,95037,1050000,4,2.5,MORGAN HILL,2200,81457,1998,26,477,,Sold,,,http://www.redfin.com/CA/Morgan-Hill/18-Paquita-Espana-Ct-95037/home/1111093,MLSListings,ML81677019,N,Y,37.18571,-121.708579
PAST SALE,August-14-2017,Townhouse,18025 Hillwood Ln,MORGAN HILL,CA,95037,605000,2,2.5,MORGAN HILL,1541,1216,1984,169,393,290,Sold,,,http://www.redfin.com/CA/Morgan-Hill/18025-Hillwood-Ln-95037/home/617638,MLSListings,ML81656976,N,Y,37.13405,-121.6651292
PAST SALE,November-30-2017,Single Family Residential,14719 White Cloud Ct,MORGAN HILL,CA,95037,873000,3,2.5,MORGAN HILL,1890,5500,1998,61,462,,Sold,,,http://www.redfin.com/CA/Morgan-Hill/14719-White-Cloud-Ct-95037/home/1573398,MLSListings,ML81679871,N,Y,37.0934171,-121.6432815
PAST SALE,August-16-2017,Single Family Residential,16975 San Simeon Dr,MORGAN HILL,CA,95037,749000,3,2.5,MORGAN HILL,1818,4655,2012,167,412,100,Sold,,,http://www.redfin.com/CA/Morgan-Hill/16975-San-Simeon-Dr-95037/home/52663687,MLSListings,ML81669661,N,Y,37.1281049,-121.6415669
PAST SALE,December-22-2017,Townhouse,16735 San Luis Way,MORGAN HILL,CA,95037,663000,2,2.5,MORGAN HILL,1757,2263,1997,39,377,265,Sold,,,http://www.redfin.com/CA/Morgan-Hill/16735-San-Luis-Way-95037/home/1434274,MLSListings,ML81684329,N,Y,37.1253852,-121.6404717
PAST SALE,August-23-2017,Condo/Co-op,209 Del Monte Ln,MORGAN HILL,CA,95037,590000,3,2.5,MORGAN HILL,1720,2450,1986,160,343,410,Sold,,,http://www.redfin.com/CA/Morgan-Hill/209-Del-Monte-Ln-95037/home/1505764,MLSListings,ML81667152,N,Y,37.1347012,-121.662585
PAST SALE,,Single Family Residential,790 La Crosse Dr,Morgan Hill,CA,95037,522000,5,2.0,,2427,7035,1978,,215,,,,,http://www.redfin.com/CA/Morgan-Hill/790-La-Crosse-Dr-95037/home/661171,,,N,Y,37.103965,-121.6489228
PAST SALE,December-12-2017,Single Family Residential,1950 Morgan Ct,MORGAN HILL,CA,95037,1375000,5,2.5,MORGAN HILL,2298,42098,1978,49,598,,Sold,,,http://www.redfin.com/CA/Morgan-Hill/1950-Morgan-Ct-95037/home/1195194,MLSListings,ML81687009,N,Y,37.1414164,-121.6205576
PAST SALE,January-5-2018,Single Family Residential,14915 Seymour Ave Unit A,SAN MARTIN,CA,95046,1195000,4,2.5,SAN MARTIN,2186,99752,1920,25,547,,Sold,,,http://www.redfin.com/CA/San-Martin/14915-Seymour-Ave-95046/unit-A/home/1736886,MLSListings,ML81679253,N,Y,37.1035335,-121.6225021
PAST SALE,December-22-2017,Single Family Residential,440 Calle Viento,MORGAN HILL,CA,95037,915000,4,2.5,MORGAN HILL,2281,4144,2008,39,401,100,Sold,,,http://www.redfin.com/CA/Morgan-Hill/440-Calle-Viento-95037/home/17488612,MLSListings,ML81685375,N,Y,37.1369521,-121.6530481
PAST SALE,,Condo/Co-op,150 Nogal Ln,Morgan Hill,CA,95037,851000,3,2.0,,2057,,2017,,414,,,,,http://www.redfin.com/CA/Morgan-Hill/150-Nogal-Ln-95037/home/109045483,,,N,Y,37.138289,-121.6628898
PAST SALE,December-27-2017,Single Family Residential,2005 Rocky Ridge Rd,MORGAN HILL,CA,95037,1225000,4,2.5,MORGAN HILL,3123,44295,1977,34,392,,Sold,,,http://www.redfin.com/CA/Morgan-Hill/2005-Rocky-Ridge-Rd-95037/home/1365676,MLSListings,ML81653684,N,Y,37.123089,-121.689937
PAST SALE,December-19-2017,Single Family Residential,15770 Piazza Way,MORGAN HILL,CA,95037,950000,4,2.5,MORGAN HILL,2090,8892,2014,42,455,168,Sold,,,http://www.redfin.com/CA/Morgan-Hill/15770-Piazza-Way-95037/home/95956117,MLSListings,ML81684788,N,Y,37.1101829,-121.6464281
PAST SALE,September-6-2017,Single Family Residential,380 Chargin Dr,MORGAN HILL,CA,95037,958000,4,2.5,MORGAN HILL,2886,6955,1982,146,332,,Sold,,,http://www.redfin.com/CA/Morgan-Hill/380-Chargin-Dr-95037/home/1148008,MLSListings,ML81671516,N,Y,37.1209116,-121.65594
PAST SALE,January-23-2018,Single Family Residential,17930 Ril Marianna Ct,MORGAN HILL,CA,95037,815000,4,2.5,MORGAN HILL,1809,2734,2004,7,451,72,Sold,,,http://www.redfin.com/CA/Morgan-Hill/17930-Ril-Marianna-Ct-95037/home/1774399,MLSListings,ML81687784,N,Y,37.135518,-121.665673
PAST SALE,December-21-2017,Single Family Residential,16620 Oak View Cir,MORGAN HILL,CA,95037,899000,4,2.5,MORGAN HILL,2504,20320,1975,40,359,40,Sold,,,http://www.redfin.com/CA/Morgan-Hill/16620-Oak-View-Cir-95037/home/1272312,MLSListings,ML81679609,N,Y,37.1390799,-121.5951063
PAST SALE,December-19-2017,Single Family Residential,17765 Calle Central,MORGAN HILL,CA,95037,950000,4,2.5,MORGAN HILL,2350,6000,2001,42,404,120,Sold,,,http://www.redfin.com/CA/Morgan-Hill/17765-Calle-Central-95037/home/632265,MLSListings,ML81684356,N,Y,37.1385994,-121.6506153
PAST SALE,October-5-2017,Single Family Residential,16660 Walter Breton Dr,MORGAN HILL,CA,95037,1674950,4,2.5,MORGAN HILL,3781,43560,1978,117,443,,Sold,,,http://www.redfin.com/CA/Morgan-Hill/16660-Walter-Breton-Dr-95037/home/1720797,MLSListings,ML81680464,N,Y,37.109118,-121.6857042
PAST SALE,August-10-2017,Single Family Residential,16740 Trail Dr,MORGAN HILL,CA,95037,901500,4,2.5,MORGAN HILL,2136,7000,1979,173,422,,Sold,,,http://www.redfin.com/CA/Morgan-Hill/16740-Trail-Dr-95037/home/1625665,MLSListings,ML81667373,N,Y,37.1371931,-121.6035434
PAST SALE,January-4-2018,Townhouse,2103 Darnis Cir,MORGAN HILL,CA,95037,680000,3,2.5,MORGAN HILL,1716,1660,1984,26,396,385,Sold,,,http://www.redfin.com/CA/Morgan-Hill/2103-Darnis-Cir-95037/home/560240,MLSListings,ML81684183,N,Y,37.13903,-121.613162
PAST SALE,November-21-2017,Single Family Residential,540 Diana Ave,MORGAN HILL,CA,95037,1075000,4,2.5,MORGAN HILL,2490,7405,1994,70,432,,Sold,,,http://www.redfin.com/CA/Morgan-Hill/540-Diana-Ave-95037/home/1012093,MLSListings,ML81680579,N,Y,37.1315212,-121.6426417
PAST SALE,December-29-2017,Townhouse,2388 Leptis Cir,MORGAN HILL,CA,95037,640000,2,2.5,MORGAN HILL,1674,1894,1986,32,382,385,Sold,,,http://www.redfin.com/CA/Morgan-Hill/2388-Leptis-Cir-95037/home/1081358,MLSListings,ML81685964,N,Y,37.138563,-121.610574
PAST SALE,January-16-2018,Single Family Residential,2920 Bent Oak Ln,MORGAN HILL,CA,95037,900000,4,2.5,MORGAN HILL,2191,14560,1977,14,411,34,Sold,,,http://www.redfin.com/CA/Morgan-Hill/2920-Bent-Oak-Ln-95037/home/1787804,MLSListings,ML81687039,N,Y,37.1390613,-121.6000739
PAST SALE,October-23-2017,Single Family Residential,17300 Lakeview Dr,MORGAN HILL,CA,95037,1020000,5,2.5,MORGAN HILL,2912,24000,1975,99,350,35,Sold,,,http://www.redfin.com/CA/Morgan-Hill/17300-Lakeview-Dr-95037/home/1410136,MLSListings,ML81682591,N,Y,37.1505701,-121.6033837
PAST SALE,January-12-2018,Single Family Residential,16761 Dry Creek Ct,MORGAN HILL,CA,95037,860000,4,2.5,MORGAN HILL,2845,7000,1981,18,302,,Sold,,,http://www.redfin.com/CA/Morgan-Hill/16761-Dry-Creek-Ct-95037/home/1434100,MLSListings,ML81685144,N,Y,37.1196822,-121.6583724
PAST SALE,November-1-2017,Single Family Residential,14975 Citation Ct,MORGAN HILL,CA,95037,795000,3,2.5,MORGAN HILL,2145,5000,1977,90,371,,Sold,,,http://www.redfin.com/CA/Morgan-Hill/14975-Citation-Ct-95037/home/1318287,MLSListings,ML81680206,N,Y,37.0963032,-121.6407557
PAST SALE,September-6-2017,Single Family Residential,17890 Ril Marianna Ct,MORGAN HILL,CA,95037,770000,4,2.5,MORGAN HILL,1809,3145,2004,146,426,72,Sold,,,http://www.redfin.com/CA/Morgan-Hill/17890-Ril-Marianna-Ct-95037/home/1437711,MLSListings,ML81672635,N,Y,37.1356212,-121.665333
PAST SALE,November-17-2017,Single Family Residential,2832 Mira Bella Cir,MORGAN HILL,CA,95037,982000,4,2.5,MORGAN HILL,2224,7405,1995,74,442,,Sold,,,http://www.redfin.com/CA/Morgan-Hill/2832-Mira-Bella-Cir-95037/home/1162500,MLSListings,ML81680864,N,Y,37.1334418,-121.6017686
PAST SALE,October-25-2017,Townhouse,134 Larkspur Loop,MORGAN HILL,CA,95037,710000,4,2.5,MORGAN HILL,1829,1285,2013,97,388,256,Sold,,,http://www.redfin.com/CA/Morgan-Hill/134-Larkspur-Loop-95037/home/52672617,MLSListings,ML81675974,N,Y,37.1257673,-121.6472757
PAST SALE,October-31-2017,Single Family Residential,515 La Canada Ct,MORGAN HILL,CA,95037,950000,4,2.5,MORGAN HILL,2250,9250,1976,91,422,,Sold,,,http://www.redfin.com/CA/Morgan-Hill/515-La-Canada-Ct-95037/home/1525069,MLSListings,ML81680695,N,Y,37.1021797,-121.6432309
PAST SALE,October-31-2017,Condo/Co-op,138 Nogal Ln,MORGAN HILL,CA,95037,822842,3,2.5,MORGAN HILL,2094,,2017,91,393,271,Sold,,,http://www.redfin.com/CA/Morgan-Hill/138-Nogal-Ln-95037/home/113735691,MLSListings,ML81647337,N,Y,37.138289,-121.6628898
PAST SALE,December-1-2017,Single Family Residential,923 Prancer Ct,MORGAN HILL,CA,95037,773000,3,2.5,MORGAN HILL,1503,3920,1996,60,514,,Sold,,,http://www.redfin.com/CA/Morgan-Hill/923-Prancer-Ct-95037/home/1866129,MLSListings,ML81684796,N,Y,37.0953518,-121.6429942
PAST SALE,August-25-2017,Single Family Residential,17710 Aston Ct,MORGAN HILL,CA,95037,1080000,4,2.5,MORGAN HILL,2727,10959,2003,158,396,90,Sold,,,http://www.redfin.com/CA/Morgan-Hill/17710-Aston-Ct-95037/home/979394,MLSListings,ML81669766,N,Y,37.1403163,-121.6489651
PAST SALE,October-16-2017,Single Family Residential,3440 Oak Hill Ct,MORGAN HILL,CA,95037,1095000,4,2.5,MORGAN HILL,2788,15750,1975,106,393,33,Sold,,,http://www.redfin.com/CA/Morgan-Hill/3440-Oak-Hill-Ct-95037/home/1572046,MLSListings,ML81676247,N,Y,37.1423315,-121.589893
PAST SALE,December-15-2017,Single Family Residential,17780 Oak Glen Ave,MORGAN HILL,CA,95037,915000,3,2.5,MORGAN HILL,2154,149710,1965,46,425,,Sold,,,http://www.redfin.com/CA/Morgan-Hill/17780-Oak-Glen-Ave-95037/home/40096014,MLSListings,ML81684056,N,Y,37.1193598,-121.6994378
PAST SALE,August-4-2017,Single Family Residential,702 San Gabriel Ave,MORGAN HILL,CA,95037,855000,4,2.5,MORGAN HILL,2112,6662,2010,179,405,100,Sold,,,http://www.redfin.com/CA/Morgan-Hill/702-San-Gabriel-Ave-95037/home/28627774,MLSListings,ML81655650,N,Y,37.1237271,-121.6349263
PAST SALE,August-16-2017,Single Family Residential,17359 Serene Dr,MORGAN HILL,CA,95037,750000,4,2.5,MORGAN HILL,1577,3484,1993,167,476,,Sold,,,http://www.redfin.com/CA/Morgan-Hill/17359-Serene-Dr-95037/home/1444788,MLSListings,ML81653824,N,Y,37.133348,-121.637895
PAST SALE,August-28-2017,Single Family Residential,14945 Dark Star Ct,MORGAN HILL,CA,95037,750000,3,2.5,MORGAN HILL,2145,5050,1977,155,350,,Sold,,,http://www.redfin.com/CA/Morgan-Hill/14945-Dark-Star-Ct-95037/home/1018882,MLSListings,ML81669854,N,Y,37.095474,-121.6420712
PAST SALE,,Single Family Residential,17730 Calle Mazatan,Morgan Hill,CA,95037,311500,4,2.0,,2603,5482,2008,,120,,,,,http://www.redfin.com/CA/Morgan-Hill/17730-Calle-Mazatan-95037/home/21617834,,,N,Y,37.1362774,-121.6527231
PAST SALE,August-9-2017,Single Family Residential,17470 Murphy Ave,MORGAN HILL,CA,95037,1595000,4,2.5,MORGAN HILL,3396,64904,1987,174,470,,Sold,,,http://www.redfin.com/CA/Morgan-Hill/17470-Murphy-Ave-95037/home/1256439,MLSListings,ML81656501,N,Y,37.1395413,-121.6311293
PAST SALE,December-13-2017,Single Family Residential,723 San Gabriel Ave,Morgan Hill,CA,95037,880000,3,2.5,Morgan Hill,2078,4009,2013,48,423,100,Sold,,,http://www.redfin.com/CA/Morgan-Hill/723-San-Gabriel-Ave-95037/home/49732557,CRMLS,SW17227262,N,Y,37.1225059,-121.6348073
PAST SALE,September-27-2017,Single Family Residential,16825 Church St,MORGAN HILL,CA,95037,860000,4,2.5,MORGAN HILL,2533,5032,2011,125,340,185,Sold,,,http://www.redfin.com/CA/Morgan-Hill/16825-Church-St-95037/home/41395620,MLSListings,ML81674944,N,Y,37.1238537,-121.6480493
PAST SALE,October-5-2017,Single Family Residential,16973 Cory Dr,MORGAN HILL,CA,95037,855000,4,2.5,MORGAN HILL,2305,4830,2007,117,371,100,Sold,,,http://www.redfin.com/CA/Morgan-Hill/16973-Cory-Dr-95037/home/17291635,MLSListings,ML81675249,N,Y,37.1273014,-121.6399172
PAST SALE,December-28-2017,Single Family Residential,16080 Jackson Oaks Dr,MORGAN HILL,CA,95037,920000,4,2.5,MORGAN HILL,2232,15750,1972,33,412,35,Sold,,,http://www.redfin.com/CA/Morgan-Hill/16080-Jackson-Oaks-Dr-95037/home/1608928,MLSListings,ML81684242,N,Y,37.1446065,-121.5867924
PAST SALE,,Single Family Residential,2000 Barrett Ave,Morgan Hill,CA,95037,1100000,3,2.0,,2424,217800,1987,,454,,,,,http://www.redfin.com/CA/Morgan-Hill/2000-Barrett-Ave-95037/home/1325905,,,N,Y,37.1294482,-121.6115572
PAST SALE,November-9-2017,Single Family Residential,2310 Cimarron Dr,MORGAN HILL,CA,95037,840000,4,2.5,MORGAN HILL,2054,7020,1977,82,409,,Sold,,,http://www.redfin.com/CA/Morgan-Hill/2310-Cimarron-Dr-95037/home/1733931,MLSListings,ML81679185,N,Y,37.1367473,-121.6106509
PAST SALE,December-15-2017,Single Family Residential,455 La Baree Dr,MORGAN HILL,CA,95037,950000,5,2.5,MORGAN HILL,2427,7560,1977,46,391,,Sold,,,http://www.redfin.com/CA/Morgan-Hill/455-La-Baree-Dr-95037/home/1018267,MLSListings,ML81670477,N,Y,37.1045576,-121.6441678
PAST SALE,November-1-2017,Single Family Residential,17694 John Telfer Dr,MORGAN HILL,CA,95037,965000,3,2.5,MORGAN HILL,3156,8375,1986,90,306,,Sold,,,http://www.redfin.com/CA/Morgan-Hill/17694-John-Telfer-Dr-95037/home/1014850,MLSListings,ML81678552,N,Y,37.1252953,-121.6675678
PAST SALE,August-31-2017,Condo/Co-op,167 Banano Ln,MORGAN HILL,CA,95037,835301,4,2.5,MORGAN HILL,2427,,2017,152,344,271,Sold,,,http://www.redfin.com/CA/MORGAN-HILL/167-BANANO-LN-95037/home/143044020,MLSListings,ML81647294,N,Y,37.1305012,-121.6543901
PAST SALE,December-5-2017,Single Family Residential,16940 Oakridge Ln,MORGAN HILL,CA,95037,900000,4,2.5,MORGAN HILL,3195,15000,1976,56,282,35,Sold,,,http://www.redfin.com/CA/Morgan-Hill/16940-Oakridge-Ln-95037/home/1512727,MLSListings,ML81679070,N,Y,37.148521,-121.5855968
PAST SALE,December-21-2017,Single Family Residential,18721 Rising Sun Dr,MORGAN HILL,CA,95037,1194120,3,2.5,MORGAN HILL,2631,7350,2017,40,454,200,Sold,,,http://www.redfin.com/CA/MORGAN-HILL/18721-Rising-Sun-Dr-95037/home/113667314,MLSListings,ML81645581,N,Y,37.2187714,-121.5826642
PAST SALE,November-28-2017,Townhouse,2111 Darnis Cir,MORGAN HILL,CA,95037,649000,2,2.5,MORGAN HILL,1674,1660,1984,63,388,385,Sold,,,http://www.redfin.com/CA/Morgan-Hill/2111-Darnis-Cir-95037/home/895836,MLSListings,ML81682156,N,Y,37.1386756,-121.6133194
PAST SALE,September-21-2017,Single Family Residential,15150 Venetian Way,MORGAN HILL,CA,95037,735000,3,2.5,MORGAN HILL,2145,5900,1977,131,343,,Sold,,,http://www.redfin.com/CA/Morgan-Hill/15150-Venetian-Way-95037/home/1365855,MLSListings,ML81671282,N,Y,37.0972156,-121.6427749
PAST SALE,October-2-2017,Single Family Residential,16875 San Simeon Dr,MORGAN HILL,CA,95037,825000,4,2.5,MORGAN HILL,2162,4647,2012,120,382,100,Sold,,,http://www.redfin.com/CA/Morgan-Hill/16875-San-Simeon-Dr-95037/home/52672737,MLSListings,ML81674185,N,Y,37.1278095,-121.6423304
PAST SALE,October-13-2017,Townhouse,128 Larkspur Loop,MORGAN HILL,CA,95037,745000,4,2.5,MORGAN HILL,1829,1260,2013,109,407,256,Sold,,,http://www.redfin.com/CA/Morgan-Hill/128-Larkspur-Loop-95037/home/52664226,MLSListings,ML81681437,N,Y,37.1257291,-121.6470178
PAST SALE,November-7-2017,Single Family Residential,16745 Oak View Cir,MORGAN HILL,CA,95037,1075000,4,2.5,MORGAN HILL,2836,22000,1979,84,379,35,Sold,,,http://www.redfin.com/CA/Morgan-Hill/16745-Oak-View-Cir-95037/home/1787808,MLSListings,ML81668765,N,Y,37.1419697,-121.5952295
PAST SALE,October-12-2017,Townhouse,551 Creekside Ln,MORGAN HILL,CA,95037,650000,2,2.5,MORGAN HILL,1613,1692,1988,110,403,300,Sold,,,http://www.redfin.com/CA/Morgan-Hill/551-Creekside-Ln-95037/home/1604249,MLSListings,ML81679885,N,Y,37.1298163,-121.6438308
PAST SALE,December-15-2017,Single Family Residential,17725 Calle Hermosa,Morgan Hill,CA,95037,739999,3,2.5,699 - Not Defined,1364,3834,1999,46,543,210,Sold,,,http://www.redfin.com/CA/Morgan-Hill/17725-Calle-Hermosa-95037/home/1505671,CRISNet,SR17249105,N,Y,37.1370054,-121.6524616
PAST SALE,October-27-2017,Single Family Residential,16895 San Simeon Dr,MORGAN HILL,CA,95037,882500,3,2.5,MORGAN HILL,2162,4835,2013,95,408,100,Sold,,,http://www.redfin.com/CA/Morgan-Hill/16895-San-Simeon-Dr-95037/home/52664031,MLSListings,ML81677806,N,Y,37.1278984,-121.6420546
PAST SALE,August-10-2017,Single Family Residential,622 Serpentine Ct,MORGAN HILL,CA,95037,1220000,4,2.5,MORGAN HILL,3069,8750,1995,173,398,,Sold,,,http://www.redfin.com/CA/Morgan-Hill/622-Serpentine-Ct-95037/home/961674,MLSListings,ML81653375,N,Y,37.1365896,-121.6722218
PAST SALE,August-31-2017,Single Family Residential,1620 Avenida De Los Padres,MORGAN HILL,CA,95037,850000,4,2.5,MORGAN HILL,1648,4358,2011,152,516,77,Sold,,,http://www.redfin.com/CA/Morgan-Hill/1620-Avenida-De-Los-Padres-95037/home/40021706,MLSListings,ML81673094,N,Y,37.1564023,-121.640163
PAST SALE,,Single Family Residential,16765 San Dimas Ln,Morgan Hill,CA,95037,815000,3,2.0,,1843,4622,2014,,442,,,,,http://www.redfin.com/CA/Morgan-Hill/16765-San-Dimas-Ln-95037/home/62324449,,,N,Y,37.1277755,-121.634859
PAST SALE,,Single Family Residential,19280 Quinn Ct,Morgan Hill,CA,95037,1250000,5,5.0,,4665,109603,2016,,268,,,,,http://www.redfin.com/CA/Morgan-Hill/19280-Quinn-Ct-95037/home/1736484,,,N,Y,37.1636307,-121.6592555
PAST SALE,September-13-2017,Single Family Residential,631 Saint James Dr,MORGAN HILL,CA,95037,754950,4,2.5,MORGAN HILL,1765,3668,2013,139,428,65,Sold,,,http://www.redfin.com/CA/Morgan-Hill/631-Saint-James-Dr-95037/home/52664223,MLSListings,ML81657026,N,Y,37.1193857,-121.6329586
PAST SALE,December-4-2017,Single Family Residential,19121 Saffron Dr,MORGAN HILL,CA,95037,850000,3,2.5,MORGAN HILL,2542,7899,2003,57,334,80,Sold,,,http://www.redfin.com/CA/Morgan-Hill/19121-Saffron-Dr-95037/home/753549,MLSListings,ML81683582,N,Y,37.1504068,-121.6726942
PAST SALE,,Single Family Residential,16075 Oak Glen Ave,Morgan Hill,CA,95037,550000,3,2.0,,1651,96195,1966,,333,,,,,http://www.redfin.com/CA/Morgan-Hill/16075-Oak-Glen-Ave-95037/home/1682105,,,N,Y,37.1016401,-121.6732231
PAST SALE,August-17-2017,Townhouse,441 E Dunne Ave,MORGAN HILL,CA,95037,550000,2,2.5,MORGAN HILL,1440,1440,1984,166,382,300,Sold,,,http://www.redfin.com/CA/Morgan-Hill/441-E-Dunne-Ave-95037/home/706083,MLSListings,ML81669656,N,Y,37.1284621,-121.6426073
PAST SALE,August-24-2017,Single Family Residential,15855 La Porte Ct,MORGAN HILL,CA,95037,915000,4,2.5,MORGAN HILL,2250,6867,1981,159,407,,Sold,,,http://www.redfin.com/CA/Morgan-Hill/15855-La-Porte-Ct-95037/home/778048,MLSListings,ML81669359,N,Y,37.1083191,-121.6456457
PAST SALE,September-1-2017,Single Family Residential,14965 Sword Dancer Ct,MORGAN HILL,CA,95037,695000,3,2.5,MORGAN HILL,1560,5406,1977,151,446,,Sold,,,http://www.redfin.com/CA/Morgan-Hill/14965-Sword-Dancer-Ct-95037/home/1234106,MLSListings,ML81669865,N,Y,37.0958642,-121.6413923
PAST SALE,August-21-2017,Single Family Residential,410 San Juan Dr,MORGAN HILL,CA,95037,815000,4,2.5,MORGAN HILL,1886,4080,2006,162,432,81,Sold,,,http://www.redfin.com/CA/Morgan-Hill/410-San-Juan-Dr-95037/home/17292444,MLSListings,ML81670333,N,Y,37.124724,-121.641341
PAST SALE,October-4-2017,Single Family Residential,727 Talbot Ct,MORGAN HILL,CA,95037,824000,4,2.5,MORGAN HILL,1815,5514,2006,118,454,90,Sold,,,http://www.redfin.com/CA/Morgan-Hill/727-Talbot-Ct-95037/home/17292469,MLSListings,ML81673576,N,Y,37.1384368,-121.6481857
PAST SALE,October-31-2017,Single Family Residential,17615 Raccoon Ct,MORGAN HILL,CA,95037,1125000,5,2.5,MORGAN HILL,3616,29900,1977,91,311,27,Sold,,,http://www.redfin.com/CA/Morgan-Hill/17615-Raccoon-Ct-95037/home/1599605,MLSListings,ML81669355,N,Y,37.1571882,-121.6113228
PAST SALE,October-30-2017,Townhouse,17166 Creekside Cir,MORGAN HILL,CA,95037,620000,2,2.5,MORGAN HILL,1613,1530,1988,92,384,300,Sold,,,http://www.redfin.com/CA/Morgan-Hill/17166-Creekside-Cir-95037/home/1410121,MLSListings,ML81678959,N,Y,37.1290788,-121.6452542
PAST SALE,September-28-2017,Single Family Residential,18122 Del Monte Ave,MORGAN HILL,CA,95037,863507,3,2.5,MORGAN HILL,2128,5400,2017,124,406,86,Sold,,,http://www.redfin.com/CA/Morgan-Hill/18122-Del-Monte-Ave-95037/home/114082666,MLSListings,ML81654075,N,Y,37.136935,-121.6631096
PAST SALE,October-3-2017,Townhouse,186 Triggs Ln,MORGAN HILL,CA,95037,551000,2,2.5,MORGAN HILL,1222,435,2010,119,451,240,Sold,,,http://www.redfin.com/CA/Morgan-Hill/186-Triggs-Ln-95037/home/28573421,MLSListings,ML81673294,N,Y,37.1311775,-121.6505349
PAST SALE,,Single Family Residential,3745 Ridgeview Ct,Morgan Hill,CA,95037,371500,4,2.0,,3009,15400,1986,,123,,,,,http://www.redfin.com/CA/Morgan-Hill/3745-Ridgeview-Ct-95037/home/618851,,,N,Y,37.1469891,-121.5905214
PAST SALE,December-8-2017,Single Family Residential,710 San Gabriel Ave,MORGAN HILL,CA,95037,967500,4,2.5,MORGAN HILL,2781,6712,2008,53,348,100,Sold,,,http://www.redfin.com/CA/Morgan-Hill/710-San-Gabriel-Ave-95037/home/17287633,MLSListings,ML81680865,N,Y,37.1232104,-121.6345683
PAST SALE,October-31-2017,Single Family Residential,16950 San Simeon Dr,MORGAN HILL,CA,95037,940000,4,2.5,MORGAN HILL,2555,5197,2014,91,368,127,Sold,,,http://www.redfin.com/CA/Morgan-Hill/16950-San-Simeon-Dr-95037/home/52265847,MLSListings,ML81671469,N,Y,37.1280548,-121.6409633
PAST SALE,November-13-2017,Single Family Residential,18005 Olive Branch Ln,MORGAN HILL,CA,95037,975000,4,2.5,MORGAN HILL,2746,29328,1978,78,355,,Sold,,,http://www.redfin.com/CA/Morgan-Hill/18005-Olive-Branch-Ln-95037/home/143815704,MLSListings,ML81677837,N,Y,37.128015,-121.6786861
PAST SALE,,Single Family Residential,1501 Santa Ines Way,Morgan Hill,CA,95037,358000,4,2.0,,2220,7078,2001,,161,,,,,http://www.redfin.com/CA/Morgan-Hill/1501-Santa-Ines-Way-95037/home/1037984,,,N,Y,37.1569046,-121.6443011
PAST SALE,December-27-2017,Single Family Residential,19141 Saffron Dr,MORGAN HILL,CA,95037,850000,3,2.5,MORGAN HILL,2542,7899,2003,34,334,80,Sold,,,http://www.redfin.com/CA/Morgan-Hill/19141-Saffron-Dr-95037/home/1074031,MLSListings,ML81681724,N,Y,37.150705,-121.6729631
PAST SALE,September-7-2017,Single Family Residential,17044 Shady Lane Dr,MORGAN HILL,CA,95037,950000,4,3.0,MORGAN HILL,2088,23000,1974,145,455,35,Sold,,,http://www.redfin.com/CA/Morgan-Hill/17044-Shady-Lane-Dr-95037/home/951647,MLSListings,ML81668645,N,Y,37.1477867,-121.5926768
PAST SALE,September-8-2017,Single Family Residential,2555 Magnolia Way,MORGAN HILL,CA,95037,975000,5,3.0,MORGAN HILL,2808,7918,1997,144,347,120,Sold,,,http://www.redfin.com/CA/Morgan-Hill/2555-Magnolia-Way-95037/home/1457115,MLSListings,ML81655703,N,Y,37.1416081,-121.6080634
PAST SALE,October-20-2017,Single Family Residential,17430 Blue Jay Dr,MORGAN HILL,CA,95037,1245000,4,3.0,MORGAN HILL,2978,28800,1978,102,418,38,Sold,,,http://www.redfin.com/CA/Morgan-Hill/17430-Blue-Jay-Dr-95037/home/1655090,MLSListings,ML81674747,N,Y,37.1542401,-121.6066037
PAST SALE,January-18-2018,Single Family Residential,2755 Cantor Dr,MORGAN HILL,CA,95037,1020000,4,3.0,MORGAN HILL,2969,7165,1991,12,344,,Sold,,,http://www.redfin.com/CA/Morgan-Hill/2755-Cantor-Dr-95037/home/1490928,MLSListings,ML81685985,N,Y,37.1351427,-121.6021931
PAST SALE,September-1-2017,Single Family Residential,555 Calle Caballeria,MORGAN HILL,CA,95037,910000,4,3.0,MORGAN HILL,2121,6969,1995,151,429,,Sold,,,http://www.redfin.com/CA/Morgan-Hill/555-Calle-Caballeria-95037/home/1604214,MLSListings,ML81672752,N,Y,37.1333985,-121.648002
PAST SALE,September-20-2017,Single Family Residential,17454 Belletto Dr,MORGAN HILL,CA,95037,1150000,5,3.0,MORGAN HILL,2785,7840,1995,132,413,,Sold,,,http://www.redfin.com/CA/Morgan-Hill/17454-Belletto-Dr-95037/home/1032114,MLSListings,ML81675729,N,Y,37.1369763,-121.6414798
PAST SALE,September-29-2017,Single Family Residential,550 Grey Ghost Ct,MORGAN HILL,CA,95037,1349999,4,3.0,MORGAN HILL,3221,19880,1983,123,419,1,Sold,,,http://www.redfin.com/CA/Morgan-Hill/550-Grey-Ghost-Ct-95037/home/1845548,MLSListings,ML81668103,N,Y,37.094402,-121.630809
PAST SALE,October-18-2017,Single Family Residential,17387 Walnut Grove Dr,MORGAN HILL,CA,95037,868000,4,3.0,MORGAN HILL,2254,10990,1993,104,385,,Sold,,,http://www.redfin.com/CA/Morgan-Hill/17387-Walnut-Grove-Dr-95037/home/1556044,MLSListings,ML81672630,N,Y,37.1365794,-121.6383893
PAST SALE,October-27-2017,Single Family Residential,17410 Montoya Cir,MORGAN HILL,CA,95037,975000,5,3.0,MORGAN HILL,2514,6700,1990,95,388,161,Sold,,,http://www.redfin.com/CA/Morgan-Hill/17410-Montoya-Cir-95037/home/1010711,MLSListings,ML81678929,N,Y,37.1357886,-121.6442521
PAST SALE,November-27-2017,Single Family Residential,15675 La Tierra Dr,MORGAN HILL,CA,95037,1050000,4,3.0,MORGAN HILL,2746,7840,1995,64,382,,Sold,,,http://www.redfin.com/CA/Morgan-Hill/15675-La-Tierra-Dr-95037/home/1539656,MLSListings,ML81681495,N,Y,37.1032222,-121.6502988
PAST SALE,November-22-2017,Single Family Residential,408 Whitney Way,MORGAN HILL,CA,95037,1050000,4,3.0,MORGAN HILL,2492,6706,1997,69,421,85,Sold,,,http://www.redfin.com/CA/Morgan-Hill/408-Whitney-Way-95037/home/1812253,MLSListings,ML81682404,N,Y,37.1129445,-121.6500062
PAST SALE,December-8-2017,Single Family Residential,1835 Sullivan Ct,MORGAN HILL,CA,95037,1800000,4,3.0,MORGAN HILL,3908,47480,1996,53,461,,Sold,,,http://www.redfin.com/CA/Morgan-Hill/1835-Sullivan-Ct-95037/home/1013724,MLSListings,ML81683341,N,Y,37.1633489,-121.6443978
PAST SALE,December-11-2017,Single Family Residential,714 San Gabriel Ave,MORGAN HILL,CA,95037,1183000,4,3.0,MORGAN HILL,3681,7269,2008,50,321,100,Sold,,,http://www.redfin.com/CA/Morgan-Hill/714-San-Gabriel-Ave-95037/home/12462477,MLSListings,ML81673371,N,Y,37.1230979,-121.6345288
PAST SALE,,Single Family Residential,16855 Zinfindel Cir,Morgan Hill,CA,95037,354500,4,3.0,,2752,8165,2004,,129,,,,,http://www.redfin.com/CA/Morgan-Hill/16855-Zinfindel-Cir-95037/home/1733649,,,N,Y,37.1355692,-121.617194
PAST SALE,December-28-2017,Single Family Residential,16981 Grapevine Ct,MORGAN HILL,CA,95037,1091000,6,3.0,MORGAN HILL,2976,7170,2015,33,367,140,Sold,,,http://www.redfin.com/CA/Morgan-Hill/16981-Grapevine-Ct-95037/home/79364905,MLSListings,ML81683127,N,Y,37.1344697,-121.6225978
PAST SALE,September-14-2017,Single Family Residential,14535 Shadowlane Ct,MORGAN HILL,CA,95037,1024000,5,3.0,MORGAN HILL,3188,10800,1977,138,321,,Sold,,,http://www.redfin.com/CA/Morgan-Hill/14535-Shadowlane-Ct-95037/home/1291674,MLSListings,ML81667709,N,Y,37.0911571,-121.6332421
PAST SALE,September-15-2017,Single Family Residential,15665 La Tierra Dr,MORGAN HILL,CA,95037,975000,4,3.0,MORGAN HILL,3049,8300,1989,137,320,,Sold,,,http://www.redfin.com/CA/Morgan-Hill/15665-La-Tierra-Dr-95037/home/1293662,MLSListings,ML81672649,N,Y,37.1031247,-121.6500484
PAST SALE,September-22-2017,Single Family Residential,3395 Oakwood Ct,MORGAN HILL,CA,95037,886000,4,3.0,MORGAN HILL,2332,19750,1977,130,380,33,Sold,,,http://www.redfin.com/CA/Morgan-Hill/3395-Oakwood-Ct-95037/home/866778,MLSListings,ML81674690,N,Y,37.1376029,-121.5900114
PAST SALE,December-29-2017,Single Family Residential,18693 White Moon Dr,MORGAN HILL,CA,95037,954226,4,3.0,MORGAN HILL,2336,6606,2017,32,408,200,Sold,,,http://www.redfin.com/CA/MORGAN-HILL/18693-White-Moon-Dr-95037/home/130743210,MLSListings,ML81667341,N,Y,37.1305012,-121.6543901
PAST SALE,August-29-2017,Single Family Residential,470 Winter Creek Way Unit WAY,MORGAN HILL,CA,95037,1099000,4,3.0,MORGAN HILL,2659,6803,2003,154,413,72,Sold,,,http://www.redfin.com/CA/Morgan-Hill/470-Winter-Creek-Way-95037/unit-WAY/home/128930287,MLSListings,ML81656911,N,Y,37.1369155,-121.6686881
PAST SALE,December-27-2017,Single Family Residential,15675 La Honda Ct,MORGAN HILL,CA,95037,1030000,5,3.0,MORGAN HILL,2670,7290,1977,34,386,,Sold,,,http://www.redfin.com/CA/Morgan-Hill/15675-La-Honda-Ct-95037/home/1015452,MLSListings,ML81687582,N,Y,37.1067536,-121.6447468
PAST SALE,November-28-2017,Single Family Residential,17604 Calle Siena Ct,MORGAN HILL,CA,95037,1098880,4,3.0,MORGAN HILL,2650,5419,2017,63,415,90,Sold,,,http://www.redfin.com/CA/Morgan-Hill/17604-Calle-Siena-95037/home/143715832,MLSListings,ML81676914,N,Y,37.13623,-121.64915
PAST SALE,December-8-2017,Single Family Residential,170 Fennel Ct,MORGAN HILL,CA,95037,1225000,4,3.0,MORGAN HILL,3050,12005,2006,53,402,80,Sold,,,http://www.redfin.com/CA/Morgan-Hill/170-Fennel-Ct-95037/home/12177728,MLSListings,ML81681001,N,Y,37.1519518,-121.6761397
PAST SALE,December-15-2017,Single Family Residential,1306 Morning Star Dr,MORGAN HILL,CA,95037,1215362,4,3.0,MORGAN HILL,2856,7500,2017,46,426,200,Sold,,,http://www.redfin.com/CA/Morgan-Hill/1306-Morning-Star-Dr-95037/home/113667335,MLSListings,ML81645583,N,Y,37.1614025,-121.6493682
PAST SALE,August-7-2017,Single Family Residential,17690 John Telfer Dr,MORGAN HILL,CA,95037,1101750,4,3.0,MORGAN HILL,2704,11000,1971,176,407,,Sold,,,http://www.redfin.com/CA/Morgan-Hill/17690-John-Telfer-Dr-95037/home/1638555,MLSListings,ML81670294,N,Y,37.125032,-121.6674568
PAST SALE,August-31-2017,Single Family Residential,827 Talbot Dr,MORGAN HILL,CA,95037,1045000,5,3.0,MORGAN HILL,2906,6465,2006,152,360,90,Sold,,,http://www.redfin.com/CA/Morgan-Hill/827-Talbot-Dr-95037/home/17292711,MLSListings,ML81657038,N,Y,37.1390659,-121.6474025
PAST SALE,January-25-2018,Single Family Residential,614 Calle Siena,MORGAN HILL,CA,95037,1051915,4,3.0,MORGAN HILL,2653,7087,2017,5,397,90,Sold,,,http://www.redfin.com/CA/Morgan-Hill/614-Calle-Siena-95037/home/114095257,MLSListings,ML81682815,N,Y,37.137521742738,-121.647451022552
PAST SALE,December-29-2017,Single Family Residential,18704 White Moon Dr,MORGAN HILL,CA,95037,1077300,3,3.0,MORGAN HILL,2383,6693,2017,32,452,200,Sold,,,http://www.redfin.com/CA/MORGAN-HILL/18704-White-Moon-Dr-95037/home/113716278,MLSListings,ML81646592,N,Y,37.2187714,-121.5826642
PAST SALE,,Single Family Residential,80 PASEO MADRE CT,MORGAN HILL,CA,95037,855000,4,3.0,,2104,6706,2017,,406,,,,,http://www.redfin.com/CA/MORGAN-HILL/80-PASEO-MADRE-CT-95037/home/143043980,,,N,Y,37.1305012,-121.6543901
PAST SALE,,Single Family Residential,90 PASEO MADRE CT,MORGAN HILL,CA,95037,871000,4,3.0,,2033,4266,2017,,428,,,,,http://www.redfin.com/CA/MORGAN-HILL/90-PASEO-MADRE-CT-95037/home/143043982,,,N,Y,37.1305012,-121.6543901
PAST SALE,November-14-2017,Single Family Residential,317B Casa Loma Rd,MORGAN HILL,CA,95037,1175000,4,3.0,MORGAN HILL,2940,221650,1972,77,400,,Sold,,,http://www.redfin.com/CA/Morgan-Hill/317-Casa-Loma-Rd-95037/home/1111208,MLSListings,ML81679482,N,Y,37.1503242,-121.747916
PAST SALE,,Single Family Residential,3295 Oakwood Ct,Morgan Hill,CA,95037,227000,4,3.0,,3430,16150,1977,,66,,,,,http://www.redfin.com/CA/Morgan-Hill/3295-Oakwood-Ct-95037/home/720062,,,N,Y,37.1358185,-121.5912285
PAST SALE,November-17-2017,Single Family Residential,17605 John Telfer Dr,MORGAN HILL,CA,95037,1300000,4,3.0,MORGAN HILL,3778,59600,1956,74,344,,Sold,,,http://www.redfin.com/CA/Morgan-Hill/17605-John-Telfer-Dr-95037/home/1521458,MLSListings,ML81675511,N,Y,37.1239523,-121.6677632
PAST SALE,November-20-2017,Single Family Residential,1847 Shafer Ave,Morgan Hill,CA,95037-7237,1610000,4,3.0,Morgan Hill,4208,15742,2006,71,383,172,Sold,,,http://www.redfin.com/CA/Morgan-Hill/1847-Shafer-Ave-95037/home/12177722,EBRD/CCAR/Bay East,40783977,N,Y,37.1394225,-121.6208166
PAST SALE,November-29-2017,Single Family Residential,16540 Rustling Oak Ct,MORGAN HILL,CA,95037,1479000,5,3.0,MORGAN HILL,4098,15000,1982,62,361,34,Sold,,,http://www.redfin.com/CA/Morgan-Hill/16540-Rustling-Oak-Ct-95037/home/1572042,MLSListings,ML81673508,N,Y,37.1384184,-121.5978891
PAST SALE,August-9-2017,Single Family Residential,16955 Malaga Dr,MORGAN HILL,CA,95037,1001000,5,3.0,MORGAN HILL,2840,6969,1994,174,352,185,Sold,,,http://www.redfin.com/CA/Morgan-Hill/16955-Malaga-Dr-95037/home/1410422,MLSListings,ML81669164,N,Y,37.1333295,-121.6261302
PAST SALE,November-28-2017,Single Family Residential,95 Paseo Madre Ct,MORGAN HILL,CA,95037,875000,4,3.0,MORGAN HILL,2222,4644,2017,63,394,,Sold,,,http://www.redfin.com/CA/MORGAN-HILL/95-PASEO-MADRE-CT-95037/home/143043974,MLSListings,ML81673266,N,Y,37.1305012,-121.6543901
PAST SALE,December-5-2017,Single Family Residential,17212 Sandalwood Way,MORGAN HILL,CA,95037,1160000,5,3.0,MORGAN HILL,3068,8000,1997,56,378,,Sold,,,http://www.redfin.com/CA/Morgan-Hill/17212-Sandalwood-Way-95037/home/1011737,MLSListings,ML81683078,N,Y,37.1401461,-121.6165549
PAST SALE,,Single Family Residential,502 Via Sorrento,Morgan Hill,CA,95037,830000,3,3.0,,2070,4715,1991,,401,,,,,http://www.redfin.com/CA/Morgan-Hill/502-Via-Sorrento-95037/home/1185075,,,N,Y,37.1021275,-121.6420249
PAST SALE,,Single Family Residential,15895 Armsby Ln,Morgan Hill,CA,95037,900000,4,3.0,,3264,185130,1972,,276,,,,,http://www.redfin.com/CA/Morgan-Hill/15895-Armsby-Ln-95037/home/720301,,,N,Y,37.0932161,-121.684792
PAST SALE,December-21-2017,Single Family Residential,624 Calle Siena,MORGAN HILL,CA,95037,1010779,5,3.0,MORGAN HILL,2467,7823,2017,40,410,90,Sold,,,http://www.redfin.com/CA/Morgan-Hill/624-Calle-Siena-95037/home/143934788,MLSListings,ML81680138,N,Y,37.137642198671,-121.647331351315
PAST SALE,December-15-2017,Single Family Residential,65 Paseo Madre Ct,MORGAN HILL,CA,95037,870000,4,3.0,MORGAN HILL,2222,4827,2017,46,392,,Sold,,,http://www.redfin.com/CA/MORGAN-HILL/65-PASEO-MADRE-CT-95037/home/143043978,MLSListings,ML81682065,N,Y,37.1305012,-121.6543901
PAST SALE,December-15-2017,Single Family Residential,17730 John Telfer Dr,MORGAN HILL,CA,95037,825000,3,3.0,MORGAN HILL,2164,35280,1959,46,381,,Sold,,,http://www.redfin.com/CA/Morgan-Hill/17730-John-Telfer-Dr-95037/home/656484,MLSListings,ML81683177,N,Y,37.1262758,-121.6680179
PAST SALE,December-15-2017,Single Family Residential,1326 Morning Star Dr,MORGAN HILL,CA,95037,1088395,4,3.0,MORGAN HILL,2424,7500,2017,46,449,200,Sold,,,http://www.redfin.com/CA/Morgan-Hill/1326-Morning-Star-Dr-95037/home/113439521,MLSListings,ML81642930,N,Y,37.1614025,-121.6493682
PAST SALE,,Single Family Residential,18098 Del Monte Ave,Morgan Hill,CA,95037,145000,5,3.0,,2714,5121,2016,,53,,,,,http://www.redfin.com/CA/Morgan-Hill/18098-Del-Monte-Ave-95037/home/143042456,,,N,Y,37.1367293,-121.6629333
PAST SALE,August-18-2017,Single Family Residential,17399 Walnut Grove Dr,MORGAN HILL,CA,95037,930000,4,3.0,MORGAN HILL,2260,13068,1994,165,412,,Sold,,,http://www.redfin.com/CA/Morgan-Hill/17399-Walnut-Grove-Dr-95037/home/1524881,MLSListings,ML81648655,N,Y,37.1374668,-121.6393404
PAST SALE,December-27-2017,Single Family Residential,17612 Calle Siena,MORGAN HILL,CA,95037,1078880,4,3.0,MORGAN HILL,2708,6767,2017,34,398,90,Sold,,,http://www.redfin.com/CA/Morgan-Hill/17612-Calle-Siena-95037/home/143840102,MLSListings,ML81678280,N,Y,37.13623,-121.64915
PAST SALE,December-21-2017,Townhouse,103 Sapphire Ln,MORGAN HILL,CA,95037,690000,3,3.0,MORGAN HILL,1821,1292,2015,40,379,300,Sold,,,http://www.redfin.com/CA/Morgan-Hill/103-Sapphire-Ln-95037/home/112869166,MLSListings,ML81683444,N,Y,37.1442802,-121.6628287
PAST SALE,August-11-2017,Single Family Residential,77 La Crosse Dr,MORGAN HILL,CA,95037,805000,5,3.0,MORGAN HILL,2859,7884,1981,172,282,,Sold,,,http://www.redfin.com/CA/Morgan-Hill/77-La-Crosse-Dr-95037/home/558742,MLSListings,ML81646669,N,Y,37.1087289,-121.6475074
PAST SALE,,Single Family Residential,530 Diana Ave,Morgan Hill,CA,95037,948000,4,3.0,,2196,8712,1994,,432,,,,,http://www.redfin.com/CA/Morgan-Hill/530-Diana-Ave-95037/home/1325367,,,N,Y,37.1314006,-121.6428069
PAST SALE,August-17-2017,Single Family Residential,15545 La Mar Dr,MORGAN HILL,CA,95037,980000,5,3.0,MORGAN HILL,2646,7760,1985,166,370,,Sold,,,http://www.redfin.com/CA/Morgan-Hill/15545-La-Mar-Dr-95037/home/590343,MLSListings,ML81669043,N,Y,37.1061733,-121.642329
PAST SALE,October-5-2017,Single Family Residential,332 Calle Cerro,MORGAN HILL,CA,95037,1000000,4,3.0,MORGAN HILL,2672,5174,2013,117,374,85,Sold,,,http://www.redfin.com/CA/Morgan-Hill/332-Calle-Cerro-95037/home/95954415,MLSListings,ML81676584,N,Y,37.134951,-121.6526942
PAST SALE,September-1-2017,Single Family Residential,626 Serpentine Ct,MORGAN HILL,CA,95037,1100000,5,3.0,MORGAN HILL,3357,9147,1995,151,328,,Sold,,,http://www.redfin.com/CA/Morgan-Hill/626-Serpentine-Ct-95037/home/845165,MLSListings,ML81667916,N,Y,37.1365229,-121.6724861
PAST SALE,September-30-2017,Single Family Residential,15710 La Mar Ct,MORGAN HILL,CA,95037,925000,5,3.0,MORGAN HILL,2670,7490,1977,122,346,,Sold,,,http://www.redfin.com/CA/Morgan-Hill/15710-La-Mar-Ct-95037/home/1409674,MLSListings,ML81674850,N,Y,37.1076638,-121.6438575
PAST SALE,August-3-2017,Single Family Residential,18321 Tolusa Ct,MORGAN HILL,CA,95037,1060000,4,3.0,MORGAN HILL,3079,7038,1999,180,344,70,Sold,,,http://www.redfin.com/CA/Morgan-Hill/18321-Tolusa-Ct-95037/home/604778,MLSListings,ML81652210,N,Y,37.1541278,-121.6444895
PAST SALE,August-15-2017,Single Family Residential,16275 Denali Dr,MORGAN HILL,CA,95037,975000,4,3.0,MORGAN HILL,2727,9099,2000,168,358,656,Sold,,,http://www.redfin.com/CA/Morgan-Hill/16275-Denali-Dr-95037/home/1512771,MLSListings,ML81653539,N,Y,37.11663,-121.651068
PAST SALE,August-4-2017,Single Family Residential,17031 Holiday Dr,MORGAN HILL,CA,95037,901000,3,3.0,MORGAN HILL,1838,39361,1964,179,490,46,Sold,,,http://www.redfin.com/CA/Morgan-Hill/17031-Holiday-Dr-95037/home/1692501,MLSListings,ML81656726,N,Y,37.1475619,-121.5942305
PAST SALE,August-24-2017,Single Family Residential,17645 Calle Mazatan,MORGAN HILL,CA,95037,945000,4,3.0,MORGAN HILL,2470,4600,2013,159,383,87,Sold,,,http://www.redfin.com/CA/Morgan-Hill/17645-Calle-Mazatan-95037/home/95954394,MLSListings,ML81650368,N,Y,37.1351705,-121.6515135
PAST SALE,August-22-2017,Single Family Residential,16940 Marbella Ct,MORGAN HILL,CA,95037,990000,4,3.0,MORGAN HILL,2807,6710,1990,161,353,185,Sold,,,http://www.redfin.com/CA/Morgan-Hill/16940-Marbella-Ct-95037/home/1825960,MLSListings,ML81669758,N,Y,37.1342712,-121.6231167
PAST SALE,August-23-2017,Single Family Residential,15550 La Honda Sur,MORGAN HILL,CA,95037,995000,5,3.0,MORGAN HILL,2646,7552,1985,160,376,,Sold,,,http://www.redfin.com/CA/Morgan-Hill/15550-La-Honda-Sur-95037/home/1016519,MLSListings,ML81670330,N,Y,37.1062685,-121.6430234
PAST SALE,September-8-2017,Single Family Residential,1460 Malaga Ct,MORGAN HILL,CA,95037,1020000,5,3.0,MORGAN HILL,2549,7405,1994,144,400,185,Sold,,,http://www.redfin.com/CA/Morgan-Hill/1460-Malaga-Ct-95037/home/1093757,MLSListings,ML81673156,N,Y,37.1336247,-121.6253177
PAST SALE,August-24-2017,Single Family Residential,18325 Murphy Springs Dr,MORGAN HILL,CA,95037,855000,4,3.0,MORGAN HILL,2231,4950,1989,159,383,,Sold,,,http://www.redfin.com/CA/Morgan-Hill/18325-Murphy-Springs-Dr-95037/home/1015358,MLSListings,ML81669326,N,Y,37.1385756,-121.6688444
PAST SALE,October-12-2017,Single Family Residential,15655 Via Castana,MORGAN HILL,CA,95037,1200000,5,3.0,MORGAN HILL,3239,10947,1991,110,370,,Sold,,,http://www.redfin.com/CA/Morgan-Hill/15655-Via-Castana-95037/home/1410170,MLSListings,ML81655414,N,Y,37.1024019,-121.6504221
PAST SALE,December-20-2017,Single Family Residential,16710 San Dimas Ln,MORGAN HILL,CA,95037,860000,3,3.0,MORGAN HILL,2180,4997,2014,41,394,185,Sold,,,http://www.redfin.com/CA/Morgan-Hill/16710-San-Dimas-Ln-95037/home/55517555,MLSListings,ML81681961,N,Y,37.1273983,-121.6340817
PAST SALE,November-15-2017,Single Family Residential,365 Via Largo,MORGAN HILL,CA,95037,950000,4,3.0,MORGAN HILL,2237,8568,1996,76,425,,Sold,,,http://www.redfin.com/CA/Morgan-Hill/365-Via-Largo-95037/home/1016584,MLSListings,ML81676468,N,Y,37.104514,-121.6401354
PAST SALE,August-16-2017,Single Family Residential,16666 Walter Breton Dr,MORGAN HILL,CA,95037,1400000,4,3.0,MORGAN HILL,3764,55756,1988,167,372,,Sold,,,http://www.redfin.com/CA/Morgan-Hill/16666-Walter-Breton-Dr-95037/home/1017618,MLSListings,ML81645693,N,Y,37.109396,-121.6863065
PAST SALE,October-13-2017,Single Family Residential,16740 San Dimas Ln,MORGAN HILL,CA,95037,900000,4,3.0,MORGAN HILL,2634,5373,2014,109,342,145,Sold,,,http://www.redfin.com/CA/Morgan-Hill/16740-San-Dimas-Ln-95037/home/62324086,MLSListings,ML81678639,N,Y,37.1277042,-121.6342724
PAST SALE,August-10-2017,Single Family Residential,1470 Seville Dr,MORGAN HILL,CA,95037,1025000,4,3.0,MORGAN HILL,2807,6810,1994,173,365,185,Sold,,,http://www.redfin.com/CA/Morgan-Hill/1470-Seville-Dr-95037/home/1028077,MLSListings,ML81668522,N,Y,37.1325481,-121.6248563
PAST SALE,August-7-2017,Single Family Residential,2795 Cantor Dr,MORGAN HILL,CA,95037,926875,4,3.0,MORGAN HILL,2820,7056,1995,176,329,,Sold,,,http://www.redfin.com/CA/Morgan-Hill/2795-Cantor-Dr-95037/home/1410347,MLSListings,ML81652860,N,Y,37.1356417,-121.6014749
PAST SALE,August-25-2017,Single Family Residential,17685 Bentley Dr,MORGAN HILL,CA,95037,837900,4,3.0,MORGAN HILL,2542,6552,2000,158,330,65,Sold,,,http://www.redfin.com/CA/Morgan-Hill/17685-Bentley-Dr-95037/home/1032482,MLSListings,ML81667498,N,Y,37.1399591,-121.6462003
PAST SALE,,Single Family Residential,470 Winter Creek Way,Morgan Hill,CA,95037,1099000,4,3.0,,2659,6803,2003,,413,,,,,http://www.redfin.com/CA/Morgan-Hill/470-Winter-Creek-Way-95037/home/1019192,,,N,Y,37.1369155,-121.6686881
PAST SALE,September-7-2017,Single Family Residential,170 Fox Hollow Cir,MORGAN HILL,CA,95037,797000,4,3.0,MORGAN HILL,2231,4950,1989,145,357,,Sold,,,http://www.redfin.com/CA/Morgan-Hill/170-Fox-Hollow-Cir-95037/home/1608967,MLSListings,ML81667454,N,Y,37.1401931,-121.66961
PAST SALE,September-27-2017,Single Family Residential,3455 Oakwood Ct,MORGAN HILL,CA,95037,1209000,4,3.0,MORGAN HILL,3317,18000,1980,125,364,33,Sold,,,http://www.redfin.com/CA/Morgan-Hill/3455-Oakwood-Ct-95037/home/835802,MLSListings,ML81672827,N,Y,37.1385677,-121.5894295
PAST SALE,September-26-2017,Single Family Residential,834 Black Walnut Way,MORGAN HILL,CA,95037,1070000,5,3.0,MORGAN HILL,3263,8580,1990,126,328,82,Sold,,,http://www.redfin.com/CA/Morgan-Hill/834-Black-Walnut-Way-95037/home/1010764,MLSListings,ML81669537,N,Y,37.1390706,-121.6422862
PAST SALE,,Single Family Residential,2515 Magnolia Way,Morgan Hill,CA,95037,345000,5,3.0,,2598,7500,1997,,133,,,,,http://www.redfin.com/CA/Morgan-Hill/2515-Magnolia-Way-95037/home/1032590,,,N,Y,37.142147,-121.6086892
PAST SALE,October-27-2017,Single Family Residential,15730 Via Castana,MORGAN HILL,CA,95037,1100000,4,3.0,MORGAN HILL,2808,9082,2000,95,392,,Sold,,,http://www.redfin.com/CA/Morgan-Hill/15730-Via-Castana-95037/home/798811,MLSListings,ML81674016,N,Y,37.1041454,-121.6511003
PAST SALE,,Single Family Residential,1130 Appian Way,Morgan Hill,CA,95037,400000,4,3.0,,2479,6250,1990,,161,,,,,http://www.redfin.com/CA/Morgan-Hill/1130-Appian-Way-95037/home/1017800,,,N,Y,37.098918,-121.651147
PAST SALE,November-24-2017,Single Family Residential,16775 San Dimas Ln,MORGAN HILL,CA,95037,975000,4,3.5,MORGAN HILL,2377,5472,2014,67,410,145,Sold,,,http://www.redfin.com/CA/Morgan-Hill/16775-San-Dimas-Ln-95037/home/62324450,MLSListings,ML81683389,N,Y,37.1278914,-121.6349283
PAST SALE,January-12-2018,Single Family Residential,18510 Serra Avenida,MORGAN HILL,CA,95037,1340000,4,3.5,MORGAN HILL,3401,10458,2004,18,394,77,Sold,,,http://www.redfin.com/CA/Morgan-Hill/18510-Serra-Avenida-95037/home/1190661,MLSListings,ML81682843,N,Y,37.1584994,-121.6429941
PAST SALE,August-18-2017,Single Family Residential,19123 Chinook Ct,MORGAN HILL,CA,95037,1288000,5,3.5,MORGAN HILL,3480,9140,1998,165,370,75,Sold,,,http://www.redfin.com/CA/Morgan-Hill/19123-Chinook-Ct-95037/home/1348240,MLSListings,ML81669387,N,Y,37.1654115,-121.6496127
PAST SALE,December-18-2017,Single Family Residential,19311 Saffron Dr,MORGAN HILL,CA,95037,1250000,4,3.5,MORGAN HILL,3738,11435,2006,43,334,80,Sold,,,http://www.redfin.com/CA/Morgan-Hill/19311-Saffron-Dr-95037/home/12177745,MLSListings,ML81684015,N,Y,37.1534977,-121.6756191
PAST SALE,September-15-2017,Single Family Residential,19131 Blue Lynx Ct,MORGAN HILL,CA,95037,1295000,4,3.5,MORGAN HILL,3078,9048,2003,137,421,75,Sold,,,http://www.redfin.com/CA/Morgan-Hill/19131-Blue-Lynx-Ct-95037/home/1049171,MLSListings,ML81672209,N,Y,37.1642631,-121.6509355
PAST SALE,September-5-2017,Single Family Residential,18605 Arguello Ave,MORGAN HILL,CA,95037,1785000,4,3.5,MORGAN HILL,4858,14513,2005,147,367,105,Sold,,,http://www.redfin.com/CA/Morgan-Hill/18605-Arguello-Ave-95037/home/1053266,MLSListings,ML81641079,N,Y,37.1592231,-121.642174
PAST SALE,December-21-2017,Single Family Residential,1311 Morning Star Dr,MORGAN HILL,CA,95037,1275756,4,3.5,MORGAN HILL,3091,8115,2017,40,413,200,Sold,,,http://www.redfin.com/CA/Morgan-Hill/1311-Morning-Star-Dr-95037/home/113716296,MLSListings,ML81646594,N,Y,37.1616504,-121.649819
PAST SALE,August-31-2017,Townhouse,17025 Saint Cecilia Ln,MORGAN HILL,CA,95037,720000,4,3.5,MORGAN HILL,2274,1475,2013,152,317,127,Sold,,,http://www.redfin.com/CA/Morgan-Hill/17025-Saint-Cecilia-Ln-95037/home/52663487,MLSListings,ML81647685,N,Y,37.1276906,-121.646686
PAST SALE,August-14-2017,Single Family Residential,18315 San Carlos Way,MORGAN HILL,CA,95037,1320000,4,3.5,MORGAN HILL,3557,9579,2006,169,371,77,Sold,,,http://www.redfin.com/CA/Morgan-Hill/18315-San-Carlos-Way-95037/home/12178650,MLSListings,ML81656768,N,Y,37.15703,-121.6403721
PAST SALE,November-15-2017,Single Family Residential,17257 Sandalwood Way,MORGAN HILL,CA,95037,1315000,4,3.5,MORGAN HILL,3356,9583,1992,76,392,,Sold,,,http://www.redfin.com/CA/Morgan-Hill/17257-Sandalwood-Way-95037/home/1011728,MLSListings,ML81678414,N,Y,37.1404673,-121.6176405
PAST SALE,August-31-2017,Single Family Residential,18370 San Carlos Way,MORGAN HILL,CA,95037,1365000,4,3.5,MORGAN HILL,3577,13050,2007,152,382,77,Sold,,,http://www.redfin.com/CA/Morgan-Hill/18370-San-Carlos-Way-95037/home/21496423,MLSListings,ML81670271,N,Y,37.1580093,-121.6414753
PAST SALE,January-10-2018,Single Family Residential,17440 Lakeview Dr,MORGAN HILL,CA,95037,1270000,6,3.5,MORGAN HILL,3902,20400,1977,20,325,35,Sold,,,http://www.redfin.com/CA/Morgan-Hill/17440-Lakeview-Dr-95037/home/1190064,MLSListings,ML81684567,N,Y,37.1532688,-121.6076056
PAST SALE,September-29-2017,Single Family Residential,131 Curry Ave,MORGAN HILL,CA,95037,1201000,5,3.5,MORGAN HILL,3738,13632,2004,123,321,90,Sold,,,http://www.redfin.com/CA/Morgan-Hill/131-Curry-Ave-95037/home/1565366,MLSListings,ML81669676,N,Y,37.1516125,-121.6741677
PAST SALE,January-18-2018,Single Family Residential,19244 Donna Ct,MORGAN HILL,CA,95037,1000000,5,3.5,MORGAN HILL,2844,96383,1977,12,352,,Sold,,,http://www.redfin.com/CA/Morgan-Hill/19244-Donna-Ct-95037/home/1291500,MLSListings,ML81689443,N,Y,37.1620362,-121.6574547
PAST SALE,August-16-2017,Single Family Residential,18271 Bautista Cir,MORGAN HILL,CA,95037,1330000,4,3.5,MORGAN HILL,3210,6421,2015,167,414,77,Sold,,,http://www.redfin.com/CA/Morgan-Hill/18271-Bautista-Cir-95037/home/95957809,MLSListings,ML81667541,N,Y,37.1536796,-121.6415144
