SALE TYPE,SOLD DATE,PROPERTY TYPE,ADDRESS,CITY,STATE,ZIP,PRICE,BEDS,BATHS,LOCATION,SQUARE FEET,LOT SIZE,YEAR BUILT,DAYS ON MARKET,$/SQUARE FEET,HOA/MONTH,STATUS,NEXT OPEN HOUSE START TIME,NEXT OPEN HOUSE END TIME,URL (SEE http://www.redfin.com/buy-a-home/comparative-market-analysis FOR INFO ON PRICING),SOURCE,MLS#,FAVORITE,INTERESTED,LATITUDE,LONGITUDE
PAST SALE,January-12-2018,Single Family Residential,717 Minnesota Ave,SAN JOSE,CA,95125,1000000,2,1.0,SAN JOSE,990,4497,1939,18,1010,,Sold,,,http://www.redfin.com/CA/San-Jose/717-Minnesota-Ave-95125/home/1327509,MLSListings,ML81686873,N,Y,37.3083724,-121.8900071
PAST SALE,January-16-2018,Single Family Residential,1349 Woodale Ct,SAN JOSE,CA,95127,700000,3,1.0,SAN JOSE,1040,6555,1957,14,673,,Sold,,,http://www.redfin.com/CA/San-Jose/1349-Woodale-Ct-95127/home/1686970,MLSListings,ML81685590,N,Y,37.3505851,-121.8167014
PAST SALE,January-2-2018,Condo/Co-op,801 S Winchester Blvd #3400,SAN JOSE,CA,95128,586500,1,1.0,SAN JOSE,692,892,2005,28,848,267,Sold,,,http://www.redfin.com/CA/San-Jose/801-S-Winchester-Blvd-95117/unit-3400/home/2125394,MLSListings,ML81684343,N,Y,37.3126263,-121.9504446
PAST SALE,January-16-2018,Mobile/Manufactured Home,900 Golden Wheel Park Dr #42,SAN JOSE,CA,95112,130000,1,1.0,SAN JOSE,720,,1965,14,181,,Sold,,,http://www.redfin.com/CA/San-Jose/900-Golden-Wheel-Park-Dr-95112/unit-42/home/144189076,MLSListings,ML81683089,N,Y,37.3745175,-121.8918448
PAST SALE,January-10-2018,Single Family Residential,1667 Willowmont Ave,SAN JOSE,CA,95124,1065000,2,1.0,SAN JOSE,1172,5850,1962,20,909,,Sold,,,http://www.redfin.com/CA/San-Jose/1667-Willowmont-Ave-95124/home/854527,MLSListings,ML81686333,N,Y,37.2645353,-121.9068907
PAST SALE,January-8-2018,Townhouse,4677 Persimmon Pl,SAN JOSE,CA,95129,1000000,2,1.0,SAN JOSE,880,1600,1973,22,1136,330,Sold,,,http://www.redfin.com/CA/San-Jose/4677-Persimmon-Pl-95129/home/1151308,MLSListings,ML81684208,N,Y,37.3166152,-121.985257
PAST SALE,January-12-2018,Condo/Co-op,2857 S Bascom Ave #101,SAN JOSE,CA,95124,446000,1,1.0,SAN JOSE,668,780,1984,18,668,375,Sold,,,http://www.redfin.com/CA/San-Jose/2857-S-Bascom-Ave-95124/unit-101/home/827184,MLSListings,ML81684423,N,Y,37.270769,-121.937645
PAST SALE,,Condo/Co-op,2464 Balme Dr,San Jose,CA,95122,340000,1,1.0,,648,,1984,,525,,,,,http://www.redfin.com/CA/San-Jose/2464-Balme-Dr-95122/home/1568366,,,N,Y,37.315886,-121.837556
PAST SALE,January-3-2018,Single Family Residential,1260 Capitol Ct,SAN JOSE,CA,95127,675000,3,1.0,SAN JOSE,1365,7652,1955,27,495,,Sold,,,http://www.redfin.com/CA/San-Jose/1260-Capitol-Ct-95127/home/893399,MLSListings,ML81686077,N,Y,37.3486692,-121.8249189
PAST SALE,January-22-2018,Condo/Co-op,539 Cedro St,SAN JOSE,CA,95111,463500,2,1.0,SAN JOSE,921,1656,1971,8,503,353,Sold,,,http://www.redfin.com/CA/San-Jose/539-Cedro-St-95111/home/1454291,MLSListings,ML81685885,N,Y,37.2890221,-121.8310534
PAST SALE,,Single Family Residential,274 Lyndale Ave,San Jose,CA,95127,534545,3,1.0,,1222,7155,1949,,437,,,,,http://www.redfin.com/CA/San-Jose/274-Lyndale-Ave-95127/home/887850,,,N,Y,37.3612703,-121.8274281
PAST SALE,,Condo/Co-op,410 Auburn Way Apt 7,San Jose,CA,95129,723000,2,1.0,,924,,1970,,782,,,,,http://www.redfin.com/CA/San-Jose/410-Auburn-Way-95129/unit-7/home/1400501,,,N,Y,37.319486,-121.9817353
PAST SALE,January-24-2018,Condo/Co-op,3327 Shadow Park Pl,SAN JOSE,CA,95121,425000,2,1.0,SAN JOSE,888,435,1988,6,479,340,Sold,,,http://www.redfin.com/CA/San-Jose/3327-Shadow-Park-Pl-95121/home/1080048,MLSListings,ML81683675,N,Y,37.304981,-121.816579
PAST SALE,January-19-2018,Townhouse,3442 Pisces Dr,SAN JOSE,CA,95111,500000,2,1.0,SAN JOSE,921,1460,1971,11,543,353,Sold,,,http://www.redfin.com/CA/San-Jose/3442-Pisces-Dr-95111/home/1699569,MLSListings,ML81687385,N,Y,37.2894073,-121.8305084
PAST SALE,January-5-2018,Single Family Residential,1208 Prevost St,SAN JOSE,CA,95125,1103900,3,1.0,SAN JOSE,1441,6655,1949,25,766,,Sold,,,http://www.redfin.com/CA/San-Jose/1208-Prevost-St-95125/home/1664340,MLSListings,ML81685988,N,Y,37.3125256,-121.8889151
PAST SALE,,Single Family Residential,1376 Suffolk Dr,San Jose,CA,95127,333000,3,1.0,,960,5035,1955,,347,,,,,http://www.redfin.com/CA/San-Jose/1376-Suffolk-Dr-95127/home/894284,,,N,Y,37.3479101,-121.8217557
PAST SALE,January-19-2018,Single Family Residential,1034 Spencer Ave,SAN JOSE,CA,95125,1020000,3,1.0,SAN JOSE,1284,4620,1933,11,794,,Sold,,,http://www.redfin.com/CA/San-Jose/1034-Spencer-Ave-95125/home/1634492,MLSListings,ML81685268,N,Y,37.3137388,-121.8919193
PAST SALE,January-19-2018,Single Family Residential,1361 Blewett Ave,SAN JOSE,CA,95125,1250000,2,1.0,SAN JOSE,1334,6381,1925,11,937,,Sold,,,http://www.redfin.com/CA/San-Jose/1361-Blewett-Ave-95125/home/838817,MLSListings,ML81686443,N,Y,37.3045222,-121.8967815
PAST SALE,January-23-2018,Single Family Residential,77 W Humboldt St,SAN JOSE,CA,95110,761000,2,1.0,SAN JOSE,748,4334,1922,7,1017,,Sold,,,http://www.redfin.com/CA/San-Jose/77-W-Humboldt-St-95110/home/902416,MLSListings,ML81686901,N,Y,37.3177482,-121.8781688
PAST SALE,January-26-2018,Mobile/Manufactured Home,2151 Oakland Rd #517,SAN JOSE,CA,95131,125000,2,1.0,SAN JOSE,768,,1973,4,163,,Sold,,,http://www.redfin.com/CA/San-Jose/2151-Oakland-Rd-95131/unit-517/home/63740808,MLSListings,ML81687188,N,Y,37.3962328,-121.9053495
PAST SALE,,Single Family Residential,4300 Alum Rock Ave,San Jose,CA,95127,250000,2,1.0,,1574,5760,1914,,159,,,,,http://www.redfin.com/CA/San-Jose/4300-Alum-Rock-Ave-95127/home/1490986,,,N,Y,37.3669655,-121.8262987
PAST SALE,January-24-2018,Condo/Co-op,1550 Technology Dr #3069,SAN JOSE,CA,95110,571000,1,1.0,SAN JOSE,831,761,2005,6,687,429,Sold,,,http://www.redfin.com/CA/San-Jose/1550-Technology-Dr-95110/unit-3069/home/2123339,MLSListings,ML81687914,N,Y,37.3635149,-121.9139854
PAST SALE,January-29-2018,Mobile/Manufactured Home,2150 Almaden Rd #72,SAN JOSE,CA,95125,72000,1,1.0,SAN JOSE,640,,1961,1,113,,Sold,,,http://www.redfin.com/CA/San-Jose/2150-Almaden-Rd-95125/unit-72/home/35630741,MLSListings,ML81687941,N,Y,37.2948324,-121.8782353
PAST SALE,January-8-2018,Condo/Co-op,5719 Makati Cir Unit A,SAN JOSE,CA,95123,470000,1,1.0,SAN JOSE,765,,1982,22,614,390,Sold,,,http://www.redfin.com/CA/San-Jose/5719-Makati-Cir-95123/unit-A/home/798203,MLSListings,ML81685601,N,Y,37.2487385,-121.8054983
PAST SALE,January-17-2018,Single Family Residential,251 N Leigh Ave,CAMPBELL,CA,95008,1260000,3,1.0,CAMPBELL,1680,8239,1925,13,750,,Sold,,,http://www.redfin.com/CA/Campbell/251-N-Leigh-Ave-95008/home/1829319,MLSListings,ML81685508,N,Y,37.2905238,-121.9228992
PAST SALE,January-25-2018,Single Family Residential,1325 Prevost St,SAN JOSE,CA,95125,935000,1,1.0,SAN JOSE,798,5740,1946,5,1172,,Sold,,,http://www.redfin.com/CA/San-Jose/1325-Prevost-St-95125/home/1327503,MLSListings,ML81687394,N,Y,37.3106103,-121.8888108
PAST SALE,,Single Family Residential,146 Martha St,San Jose,CA,95112,1412000,2,1.0,,948,6345,1901,,1489,,,,,http://www.redfin.com/CA/San-Jose/146-Martha-St-95112/home/1216353,,,N,Y,37.3238732,-121.8773498
PAST SALE,January-24-2018,Single Family Residential,81 Lester Ave,SAN JOSE,CA,95125,1150000,2,1.0,SAN JOSE,1400,7648,1939,6,821,,Sold,,,http://www.redfin.com/CA/San-Jose/81-Lester-Ave-95125/home/712170,MLSListings,ML81686821,N,Y,37.310086,-121.905881
PAST SALE,,Condo/Co-op,1060 S 3rd St Apt 255,San Jose,CA,95112,420000,1,1.0,,667,,2005,,630,,,,,http://www.redfin.com/CA/San-Jose/1060-S-3rd-St-95112/unit-255/home/2126051,,,N,Y,37.321645,-121.8766544
PAST SALE,January-10-2018,Mobile/Manufactured Home,2150 Monterey #63,SAN JOSE,CA,95112,179900,1,1.0,SAN JOSE,672,,1980,20,268,,Sold,,,http://www.redfin.com/CA/San-Jose/2150-Monterey-Hwy-95112/unit-63/home/113796147,MLSListings,ML81682396,N,Y,37.3059229,-121.8601201
PAST SALE,January-15-2018,Condo/Co-op,5535 Eagles Ln #4,SAN JOSE,CA,95123,425000,2,1.0,SAN JOSE,798,3059,1970,15,533,285,Sold,,,http://www.redfin.com/CA/San-Jose/5535-Eagles-Ln-95123/unit-4/home/1115265,MLSListings,ML81687045,N,Y,37.2529231,-121.8221534
PAST SALE,January-26-2018,Single Family Residential,136 Magellan Ave,SAN JOSE,CA,95116,645000,3,1.0,SAN JOSE,1100,5250,1949,4,586,,Sold,,,http://www.redfin.com/CA/San-Jose/136-Magellan-Ave-95116/home/1795508,MLSListings,ML81683549,N,Y,37.3566114,-121.8555585
PAST SALE,January-29-2018,Mobile/Manufactured Home,1850 Evans Ln #17,SAN JOSE,CA,95125,145000,2,1.0,SAN JOSE,750,,2008,1,193,,Sold,,,http://www.redfin.com/CA/San-Jose/1850-Evans-Ln-95125/unit-17/home/144476865,MLSListings,ML81686945,N,Y,37.2986549,-121.8766192
PAST SALE,January-16-2018,Single Family Residential,1344 Davis St,SAN JOSE,CA,95126,860000,3,1.0,SAN JOSE,1452,5650,1905,14,592,,Sold,,,http://www.redfin.com/CA/San-Jose/1344-Davis-St-95126/home/682853,MLSListings,ML81684416,N,Y,37.3394533,-121.9290535
PAST SALE,,Condo/Co-op,247 N Capitol Ave Unit 130,San Jose,CA,95127,350000,1,1.0,,777,,1977,,450,,,,,http://www.redfin.com/CA/San-Jose/247-N-Capitol-Ave-95127/unit-130/home/886850,,,N,Y,37.3682271,-121.8417657
PAST SALE,January-16-2018,Single Family Residential,374 Ridge Vista Ave,SAN JOSE,CA,95127,810000,3,1.0,SAN JOSE,1148,7579,1947,14,706,,Sold,,,http://www.redfin.com/CA/San-Jose/374-Ridgevista-Ave-95127/home/1433770,MLSListings,ML81687224,N,Y,37.3781306,-121.834555
PAST SALE,January-17-2018,Condo/Co-op,1550 Technology Dr #1086,SAN JOSE,CA,95110,568000,1,1.0,SAN JOSE,885,799,2005,13,642,434,Sold,,,http://www.redfin.com/CA/San-Jose/1550-Technology-Dr-95110/unit-1086/home/2123238,MLSListings,ML81687110,N,Y,37.3635149,-121.9139854
PAST SALE,January-29-2018,Single Family Residential,10314 Chrisland Ct,SAN JOSE,CA,95127,650000,3,1.0,SAN JOSE,992,9906,1951,1,655,,Sold,,,http://www.redfin.com/CA/San-Jose/10314-Chrisland-Ct-95127/home/1286228,MLSListings,ML81687370,N,Y,37.3634248,-121.8173531
PAST SALE,January-5-2018,Townhouse,3201 Parkhaven Dr,SAN JOSE,CA,95132,650000,2,1.0,SAN JOSE,888,1736,1972,25,732,365,Sold,,,http://www.redfin.com/CA/San-Jose/3201-Parkhaven-Dr-95132/home/788374,MLSListings,ML81686646,N,Y,37.4117096,-121.8620861
PAST SALE,January-30-2018,Single Family Residential,129 E Younger Ave,SAN JOSE,CA,95112,800000,2,1.0,SAN JOSE,973,5090,1937,1,822,,Sold,,,http://www.redfin.com/CA/San-Jose/129-E-Younger-Ave-95112/home/1166010,MLSListings,ML81687335,N,Y,37.3565854,-121.9021579
PAST SALE,,Single Family Residential,10270 Ashdale Dr,San Jose,CA,95127,280000,2,1.0,,797,5600,1952,,351,,,,,http://www.redfin.com/CA/San-Jose/10270-Ashdale-Dr-95127/home/1583665,,,N,Y,37.3648546,-121.8140237
PAST SALE,,Single Family Residential,1473 Padres Dr,San Jose,CA,95125,511500,2,1.0,,1343,6000,1957,,381,,,,,http://www.redfin.com/CA/San-Jose/1473-Padres-Dr-95125/home/1536559,,,N,Y,37.3069728,-121.8888518
PAST SALE,January-26-2018,Single Family Residential,409 N 12th St,SAN JOSE,CA,95112,850000,2,1.0,SAN JOSE,1152,5830,1947,4,738,,Sold,,,http://www.redfin.com/CA/San-Jose/409-N-12th-St-95112/home/696986,MLSListings,ML81688337,N,Y,37.3486383,-121.8845109
PAST SALE,January-23-2018,Condo/Co-op,25 S 3rd St #107,SAN JOSE,CA,95113,560000,1,1.0,SAN JOSE,800,4455,2007,7,700,493,Sold,,,http://www.redfin.com/CA/San-Jose/25-S-3rd-St-95113/unit-107/home/17290112,MLSListings,ML81687020,N,Y,37.3365052,-121.8883763
PAST SALE,January-9-2018,Single Family Residential,401 Oakland Ave,SAN JOSE,CA,95116,700000,3,1.0,SAN JOSE,918,9900,1949,21,763,,Sold,,,http://www.redfin.com/CA/San-Jose/401-Oakland-Ave-95116/home/637214,MLSListings,ML81682388,N,Y,37.3499115,-121.8467469
PAST SALE,January-23-2018,Single Family Residential,1385 Milton Way,SAN JOSE,CA,95125,800000,1,1.0,SAN JOSE,617,3215,1940,7,1297,,Sold,,,http://www.redfin.com/CA/San-Jose/Milton-Way-95125/home/842481,MLSListings,ML81686965,N,Y,37.3081714,-121.8908101
PAST SALE,January-5-2018,Single Family Residential,1351 Cliffwood Dr,SAN JOSE,CA,95122,655000,3,1.0,SAN JOSE,1237,5081,1959,25,530,,Sold,,,http://www.redfin.com/CA/San-Jose/1351-Cliffwood-Dr-95122/home/891472,MLSListings,ML81686135,N,Y,37.3374775,-121.8376285
PAST SALE,January-2-2018,Condo/Co-op,38 N Almaden Blvd #309,SAN JOSE,CA,95110,715000,1,1.0,SAN JOSE,925,21192,2008,28,773,504,Sold,,,http://www.redfin.com/CA/San-Jose/38-N-Almaden-Blvd-95110/unit-309/home/17289272,MLSListings,ML81686691,N,Y,37.3348273,-121.8957794
PAST SALE,,Single Family Residential,129 Lyndale Ave,San Jose,CA,95127,370000,2,1.0,,1030,6250,1947,,359,,,,,http://www.redfin.com/CA/San-Jose/129-Lyndale-Ave-95127/home/887605,,,N,Y,37.3629456,-121.8288382
PAST SALE,January-24-2018,Single Family Residential,267 Laumer Ave,SAN JOSE,CA,95127,695000,3,1.0,SAN JOSE,1056,6614,1953,6,658,,Sold,,,http://www.redfin.com/CA/San-Jose/267-Laumer-Ave-95127/home/1497547,MLSListings,ML81688700,N,Y,37.3673541,-121.8189784
PAST SALE,January-15-2018,Single Family Residential,157 Laumer Ave,SAN JOSE,CA,95127,470000,1,1.0,SAN JOSE,390,7000,1925,15,1205,,Sold,,,http://www.redfin.com/CA/San-Jose/157-Laumer-Ave-95127/home/1169667,MLSListings,ML81688030,N,Y,37.3689885,-121.820836
PAST SALE,January-16-2018,Townhouse,1379 Mcquesten Dr Unit A,SAN JOSE,CA,95122,440000,2,1.0,SAN JOSE,888,875,1980,14,495,331,Sold,,,http://www.redfin.com/CA/San-Jose/1379-McQuesten-Dr-95122/unit-A/home/1121222,MLSListings,ML81682333,N,Y,37.330371,-121.846746
PAST SALE,January-11-2018,Condo/Co-op,923 Lake Tahoe Ct,SAN JOSE,CA,95123,527000,1,1.0,SAN JOSE,674,733,1988,19,782,315,Sold,,,http://www.redfin.com/CA/San-Jose/923-Lake-Tahoe-Ct-95123/home/1714515,MLSListings,ML81686021,N,Y,37.243471,-121.867807
PAST SALE,January-2-2018,Single Family Residential,355 S 16th St,SAN JOSE,CA,95112,1075000,2,1.0,SAN JOSE,1470,5760,1920,28,731,,Sold,,,http://www.redfin.com/CA/San-Jose/355-S-16th-St-95112/home/748509,MLSListings,ML81687070,N,Y,37.337784,-121.8714098
PAST SALE,January-6-2018,Single Family Residential,375 Jerome St,SAN JOSE,CA,95125,705063,2,1.0,SAN JOSE,1280,5448,1912,24,551,,Sold,,,http://www.redfin.com/CA/San-Jose/375-Jerome-St-95125/home/1813903,MLSListings,ML81688224,N,Y,37.318806,-121.8918366
PAST SALE,January-22-2018,Condo/Co-op,6190 Gerdts Dr,SAN JOSE,CA,95135,375000,1,1.0,SAN JOSE,698,704,1974,8,537,547,Sold,,,http://www.redfin.com/CA/San-Jose/6190-Gerdts-Dr-95135/home/959330,MLSListings,ML81686112,N,Y,37.285602,-121.7538588
PAST SALE,January-5-2018,Single Family Residential,3425 Cecil Ave,SANTA CLARA,CA,95050,1358000,3,1.0,SANTA CLARA,1095,11508,1949,25,1240,,Sold,,,http://www.redfin.com/CA/Santa-Clara/3425-Cecil-Ave-95050/home/1580078,MLSListings,ML81686099,N,Y,37.3244749,-121.9589433
PAST SALE,,Single Family Residential,3273 Whitesand Ct,San Jose,CA,95148,570000,3,1.0,,892,4725,1984,,639,,,,,http://www.redfin.com/CA/San-Jose/3273-Whitesand-Ct-95148/home/1795191,,,N,Y,37.316718,-121.7809241
PAST SALE,,Single Family Residential,1563 June Ave,San Jose,CA,95122,204545,3,1.0,,960,5400,1959,,213,,,,,http://www.redfin.com/CA/San-Jose/1563-June-Ave-95122/home/1296741,,,N,Y,37.3327272,-121.8400428
PAST SALE,January-12-2018,Condo/Co-op,175 W Saint James St #305,SAN JOSE,CA,95110,630000,1,1.0,SAN JOSE,904,,2007,18,697,402,Sold,,,http://www.redfin.com/CA/San-Jose/175-W-Saint-James-St-95110/unit-305/home/17290388,MLSListings,ML81686789,N,Y,37.337936,-121.8955308
PAST SALE,January-19-2018,Single Family Residential,830 Delmas Ave,SAN JOSE,CA,95125,615000,2,1.0,SAN JOSE,1176,6624,1908,11,523,,Sold,,,http://www.redfin.com/CA/San-Jose/830-Delmas-Ave-95125/home/1724239,MLSListings,ML81683581,N,Y,37.319167,-121.8927268
PAST SALE,January-9-2018,Condo/Co-op,3226 Kimber Ct #106,SAN JOSE,CA,95124,620000,2,1.0,SAN JOSE,886,844,1977,21,700,331,Sold,,,http://www.redfin.com/CA/San-Jose/3226-Kimber-Ct-95124/unit-106/home/626496,MLSListings,ML81687201,N,Y,37.265206,-121.920512
PAST SALE,January-16-2018,Single Family Residential,14893 Sandy Ln,SAN JOSE,CA,95124,1275000,3,1.0,SAN JOSE,1047,9091,1950,14,1218,,Sold,,,http://www.redfin.com/CA/San-Jose/14893-Sandy-Ln-95124/home/848649,MLSListings,ML81687452,N,Y,37.2523012,-121.9271233
PAST SALE,January-18-2018,Single Family Residential,945 S 10th St,SAN JOSE,CA,95112,805000,2,1.0,SAN JOSE,908,4261,1901,12,887,,Sold,,,http://www.redfin.com/CA/San-Jose/945-S-10th-St-95112/home/875428,MLSListings,ML81689483,N,Y,37.3263408,-121.8706557
PAST SALE,January-22-2018,Single Family Residential,10291 Serrano Ave,SAN JOSE,CA,95127,710000,3,1.0,SAN JOSE,1192,9490,1951,8,596,,Sold,,,http://www.redfin.com/CA/San-Jose/10291-Serrano-Ave-95127/home/946743,MLSListings,ML81686744,N,Y,37.3615358,-121.8196312
PAST SALE,January-15-2018,Condo/Co-op,3242 Kimber Ct #46,SAN JOSE,CA,95124,615000,2,1.0,SAN JOSE,886,972,1977,15,694,331,Sold,,,http://www.redfin.com/CA/San-Jose/3242-Kimber-Ct-95124/unit-46/home/1419200,MLSListings,ML81686521,N,Y,37.264988,-121.921774
PAST SALE,January-8-2018,Single Family Residential,10251 Claudia Dr,SAN JOSE,CA,95127,603000,3,1.0,SAN JOSE,997,8271,1951,22,605,,Sold,,,http://www.redfin.com/CA/San-Jose/10251-Claudia-Dr-95127/home/1557242,MLSListings,ML81686408,N,Y,37.3618974,-121.8179168
PAST SALE,,Single Family Residential,1173 Edith St,San Jose,CA,95122,640000,5,1.0,,2103,7020,1962,,304,,,,,http://www.redfin.com/CA/San-Jose/1173-Edith-St-95122/home/1100059,,,N,Y,37.3438196,-121.8346588
PAST SALE,January-26-2018,Single Family Residential,2111 PEACHTREE Ln,SAN JOSE,CA,95128,985000,2,1.0,SAN JOSE,875,5500,1949,4,1126,,Sold,,,http://www.redfin.com/CA/San-Jose/2111-Peachtree-Ln-95128/home/1063048,MLSListings,ML81687874,N,Y,37.3350778,-121.9384668
PAST SALE,January-12-2018,Single Family Residential,195 El Campo Dr,SAN JOSE,CA,95127,870000,3,1.5,SAN JOSE,2026,9590,1955,18,429,,Sold,,,http://www.redfin.com/CA/San-Jose/195-El-Campo-Dr-95127/home/875859,MLSListings,ML81684916,N,Y,37.3757964,-121.8264389
PAST SALE,,Townhouse,2074 Wente Way,San Jose,CA,95125,529000,1,1.0,,1080,2110,1985,,490,,,,,http://www.redfin.com/CA/San-Jose/2074-Wente-Way-95125/home/1263927,,,N,Y,37.296723,-121.927913
PAST SALE,,Single Family Residential,674 N 4th St,San Jose,CA,95112,600000,2,1.0,,912,6348,1901,,658,,,,,http://www.redfin.com/CA/San-Jose/674-N-4th-St-95112/home/1753031,,,N,Y,37.3501426,-121.8963868
PAST SALE,January-26-2018,Single Family Residential,1357 Boysea Dr,SAN JOSE,CA,95118,1070000,3,1.5,SAN JOSE,1180,6225,1962,4,907,,Sold,,,http://www.redfin.com/CA/San-Jose/1357-Boysea-Dr-95118/home/1676541,MLSListings,ML81687700,N,Y,37.2612523,-121.8870696
PAST SALE,January-18-2018,Condo/Co-op,3398 Landess Ave Unit B,SAN JOSE,CA,95132,560000,2,1.5,SAN JOSE,976,984,1970,12,574,200,Sold,,,http://www.redfin.com/CA/San-Jose/3398-Landess-Ave-95132/unit-B/home/1526338,MLSListings,ML81686113,N,Y,37.4216454,-121.8612364
PAST SALE,January-9-2018,Single Family Residential,1474 Mount Palomar Dr,SAN JOSE,CA,95127,679000,3,1.5,SAN JOSE,1234,5000,1958,21,550,,Sold,,,http://www.redfin.com/CA/San-Jose/1474-Mount-Palomar-Dr-95127/home/1455500,MLSListings,ML81685728,N,Y,37.3507382,-121.8116331
PAST SALE,December-31-2017,Condo/Co-op,3352 Landess Ave Unit C,SAN JOSE,CA,95132,605000,2,1.5,SAN JOSE,976,816,1970,30,620,200,Sold,,,http://www.redfin.com/CA/San-Jose/3352-Landess-Ave-95132/unit-C/home/1721452,MLSListings,ML81687007,N,Y,37.4205395,-121.8638205
PAST SALE,January-9-2018,Single Family Residential,547 Rutland Ave,SAN JOSE,CA,95128,1172000,2,1.5,SAN JOSE,1466,5912,1938,21,799,,Sold,,,http://www.redfin.com/CA/San-Jose/547-Rutland-Ave-95128/home/1117114,MLSListings,ML81685578,N,Y,37.3183172,-121.9261771
PAST SALE,January-12-2018,Single Family Residential,2034 Camperdown Way,SAN JOSE,CA,95121,845000,3,1.5,SAN JOSE,1152,7049,1973,18,734,,Sold,,,http://www.redfin.com/CA/San-Jose/2034-Camperdown-Way-95121/home/972108,MLSListings,ML81685653,N,Y,37.3055595,-121.799504
PAST SALE,January-25-2018,Townhouse,2691 Camino Ecco,SAN JOSE,CA,95121,545000,3,1.5,SAN JOSE,1176,880,1971,5,463,350,Sold,,,http://www.redfin.com/CA/San-Jose/2691-Camino-Ecco-95121/home/962773,MLSListings,ML81685391,N,Y,37.3140716,-121.8241486
PAST SALE,January-5-2018,Condo/Co-op,333 Santana Row #216,SAN JOSE,CA,95128,1031000,2,1.5,SAN JOSE,1250,21244,2002,25,825,475,Sold,,,http://www.redfin.com/CA/San-Jose/333-Santana-Row-95128/unit-216/home/17292975,MLSListings,ML81685845,N,Y,37.321964,-121.9482504
PAST SALE,January-17-2018,Single Family Residential,5751 Blossom Ave,SAN JOSE,CA,95123,780000,3,1.5,SAN JOSE,1037,6369,1962,13,752,,Sold,,,http://www.redfin.com/CA/San-Jose/5751-Blossom-Ave-95123/home/984795,MLSListings,ML81686231,N,Y,37.2463436,-121.840071
PAST SALE,January-5-2018,Single Family Residential,2463 Newhall St,SAN JOSE,CA,95128,1001880,2,1.5,SAN JOSE,1109,6160,1963,25,903,,Sold,,,http://www.redfin.com/CA/San-Jose/2463-Newhall-St-95128/home/1775852,MLSListings,ML81683469,N,Y,37.3376522,-121.9491368
PAST SALE,January-23-2018,Single Family Residential,572 N Monroe St,SAN JOSE,CA,95128,1197900,3,1.5,SAN JOSE,1134,5294,1951,7,1056,,Sold,,,http://www.redfin.com/CA/San-Jose/572-N-Monroe-St-95128/home/1642655,MLSListings,ML81687474,N,Y,37.3277493,-121.9430483
PAST SALE,January-8-2018,Single Family Residential,641 N Clover Ave,SAN JOSE,CA,95128,1110000,3,1.5,SAN JOSE,1226,5385,1950,22,905,,Sold,,,http://www.redfin.com/CA/San-Jose/641-N-Clover-Ave-95128/home/885017,MLSListings,ML81686289,N,Y,37.3283253,-121.9445795
PAST SALE,January-2-2018,Single Family Residential,889 Corlista Dr,SAN JOSE,CA,95128,1050000,3,1.5,SAN JOSE,1044,5649,1955,28,1006,,Sold,,,http://www.redfin.com/CA/San-Jose/889-Corlista-Dr-95128/home/1381826,MLSListings,ML81685864,N,Y,37.3110377,-121.9188102
PAST SALE,January-9-2018,Townhouse,2128 Canoas Garden Ave Unit B,SAN JOSE,CA,95125,740000,2,1.5,SAN JOSE,1076,578,1980,21,688,300,Sold,,,http://www.redfin.com/CA/San-Jose/2128-Canoas-Garden-Ave-95125/unit-B/home/860014,MLSListings,ML81687064,N,Y,37.2965159,-121.87793
PAST SALE,January-24-2018,Single Family Residential,778 N 5th St,SAN JOSE,CA,95112,975000,2,1.5,SAN JOSE,1302,6898,1940,6,749,,Sold,,,http://www.redfin.com/CA/San-Jose/778-N-5th-St-95112/home/1304871,MLSListings,ML81690020,N,Y,37.3528619,-121.8968669
PAST SALE,January-23-2018,Condo/Co-op,3550 Alden Way #4,SAN JOSE,CA,95117,660000,2,1.5,SAN JOSE,941,546,1963,7,701,480,Sold,,,http://www.redfin.com/CA/San-Jose/3550-Alden-Way-95117/unit-4/home/1486588,MLSListings,ML81687265,N,Y,37.3217335,-121.96162
PAST SALE,January-10-2018,Single Family Residential,3830 Brigadoon Way,SAN JOSE,CA,95121,775900,3,1.5,SAN JOSE,1442,13329,1973,20,538,,Sold,,,http://www.redfin.com/CA/San-Jose/3830-Brigadoon-Way-95121/home/972859,MLSListings,ML81686203,N,Y,37.3036564,-121.801373
PAST SALE,January-19-2018,Condo/Co-op,333 Santana Row #343,SAN JOSE,CA,95128,995000,1,1.5,SAN JOSE,1099,435,2002,11,905,449,Sold,,,http://www.redfin.com/CA/San-Jose/333-Santana-Row-95128/unit-343/home/17293161,MLSListings,ML81676049,N,Y,37.321964,-121.9482504
PAST SALE,,Single Family Residential,699 S Genevieve Ln,San Jose,CA,95128,1625000,2,1.0,,1569,7840,1955,,1036,,,,,http://www.redfin.com/CA/San-Jose/699-S-Genevieve-Ln-95128/home/1529760,,,N,Y,37.3144204,-121.9428066
PAST SALE,January-4-2018,Condo/Co-op,1945 Huxley Ct,SAN JOSE,CA,95125,800000,2,1.5,SAN JOSE,1004,600,1982,26,797,405,Sold,,,http://www.redfin.com/CA/San-Jose/1945-Huxley-Ct-95125/home/1215021,MLSListings,ML81683358,N,Y,37.296809,-121.925073
PAST SALE,January-9-2018,Single Family Residential,6081 Cotton Ct,SAN JOSE,CA,95123,980000,4,2.0,SAN JOSE,1410,6093,1968,21,695,,Sold,,,http://www.redfin.com/CA/San-Jose/6081-Cotton-Ct-95123/home/988921,MLSListings,ML81686542,N,Y,37.2375391,-121.8118926
PAST SALE,January-26-2018,Single Family Residential,3225 Tristian Ave,SAN JOSE,CA,95127,660000,3,2.0,SAN JOSE,1115,4978,1961,4,592,,Sold,,,http://www.redfin.com/CA/San-Jose/3225-Tristian-Ave-95127/home/1442949,MLSListings,ML81688065,N,Y,37.3823877,-121.8367874
PAST SALE,January-12-2018,Single Family Residential,3462 Trafalgar Pl,SAN JOSE,CA,95132,1330000,4,2.0,SAN JOSE,1598,8750,1975,18,832,,Sold,,,http://www.redfin.com/CA/San-Jose/3462-Trafalgar-Pl-95132/home/843150,MLSListings,ML81687162,N,Y,37.4118628,-121.8516496
PAST SALE,January-4-2018,Condo/Co-op,1799 Parkview Green Cir,SAN JOSE,CA,95131,870000,2,2.0,SAN JOSE,1228,1738,1988,26,708,383,Sold,,,http://www.redfin.com/CA/San-Jose/1799-Parkview-Green-Cir-95131/home/1764274,MLSListings,ML81686085,N,Y,37.3795659,-121.882042
PAST SALE,January-17-2018,Mobile/Manufactured Home,2151 Oakland Rd #520,SAN JOSE,CA,95131,168000,3,2.0,SAN JOSE,1250,,1996,13,134,,Sold,,,http://www.redfin.com/CA/San-Jose/2151-Oakland-Rd-95131/unit-520/home/1197576,MLSListings,ML81674899,N,Y,37.3962325,-121.9053487
PAST SALE,January-18-2018,Mobile/Manufactured Home,2151 Oakland Rd #73,SAN JOSE,CA,95131,132000,3,2.0,SAN JOSE,1464,,1973,12,90,,Sold,,,http://www.redfin.com/CA/San-Jose/2151-Oakland-Rd-95131/unit-73/home/17495634,MLSListings,ML81678534,N,Y,37.3962325,-121.9053487
PAST SALE,January-22-2018,Single Family Residential,1676 Ridgetree Way,SAN JOSE,CA,95131,972000,3,2.0,SAN JOSE,1041,7192,1978,8,934,,Sold,,,http://www.redfin.com/CA/San-Jose/1676-Ridgetree-Way-95131/home/1175591,MLSListings,ML81687034,N,Y,37.3970193,-121.8759369
PAST SALE,January-17-2018,Single Family Residential,1286 Turrett Dr,SAN JOSE,CA,95131,990000,3,2.0,SAN JOSE,986,5904,1970,13,1004,,Sold,,,http://www.redfin.com/CA/San-Jose/1286-Turrett-Dr-95131/home/1279171,MLSListings,ML81686921,N,Y,37.3847117,-121.8695457
PAST SALE,January-12-2018,Condo/Co-op,1331 Park Entrance Dr,SAN JOSE,CA,95131,765000,2,2.0,SAN JOSE,988,1148,1987,18,774,345,Sold,,,http://www.redfin.com/CA/San-Jose/1331-Park-Entrance-Dr-95131/home/685824,MLSListings,ML81686625,N,Y,37.381434,-121.884784
PAST SALE,January-11-2018,Condo/Co-op,432 Shadowgraph Dr,SAN JOSE,CA,95110,675000,2,2.0,SAN JOSE,871,927,1987,19,775,292,Sold,,,http://www.redfin.com/CA/San-Jose/432-Shadowgraph-Dr-95110/home/1580904,MLSListings,ML81687042,N,Y,37.310521,-121.881528
PAST SALE,January-8-2018,Single Family Residential,3195 Dovela Way,SAN JOSE,CA,95118,950000,5,2.0,SAN JOSE,1460,5035,1953,22,651,,Sold,,,http://www.redfin.com/CA/San-Jose/3195-Dovela-Way-95118/home/854089,MLSListings,ML81683279,N,Y,37.2688498,-121.9034614
PAST SALE,January-11-2018,Condo/Co-op,1375 Lick Ave #821,SAN JOSE,CA,95110,710000,2,2.0,SAN JOSE,1148,1148,2009,19,618,448,Sold,,,http://www.redfin.com/CA/San-Jose/1375-Lick-Ave-95110/unit-821/home/17288368,MLSListings,ML81686571,N,Y,37.311469,-121.8823991
PAST SALE,January-10-2018,Single Family Residential,5691 Park Manor Dr,SAN JOSE,CA,95118,1200000,3,2.0,SAN JOSE,1686,6974,1963,20,712,,Sold,,,http://www.redfin.com/CA/San-Jose/5691-Park-Manor-Dr-95118/home/918302,MLSListings,ML81686323,N,Y,37.2347367,-121.8994509
PAST SALE,,Condo/Co-op,5941 Lake Hennessy Ct,San Jose,CA,95123,692000,2,2.0,,982,,1995,,705,,,,,http://www.redfin.com/CA/San-Jose/5941-Lake-Hennessy-Ct-95123/home/1749979,,,N,Y,37.243281,-121.864818
PAST SALE,January-9-2018,Single Family Residential,1894 Terilyn Ave,SAN JOSE,CA,95122,602500,3,2.0,SAN JOSE,1040,5000,1959,21,579,,Sold,,,http://www.redfin.com/CA/San-Jose/1894-Terilyn-Ave-95122/home/894539,MLSListings,ML81686682,N,Y,37.3271361,-121.837324
PAST SALE,January-10-2018,Single Family Residential,68 Dearwell Way,SAN JOSE,CA,95138,930000,4,2.0,SAN JOSE,1474,6165,1981,20,631,,Sold,,,http://www.redfin.com/CA/San-Jose/68-Dearwell-Way-95138/home/1371370,MLSListings,ML81686689,N,Y,37.2485139,-121.7849617
PAST SALE,,Single Family Residential,2387 Ralston Ct,San Jose,CA,95148,750000,4,2.0,,1476,6480,1979,,508,,,,,http://www.redfin.com/CA/San-Jose/2387-Ralston-Ct-95148/home/1170142,,,N,Y,37.3145824,-121.7983686
PAST SALE,,Condo/Co-op,2177 Alum Rock Ave Apt 222,San Jose,CA,95116,1054000,2,2.0,,996,,2005,,1058,,,,,http://www.redfin.com/CA/San-Jose/2177-Alum-Rock-Ave-95116/unit-222/home/2125632,,,N,Y,37.3573639,-121.8463603
PAST SALE,,Single Family Residential,911 Burman Dr,San Jose,CA,95111,200000,4,2.0,,1590,6080,1969,,126,,,,,http://www.redfin.com/CA/San-Jose/911-Burman-Dr-95111/home/1766996,,,N,Y,37.28505,-121.8163515
PAST SALE,,Single Family Residential,887 Sinbad Ave,San Jose,CA,95116,275000,4,2.0,,1242,6222,1959,,221,,,,,http://www.redfin.com/CA/San-Jose/887-Sinbad-Ave-95116/home/841771,,,N,Y,37.3521666,-121.8294385
PAST SALE,,Single Family Residential,3281 Curling Ct,San Jose,CA,95121,148000,4,2.0,,1450,4800,1970,,102,,,,,http://www.redfin.com/CA/San-Jose/3281-Curling-Ct-95121/home/1389034,,,N,Y,37.3065639,-121.808846
PAST SALE,January-12-2018,Condo/Co-op,89 Little Bear Way,SAN JOSE,CA,95136,640000,2,2.0,SAN JOSE,992,7005,1986,18,645,325,Sold,,,http://www.redfin.com/CA/San-Jose/89-Little-Bear-Way-95136/home/983939,MLSListings,ML81687096,N,Y,37.263761,-121.823244
PAST SALE,,Condo/Co-op,2575 Easton Way Apt 85,San Jose,CA,95133,225000,2,2.0,,975,,1981,,231,,,,,http://www.redfin.com/CA/San-Jose/2575-Easton-Way-95133/unit-85/home/701362,,,N,Y,37.374796,-121.849702
PAST SALE,January-4-2018,Single Family Residential,5822 Silver Leaf Rd,SAN JOSE,CA,95138,900500,4,2.0,SAN JOSE,1355,5000,1981,26,665,,Sold,,,http://www.redfin.com/CA/San-Jose/5822-Silver-Leaf-Rd-95138/home/1146843,MLSListings,ML81686043,N,Y,37.2468221,-121.7811033
PAST SALE,,Condo/Co-op,405 Camille Cir Unit 13,San Jose,CA,95134,1050000,3,2.0,,1710,,1991,,614,,,,,http://www.redfin.com/CA/San-Jose/405-Camille-Cir-95134/unit-13/home/1185165,,,N,Y,37.40305,-121.923556
PAST SALE,January-11-2018,Single Family Residential,1334 Havenwood Dr,SAN JOSE,CA,95132,975000,3,2.0,SAN JOSE,1067,6344,1973,19,914,,Sold,,,http://www.redfin.com/CA/San-Jose/1334-Havenwood-Dr-95132/home/775693,MLSListings,ML81686628,N,Y,37.3929947,-121.8651685
PAST SALE,January-17-2018,Single Family Residential,3165 EDENBANK Dr,SAN JOSE,CA,95148,975000,4,2.0,SAN JOSE,1514,6000,1971,13,644,,Sold,,,http://www.redfin.com/CA/San-Jose/3165-Edenbank-Dr-95148/home/1388625,MLSListings,ML81686151,N,Y,37.3188842,-121.7903098
PAST SALE,January-17-2018,Condo/Co-op,809 Auzerais Ave #331,SAN JOSE,CA,95126,742000,2,2.0,SAN JOSE,1229,620,2008,13,604,374,Sold,,,http://www.redfin.com/CA/San-Jose/809-Auzerais-Ave-95126/unit-331/home/17290228,MLSListings,ML81684968,N,Y,37.3218812,-121.9050555
PAST SALE,,Single Family Residential,1112 Greenbriar Ave,San Jose,CA,95128,1250000,4,2.0,,1714,6264,1961,,729,,,,,http://www.redfin.com/CA/San-Jose/1112-Greenbriar-Ave-95128/home/1424781,,,N,Y,37.306352,-121.9461557
PAST SALE,January-5-2018,Mobile/Manufactured Home,165 Blossom Hill Rd #398,SAN JOSE,CA,95123,163000,2,2.0,SAN JOSE,1440,,1971,25,113,,Sold,,,http://www.redfin.com/CA/San-Jose/165-Blossom-Hill-Rd-95123/unit-398/home/1536684,MLSListings,ML81637371,N,Y,37.2544204,-121.808343
PAST SALE,January-19-2018,Single Family Residential,355 Allegan Cir,SAN JOSE,CA,95123,965000,4,2.0,SAN JOSE,1410,6082,1969,11,684,,Sold,,,http://www.redfin.com/CA/San-Jose/355-Allegan-Cir-95123/home/1290798,MLSListings,ML81687069,N,Y,37.2348182,-121.8163867
PAST SALE,January-18-2018,Single Family Residential,241 Bieber,SAN JOSE,CA,95123,830000,4,2.0,SAN JOSE,1400,5000,1963,12,593,,Sold,,,http://www.redfin.com/CA/San-Jose/241-Bieber-Dr-95123/home/1772336,MLSListings,ML81687716,N,Y,37.2486915,-121.813955
PAST SALE,January-17-2018,Single Family Residential,4451 Tomrick Ave,SAN JOSE,CA,95124,1488000,4,2.0,SAN JOSE,1457,7190,1965,13,1021,,Sold,,,http://www.redfin.com/CA/San-Jose/4451-Tomrick-Ave-95124/home/1366499,MLSListings,ML81686970,N,Y,37.2555547,-121.9388916
PAST SALE,January-2-2018,Single Family Residential,5140 Noella Way,SAN JOSE,CA,95124,1670000,3,2.0,SAN JOSE,1800,6303,1958,28,928,,Sold,,,http://www.redfin.com/CA/San-Jose/5140-Noella-Way-95124/home/984738,MLSListings,ML81685681,N,Y,37.2447234,-121.9189198
PAST SALE,January-3-2018,Condo/Co-op,1138 La Terrace Cir,SAN JOSE,CA,95123,615000,2,2.0,SAN JOSE,1138,435,1985,27,540,433,Sold,,,http://www.redfin.com/CA/San-Jose/1138-La-Terrace-Cir-95123/home/1571612,MLSListings,ML81684802,N,Y,37.240308,-121.868496
PAST SALE,,Single Family Residential,2829 New Jersey Ave,San Jose,CA,95124,850000,3,2.0,,1116,6480,1955,,762,,,,,http://www.redfin.com/CA/San-Jose/2829-New-Jersey-Ave-95124/home/1715743,,,N,Y,37.2704122,-121.9257669
PAST SALE,,Single Family Residential,5228 Union Ave,San Jose,CA,95124,1367000,4,2.0,,1742,3484,2000,,785,,,,,http://www.redfin.com/CA/San-Jose/5228-Union-Ave-95124/home/1721275,,,N,Y,37.2427628,-121.9309184
PAST SALE,January-16-2018,Single Family Residential,1823 Ronie Way,SAN JOSE,CA,95124,1300000,3,2.0,SAN JOSE,1248,5800,1960,14,1042,,Sold,,,http://www.redfin.com/CA/San-Jose/1823-Ronie-Way-95124/home/1299385,MLSListings,ML81686405,N,Y,37.2571721,-121.9179783
PAST SALE,January-12-2018,Single Family Residential,1268 Weathersfield Way,SAN JOSE,CA,95118,1219615,3,2.0,SAN JOSE,1505,6223,1965,18,810,,Sold,,,http://www.redfin.com/CA/San-Jose/1268-Weathersfield-Way-95118/home/1677386,MLSListings,ML81686515,N,Y,37.2420121,-121.8831938
PAST SALE,January-5-2018,Single Family Residential,15436 Woodard Rd,SAN JOSE,CA,95124,1510000,3,2.0,SAN JOSE,1337,10597,1948,25,1129,,Sold,,,http://www.redfin.com/CA/San-Jose/15436-Woodard-Rd-95124/home/1346095,MLSListings,ML81686391,N,Y,37.2600296,-121.9392409
PAST SALE,January-17-2018,Single Family Residential,488 Paiute Ln,SAN JOSE,CA,95123,978000,3,2.0,SAN JOSE,1460,6121,1965,13,670,,Sold,,,http://www.redfin.com/CA/San-Jose/488-Paiute-Ln-95123/home/1787807,MLSListings,ML81686186,N,Y,37.2445771,-121.8322952
PAST SALE,January-10-2018,Single Family Residential,1123 Garber Pl,SAN JOSE,CA,95127,700000,4,2.0,SAN JOSE,1000,6240,1977,20,700,,Sold,,,http://www.redfin.com/CA/San-Jose/1123-Garber-Pl-95127/home/949372,MLSListings,ML81683887,N,Y,37.3577204,-121.8157328
PAST SALE,January-22-2018,Single Family Residential,1547 Hurlingham Way,SAN JOSE,CA,95127,775000,3,2.0,SAN JOSE,1188,7685,1955,8,652,,Sold,,,http://www.redfin.com/CA/San-Jose/1547-Hurlingham-Way-95127/home/893212,MLSListings,ML81687065,N,Y,37.3484094,-121.8152109
PAST SALE,January-12-2018,Single Family Residential,11001 Chula Vista Dr,SAN JOSE,CA,95127,925000,3,2.0,SAN JOSE,1754,19170,1951,18,527,,Sold,,,http://www.redfin.com/CA/San-Jose/11001-Chula-Vista-Dr-95127/home/943087,MLSListings,ML81675633,N,Y,37.3908372,-121.8177525
PAST SALE,,Single Family Residential,3276 Percivale Dr,San Jose,CA,95127,301500,3,2.0,,1128,5940,1959,,267,,,,,http://www.redfin.com/CA/San-Jose/3276-Percivale-Dr-95127/home/1864410,,,N,Y,37.3836675,-121.8364185
PAST SALE,January-16-2018,Condo/Co-op,87 Bassett St,SAN JOSE,CA,95110,750000,2,2.0,SAN JOSE,1284,5473,2006,14,584,237,Sold,,,http://www.redfin.com/CA/San-Jose/87-Bassett-St-95110/home/17291085,MLSListings,ML81686602,N,Y,37.341189,-121.89608
PAST SALE,January-22-2018,Single Family Residential,1688 S Blaney Ave,SAN JOSE,CA,95129,1650000,3,2.0,SAN JOSE,1357,6648,1959,8,1216,,Sold,,,http://www.redfin.com/CA/San-Jose/1688-S-Blaney-Ave-95129/home/1500429,MLSListings,ML81686374,N,Y,37.2943508,-122.0234211
PAST SALE,January-24-2018,Single Family Residential,1679 Ardenwood Dr,SAN JOSE,CA,95129,1850000,3,2.0,SAN JOSE,1292,7298,1960,6,1432,,Sold,,,http://www.redfin.com/CA/San-Jose/1679-Ardenwood-Dr-95129/home/792457,MLSListings,ML81686193,N,Y,37.2942891,-122.0228532
PAST SALE,,Single Family Residential,7089 Coronado Dr,San Jose,CA,95129,1425000,3,2.0,,1422,5928,1960,,1002,,,,,http://www.redfin.com/CA/San-Jose/7089-Coronado-Dr-95129/home/1443909,,,N,Y,37.3024872,-122.0279586
PAST SALE,January-2-2018,Single Family Residential,1176 Creston Ln,SAN JOSE,CA,95122,745000,4,2.0,SAN JOSE,1151,6106,1978,28,647,,Sold,,,http://www.redfin.com/CA/San-Jose/1176-Creston-Ln-95122/home/695135,MLSListings,ML81685858,N,Y,37.3301061,-121.849283
PAST SALE,,Condo/Co-op,247 N Capitol Ave Unit 140,San Jose,CA,95127,475000,2,2.0,,955,,1977,,497,,,,,http://www.redfin.com/CA/San-Jose/247-N-Capitol-Ave-95127/unit-140/home/886852,,,N,Y,37.3682271,-121.8417657
PAST SALE,,Single Family Residential,1891 Oakton Ct,San Jose,CA,95148,204000,3,2.0,,1287,5995,1979,,159,,,,,http://www.redfin.com/CA/San-Jose/1891-Oakton-Ct-95148/home/1743372,,,N,Y,37.3425827,-121.8160208
PAST SALE,January-5-2018,Single Family Residential,1143 Fair Ave,SAN JOSE,CA,95122,760000,3,2.0,SAN JOSE,1128,5979,1960,25,674,,Sold,,,http://www.redfin.com/CA/San-Jose/1143-Fair-Ave-95122/home/1328633,MLSListings,ML81686622,N,Y,37.3259335,-121.8473711
PAST SALE,January-2-2018,Mobile/Manufactured Home,2151 Oakland Rd #18,SAN JOSE,CA,95131,200000,4,2.0,SAN JOSE,1568,,1988,28,128,,Sold,,,http://www.redfin.com/CA/San-Jose/2151-Oakland-Rd-95131/unit-18/home/685237,MLSListings,ML81675285,N,Y,37.3962325,-121.9053487
PAST SALE,,Condo/Co-op,430 N 1st St Unit 306,San Jose,CA,95112,725000,2,2.0,,1050,,1994,,690,,,,,http://www.redfin.com/CA/San-Jose/430-N-1st-St-95112/unit-306/home/815284,,,N,Y,37.3430058,-121.8952135
PAST SALE,January-5-2018,Mobile/Manufactured Home,1520 Capitol Expy #153,SAN JOSE,CA,95121,170000,2,2.0,SAN JOSE,1200,,1971,25,142,,Sold,,,http://www.redfin.com/CA/San-Jose/1520-Capitol-Expy-95121/unit-153/home/40366520,MLSListings,ML81673522,N,Y,37.3027292,-121.8132734
PAST SALE,January-23-2018,Single Family Residential,514 Ella Dr,SAN JOSE,CA,95111,785000,4,2.0,SAN JOSE,1260,5423,1961,7,623,,Sold,,,http://www.redfin.com/CA/San-Jose/514-Ella-Dr-95111/home/1375571,MLSListings,ML81688294,N,Y,37.269864,-121.8063427
PAST SALE,January-26-2018,Single Family Residential,1186 Bayard Dr,SAN JOSE,CA,95122,835000,3,2.0,SAN JOSE,1155,4999,1978,4,723,,Sold,,,http://www.redfin.com/CA/San-Jose/1186-Bayard-Dr-95122/home/571792,MLSListings,ML81687417,N,Y,37.3191031,-121.8388775
PAST SALE,January-18-2018,Single Family Residential,1976 Tobago Ave,SAN JOSE,CA,95122,695000,4,2.0,SAN JOSE,1185,3002,1972,12,586,,Sold,,,http://www.redfin.com/CA/San-Jose/1976-Tobago-Ave-95122/home/1335342,MLSListings,ML81686006,N,Y,37.3230574,-121.8408154
PAST SALE,January-19-2018,Single Family Residential,1579 Havana Dr,SAN JOSE,CA,95122,640000,3,2.0,SAN JOSE,1040,5050,1959,11,615,,Sold,,,http://www.redfin.com/CA/San-Jose/1579-Havana-Dr-95122/home/889497,MLSListings,ML81685714,N,Y,37.3290664,-121.8380302
PAST SALE,January-15-2018,Single Family Residential,2762 Sand Point Ct,SAN JOSE,CA,95148,525000,4,2.0,SAN JOSE,1451,6391,1970,15,362,,Sold,,,http://www.redfin.com/CA/San-Jose/2762-Sand-Point-Ct-95148/home/669454,MLSListings,ML81689025,N,Y,37.3234245,-121.8038362
PAST SALE,January-19-2018,Single Family Residential,4683 Tango Way,SAN JOSE,CA,95111,720000,3,2.0,SAN JOSE,1137,5448,1958,11,633,,Sold,,,http://www.redfin.com/CA/San-Jose/4683-Tango-Way-95111/home/681970,MLSListings,ML81686860,N,Y,37.277423,-121.8139839
PAST SALE,January-26-2018,Single Family Residential,2664 Brahms Ave,SAN JOSE,CA,95122,780000,4,3.0,SAN JOSE,1337,5388,1961,4,583,,Sold,,,http://www.redfin.com/CA/San-Jose/2664-Brahms-Ave-95122/home/1188237,MLSListings,ML81687500,N,Y,37.3195104,-121.8171537
PAST SALE,January-25-2018,Mobile/Manufactured Home,"2600 Senter Road, Space #29 #29",SAN JOSE,CA,95111,260000,3,2.0,SAN JOSE,1200,,2000,5,217,,Sold,,,http://www.redfin.com/CA/San-Jose/2600-Senter-Rd-95111/unit-29/home/845734,MLSListings,ML81687534,N,Y,37.3052149,-121.841491
PAST SALE,January-19-2018,Single Family Residential,1530 Florida Ave,SAN JOSE,CA,95122,739000,3,2.0,SAN JOSE,1040,5271,1959,11,711,,Sold,,,http://www.redfin.com/CA/San-Jose/1530-Florida-Ave-95122/home/1506507,MLSListings,ML81686700,N,Y,37.3338789,-121.8393007
PAST SALE,January-17-2018,Single Family Residential,1873 La Porte Ave,San Jose,CA,95122,730000,3,2.0,San Jose,1040,6200,1959,13,702,,Sold,,,http://www.redfin.com/CA/San-Jose/1873-La-Porte-Ave-95122/home/1780200,EBRD/CCAR/Bay East,40805330,N,Y,37.3357973,-121.8324203
PAST SALE,January-5-2018,Single Family Residential,5204 Howes Ln,SAN JOSE,CA,95118,1180000,3,2.0,SAN JOSE,1441,8023,1961,25,819,,Sold,,,http://www.redfin.com/CA/San-Jose/5204-Howes-Ln-95118/home/923083,MLSListings,ML81688135,N,Y,37.246188,-121.9029293
PAST SALE,January-16-2018,Single Family Residential,5712 Condor Cir,SAN JOSE,CA,95118,1380000,3,2.0,SAN JOSE,1446,6143,1963,14,954,,Sold,,,http://www.redfin.com/CA/San-Jose/5712-Condor-Cir-95118/home/1247513,MLSListings,ML81686338,N,Y,37.2354733,-121.8987331
PAST SALE,January-10-2018,Single Family Residential,2277 Sunrise Dr,SAN JOSE,CA,95124,1320000,4,2.0,SAN JOSE,1370,6272,1960,20,964,,Sold,,,http://www.redfin.com/CA/San-Jose/2277-Sunrise-Dr-95124/home/1623887,MLSListings,ML81686670,N,Y,37.2584045,-121.9414938
PAST SALE,,Single Family Residential,3441 Fawn Dr,San Jose,CA,95124,262100,3,2.0,,1280,6840,1959,,205,,,,,http://www.redfin.com/CA/San-Jose/3441-Fawn-Dr-95124/home/1806194,,,N,Y,37.2632679,-121.9246358
PAST SALE,January-19-2018,Mobile/Manufactured Home,451 Los Encinos St #451,SAN JOSE,CA,95134,160000,2,2.0,SAN JOSE,1440,,1974,11,111,,Sold,,,http://www.redfin.com/CA/San-Jose/451-Los-Encinos-St-95134/unit-451/home/144325676,MLSListings,ML81684994,N,Y,37.4155375,-121.945799
PAST SALE,January-19-2018,Mobile/Manufactured Home,2151 Oakland Rd #225,SAN JOSE,CA,95131,149000,3,2.0,SAN JOSE,1500,,1974,11,99,,Sold,,,http://www.redfin.com/CA/San-Jose/2151-Oakland-Rd-95131/unit-225/home/1191875,MLSListings,ML81680784,N,Y,37.3962325,-121.9053487
PAST SALE,January-2-2018,Single Family Residential,1953 Doxey Dr,SAN JOSE,CA,95131,1060000,4,2.0,SAN JOSE,1234,6000,1975,28,859,,Sold,,,http://www.redfin.com/CA/San-Jose/1953-Doxey-Dr-95131/home/1072474,MLSListings,ML81683998,N,Y,37.3873215,-121.8776933
PAST SALE,January-11-2018,Single Family Residential,2334 Four Seasons Ct,SAN JOSE,CA,95131,1110000,4,2.0,SAN JOSE,1417,7250,1984,19,783,,Sold,,,http://www.redfin.com/CA/San-Jose/2334-Four-Seasons-Ct-95131/home/690405,MLSListings,ML81684177,N,Y,37.3946505,-121.8756392
PAST SALE,January-19-2018,Condo/Co-op,1055 N Capitol Ave #187,SAN JOSE,CA,95133,475000,2,2.0,SAN JOSE,832,1043,1981,11,571,419,Sold,,,http://www.redfin.com/CA/San-Jose/1055-N-Capitol-Ave-95133/unit-187/home/1116080,MLSListings,ML81689568,N,Y,37.3835867,-121.8592423
PAST SALE,January-19-2018,Townhouse,1302 N Capitol Ave #6,SAN JOSE,CA,95132,892000,2,2.0,SAN JOSE,1464,596,2014,11,609,199,Sold,,,http://www.redfin.com/CA/San-Jose/1302-N-Capitol-Ave-95132/unit-6/home/95955706,MLSListings,ML81686495,N,Y,37.3918523,-121.8655337
PAST SALE,January-17-2018,Condo/Co-op,4661 Albany Cir #127,SAN JOSE,CA,95129,800000,2,2.0,SAN JOSE,1070,1075,1982,13,748,533,Sold,,,http://www.redfin.com/CA/San-Jose/4661-Albany-Cir-95129/unit-127/home/1687098,MLSListings,ML81689217,N,Y,37.322745,-121.985207
PAST SALE,,Single Family Residential,4006 Forestbrook Way,San Jose,CA,95111,124000,3,2.0,,1007,6500,1976,,123,,,,,http://www.redfin.com/CA/San-Jose/4006-Forestbrook-Way-95111/home/1468656,,,N,Y,37.2840728,-121.8240589
PAST SALE,January-5-2018,Condo/Co-op,1311 Palm St,SAN JOSE,CA,95110,545000,2,2.0,SAN JOSE,1118,1500,1986,25,487,270,Sold,,,http://www.redfin.com/CA/San-Jose/1311-Palm-St-95110/home/1385350,MLSListings,ML81686217,N,Y,37.3125969,-121.88186
PAST SALE,January-3-2018,Condo/Co-op,2725 Buena View Ct,SAN JOSE,CA,95121,627000,2,2.0,SAN JOSE,1050,1213,1988,27,597,275,Sold,,,http://www.redfin.com/CA/San-Jose/2725-Buena-View-Ct-95121/home/931430,MLSListings,ML81685382,N,Y,37.300355,-121.77663
PAST SALE,January-17-2018,Mobile/Manufactured Home,1793 Quimby Rd #1793,SAN JOSE,CA,95122,290000,3,2.0,SAN JOSE,1620,,2017,13,179,,Sold,,,http://www.redfin.com/CA/San-Jose/1793-Quimby-Rd-95122/unit-1793/home/144403666,MLSListings,ML81685958,N,Y,37.3277475,-121.8209608
PAST SALE,January-10-2018,Condo/Co-op,1784 Bevin Brook Dr,SAN JOSE,CA,95112,630000,2,2.0,SAN JOSE,955,1282,1994,20,660,375,Sold,,,http://www.redfin.com/CA/San-Jose/1784-Bevin-Brook-Dr-95112/home/678901,MLSListings,ML81685959,N,Y,37.319401,-121.853746
PAST SALE,January-18-2018,Condo/Co-op,1090 Bird Ave #205,SAN JOSE,CA,95125,735000,2,2.0,SAN JOSE,1171,1404,1981,12,628,340,Sold,,,http://www.redfin.com/CA/San-Jose/1090-Bird-Ave-95125/unit-205/home/744719,MLSListings,ML81681825,N,Y,37.3116937,-121.8958443
PAST SALE,January-18-2018,Townhouse,3277 Rocky Water Ln Unit A,SAN JOSE,CA,95148,626000,2,2.0,SAN JOSE,1131,1150,1981,12,553,288,Sold,,,http://www.redfin.com/CA/San-Jose/3277-Rocky-Water-Ln-95148/unit-A/home/908227,MLSListings,ML81686736,N,Y,37.3125849,-121.8072436
PAST SALE,January-26-2018,Single Family Residential,2919 Glen Craig Ct,SAN JOSE,CA,95148,936000,4,2.0,SAN JOSE,2206,6098,1986,4,424,,Sold,,,http://www.redfin.com/CA/San-Jose/2919-Glen-Craig-Ct-95148/home/1662137,MLSListings,ML81685616,N,Y,37.3313498,-121.8005665
PAST SALE,January-5-2018,Single Family Residential,1612 Glenfield Dr,SAN JOSE,CA,95125,1502000,3,2.0,SAN JOSE,1594,11737,1961,25,942,,Sold,,,http://www.redfin.com/CA/San-Jose/1612-Glenfield-Dr-95125/home/853304,MLSListings,ML81685635,N,Y,37.2767449,-121.9011371
PAST SALE,,Single Family Residential,1700 McBain Ave,San Jose,CA,95125,2600000,3,1.0,,1395,11438,1950,,1864,,,,,http://www.redfin.com/CA/San-Jose/1700-McBain-Ave-95125/home/733614,,,N,Y,37.2894479,-121.9159938
PAST SALE,January-3-2018,Single Family Residential,4840 Via De Caballe,SAN JOSE,CA,95118,1150000,3,2.0,SAN JOSE,1426,6001,1976,27,806,,Sold,,,http://www.redfin.com/CA/San-Jose/4840-Via-De-Caballe-95118/home/926206,MLSListings,ML81687924,N,Y,37.2559344,-121.893221
PAST SALE,January-19-2018,Single Family Residential,1840 Gunston Way,SAN JOSE,CA,95124,1400000,3,2.0,SAN JOSE,1212,5800,1955,11,1155,,Sold,,,http://www.redfin.com/CA/San-Jose/1840-Gunston-Way-95124/home/1063678,MLSListings,ML81687184,N,Y,37.2545414,-121.9195261
PAST SALE,January-22-2018,Mobile/Manufactured Home,338 Millpond Dr #338,SAN JOSE,CA,95125,175000,2,2.0,SAN JOSE,1536,,1978,8,114,,Sold,,,http://www.redfin.com/CA/San-Jose/338-Mill-Pond-Dr-95125/unit-338/home/63740904,MLSListings,ML81673130,N,Y,37.2922247,-121.8664521
PAST SALE,January-22-2018,Single Family Residential,1434 Dentwood Dr,SAN JOSE,CA,95118,1400000,3,2.0,SAN JOSE,1300,6708,1960,8,1077,,Sold,,,http://www.redfin.com/CA/San-Jose/1434-Dentwood-Dr-95118/home/1387883,MLSListings,ML81687062,N,Y,37.2493631,-121.8934603
PAST SALE,January-22-2018,Single Family Residential,3394 Zisch Dr,SAN JOSE,CA,95118,1198000,3,2.0,SAN JOSE,1200,6900,1959,8,998,,Sold,,,http://www.redfin.com/CA/San-Jose/3394-Zisch-Dr-95118/home/1766230,MLSListings,ML81687532,N,Y,37.2700761,-121.8890042
PAST SALE,January-23-2018,Single Family Residential,1847 Rochelle Dr,SAN JOSE,CA,95124,960000,3,2.0,SAN JOSE,1186,6699,1953,7,809,,Sold,,,http://www.redfin.com/CA/San-Jose/1847-Rochelle-Dr-95124/home/584697,MLSListings,ML81689088,N,Y,37.2725898,-121.9205586
PAST SALE,January-25-2018,Condo/Co-op,1082 Cedar Gables Dr,SAN JOSE,CA,95118,590000,2,2.0,SAN JOSE,824,904,1985,5,716,450,Sold,,,http://www.redfin.com/CA/San-Jose/1082-Cedar-Gables-Dr-95118/home/1435084,MLSListings,ML81688704,N,Y,37.261519,-121.877344
PAST SALE,January-24-2018,Single Family Residential,1420 Via Del Los Grande,SAN JOSE,CA,95120,1500000,4,2.0,SAN JOSE,1752,9333,1976,6,856,,Sold,,,http://www.redfin.com/CA/San-Jose/1420-Via-Del-Los-Grande-95120/home/1756767,MLSListings,ML81687602,N,Y,37.2222898,-121.8901322
PAST SALE,January-26-2018,Single Family Residential,5642 Croydon Ave,SAN JOSE,CA,95118,1280000,3,2.0,SAN JOSE,1204,6024,1960,4,1063,,Sold,,,http://www.redfin.com/CA/San-Jose/5642-Croydon-Ave-95118/home/1442444,MLSListings,ML81688043,N,Y,37.2463995,-121.8835003
PAST SALE,January-19-2018,Single Family Residential,4684 Glenmont Dr,SAN JOSE,CA,95136,920000,3,2.0,SAN JOSE,1192,6695,1970,11,772,,Sold,,,http://www.redfin.com/CA/San-Jose/4684-Glenmont-Dr-95136/home/1286872,MLSListings,ML81687138,N,Y,37.2640991,-121.8697663
PAST SALE,January-16-2018,Single Family Residential,1932 Bernice Way,SAN JOSE,CA,95124,1370000,4,2.0,SAN JOSE,1402,6169,1955,14,977,,Sold,,,http://www.redfin.com/CA/San-Jose/1932-Bernice-Way-95124/home/1014601,MLSListings,ML81686807,N,Y,37.2622997,-121.9264543
PAST SALE,January-3-2018,Single Family Residential,5915 Amapola Dr,SAN JOSE,CA,95129,2350000,4,2.0,SAN JOSE,1943,5952,1967,27,1209,,Sold,,,http://www.redfin.com/CA/San-Jose/5915-Amapola-Dr-95129/home/1476242,MLSListings,ML81685825,N,Y,37.3083327,-122.0069595
PAST SALE,January-3-2018,Single Family Residential,1757 Duvall Dr,SAN JOSE,CA,95130,1250000,3,2.0,SAN JOSE,1066,5916,1958,27,1173,,Sold,,,http://www.redfin.com/CA/San-Jose/1757-Duvall-Dr-95130/home/1425591,MLSListings,ML81684687,N,Y,37.2902245,-121.986112
PAST SALE,January-12-2018,Single Family Residential,4689 Williams Rd,SAN JOSE,CA,95129,1416000,3,2.0,SAN JOSE,1382,5884,1961,18,1025,,Sold,,,http://www.redfin.com/CA/San-Jose/4689-Williams-Rd-95129/home/1547474,MLSListings,ML81686740,N,Y,37.3088415,-121.9857995
PAST SALE,,Single Family Residential,1748 Hillsdale Ave,San Jose,CA,95124,167000,3,2.0,,1280,6200,1957,,130,,,,,http://www.redfin.com/CA/San-Jose/1748-Hillsdale-Ave-95124/home/1690161,,,N,Y,37.2650097,-121.9131711
PAST SALE,January-8-2018,Single Family Residential,4235 Hendrix Way,SAN JOSE,CA,95124,1610000,3,2.0,SAN JOSE,1541,7875,1960,22,1045,,Sold,,,http://www.redfin.com/CA/San-Jose/4235-Hendrix-Way-95124/home/1152539,MLSListings,ML81686271,N,Y,37.2580911,-121.9069399
PAST SALE,January-9-2018,Single Family Residential,5505 Copeland Ct,SAN JOSE,CA,95124,1621000,3,2.0,SAN JOSE,1612,6084,1968,21,1006,,Sold,,,http://www.redfin.com/CA/San-Jose/5505-Copeland-Ct-95124/home/912942,MLSListings,ML81686246,N,Y,37.237492,-121.9193959
PAST SALE,January-4-2018,Single Family Residential,544 Leland Ave,SAN JOSE,CA,95128,960000,3,2.0,SAN JOSE,1684,5300,1939,26,570,,Sold,,,http://www.redfin.com/CA/San-Jose/544-Leland-Ave-95128/home/721202,MLSListings,ML81685473,N,Y,37.3184622,-121.9265131
PAST SALE,January-12-2018,Single Family Residential,224 Brooklyn Ave,SAN JOSE,CA,95128,945000,2,2.0,SAN JOSE,1200,5044,1948,18,788,,Sold,,,http://www.redfin.com/CA/San-Jose/224-Brooklyn-Ave-95128/home/1613570,MLSListings,ML81686417,N,Y,37.3273299,-121.9277573
PAST SALE,January-26-2018,Condo/Co-op,5493 Cribari Bnd #5493,SAN JOSE,CA,95135,430000,2,2.0,SAN JOSE,1223,1523,1970,4,352,661,Sold,,,http://www.redfin.com/CA/San-Jose/5493-Cribari-Bnd-95135/unit-5493/home/144569534,MLSListings,ML81687531,N,Y,37.29432,-121.756507
PAST SALE,January-24-2018,Single Family Residential,3478 Tuers Rd,SAN JOSE,CA,95121,915000,4,2.0,SAN JOSE,2108,6708,1977,6,434,,Sold,,,http://www.redfin.com/CA/San-Jose/3478-Tuers-Rd-95121/home/1261462,MLSListings,ML81686596,N,Y,37.2965687,-121.8204558
PAST SALE,,Single Family Residential,3165 Barletta Ln,San Jose,CA,95127,452000,3,2.0,,1041,8232,1979,,434,,,,,http://www.redfin.com/CA/San-Jose/3165-Barletta-Ln-95127/home/843411,,,N,Y,37.3722976,-121.8297996
PAST SALE,January-4-2018,Single Family Residential,4774 Renzo Ct,SAN JOSE,CA,95111,860000,3,2.0,SAN JOSE,1287,6481,1975,26,668,,Sold,,,http://www.redfin.com/CA/San-Jose/4774-Renzo-Ct-95111/home/1649706,MLSListings,ML81685837,N,Y,37.2738899,-121.810937
PAST SALE,January-10-2018,Single Family Residential,1138 Beaconsfield Rd,SAN JOSE,CA,95121,850000,3,2.0,SAN JOSE,1220,3733,1975,20,697,,Sold,,,http://www.redfin.com/CA/San-Jose/1138-Beaconsfield-Rd-95121/home/749124,MLSListings,ML81686152,N,Y,37.2930964,-121.8151698
PAST SALE,January-12-2018,Condo/Co-op,848 Monarch Cir,SAN JOSE,CA,95138,725000,2,2.0,SAN JOSE,1257,1468,1999,18,577,290,Sold,,,http://www.redfin.com/CA/San-Jose/848-Monarch-Cir-95138/home/1520803,MLSListings,ML81687129,N,Y,37.245178,-121.765142
PAST SALE,January-16-2018,Single Family Residential,240 Santa Rosa Dr,SAN JOSE,CA,95111,730000,3,2.0,SAN JOSE,1123,5137,1959,14,650,,Sold,,,http://www.redfin.com/CA/San-Jose/240-Santa-Rosa-Dr-95111/home/896397,MLSListings,ML81686019,N,Y,37.2786226,-121.8273873
PAST SALE,January-12-2018,Single Family Residential,6274 San Felipe Rd,SAN JOSE,CA,95135,1200000,3,2.0,SAN JOSE,1600,47999,1956,18,750,,Sold,,,http://www.redfin.com/CA/San-Jose/6274-San-Felipe-Rd-95135/home/957644,MLSListings,ML81685570,N,Y,37.2787805,-121.7520707
PAST SALE,January-2-2018,Condo/Co-op,130 E San Fernando St #414,SAN JOSE,CA,95112,800000,2,2.0,SAN JOSE,1622,1645,1998,28,493,638,Sold,,,http://www.redfin.com/CA/San-Jose/130-E-San-Fernando-St-95112/unit-414/home/1035448,MLSListings,ML81685919,N,Y,37.3354928,-121.8862949
PAST SALE,January-3-2018,Condo/Co-op,350 N 2nd St #141,SAN JOSE,CA,95112,763000,1,2.0,SAN JOSE,1561,846,2005,27,489,518,Sold,,,http://www.redfin.com/CA/San-Jose/350-N-2nd-St-95112/unit-141/home/2123496,MLSListings,ML81686562,N,Y,37.3424965,-121.8931202
PAST SALE,January-22-2018,Single Family Residential,1685 Cottle Ave,SAN JOSE,CA,95125,1600000,2,2.0,SAN JOSE,2464,6930,2005,8,649,,Sold,,,http://www.redfin.com/CA/San-Jose/1685-Cottle-Ave-95125/home/553189,MLSListings,ML81684897,N,Y,37.296261,-121.8993823
PAST SALE,January-29-2018,Mobile/Manufactured Home,2150 Almaden Rd #143,SAN JOSE,CA,95125,148000,2,2.0,SAN JOSE,1080,,1979,1,137,,Sold,,,http://www.redfin.com/CA/San-Jose/2150-Almaden-Rd-95125/unit-143/home/40519247,MLSListings,ML81676939,N,Y,37.2948324,-121.8782353
PAST SALE,January-17-2018,Single Family Residential,1794 Bethany Ave,SAN JOSE,CA,95132,1075000,4,2.0,SAN JOSE,2082,5900,1976,13,516,,Sold,,,http://www.redfin.com/CA/San-Jose/1794-Bethany-Ave-95132/home/938474,MLSListings,ML81687587,N,Y,37.4018128,-121.8743048
PAST SALE,January-25-2018,Single Family Residential,837 Gateview Dr,SAN JOSE,CA,95133,840000,4,2.0,SAN JOSE,1204,6000,1976,5,698,,Sold,,,http://www.redfin.com/CA/San-Jose/837-Gateview-Dr-95133/home/815426,MLSListings,ML81689505,N,Y,37.3781027,-121.858445
PAST SALE,,Single Family Residential,2372 Lanning Way,San Jose,CA,95133,275000,3,2.0,,1041,5936,1978,,264,,,,,http://www.redfin.com/CA/San-Jose/2372-Lanning-Way-95133/home/799180,,,N,Y,37.3697747,-121.8492323
PAST SALE,January-29-2018,Single Family Residential,1475 Stone Creek Dr,SAN JOSE,CA,95132,1150000,3,2.0,SAN JOSE,1446,6300,1963,1,795,,Sold,,,http://www.redfin.com/CA/San-Jose/1475-Stone-Creek-Dr-95132/home/1087192,MLSListings,ML81688364,N,Y,37.4072295,-121.8521955
PAST SALE,January-5-2018,Single Family Residential,15047 Joanne Ave,SAN JOSE,CA,95127,876650,3,2.0,SAN JOSE,1281,9348,1952,25,684,,Sold,,,http://www.redfin.com/CA/San-Jose/15047-Joanne-Ave-95127/home/943528,MLSListings,ML81685147,N,Y,37.39061,-121.829652
PAST SALE,January-12-2018,Single Family Residential,320 McCovey Ln,SAN JOSE,CA,95127,835000,3,2.0,SAN JOSE,1300,5899,1960,18,642,,Sold,,,http://www.redfin.com/CA/San-Jose/320-Mccovey-Ln-95127/home/1349467,MLSListings,ML81686627,N,Y,37.3692424,-121.8139073
PAST SALE,January-23-2018,Single Family Residential,650 Giant Way,SAN JOSE,CA,95127,1200000,5,2.0,SAN JOSE,2946,52408,1949,7,407,,Sold,,,http://www.redfin.com/CA/San-Jose/650-Giant-Way-95127/home/1087462,MLSListings,ML81685801,N,Y,37.3651653,-121.8109177
PAST SALE,January-12-2018,Single Family Residential,1561 Santa Inez Dr,SAN JOSE,CA,95125,1450000,5,2.0,SAN JOSE,2173,8814,1956,18,667,,Sold,,,http://www.redfin.com/CA/San-Jose/1561-Santa-Inez-Dr-95125/home/1836924,MLSListings,ML81669563,N,Y,37.2963451,-121.9152762
PAST SALE,January-3-2018,Condo/Co-op,1485 De Rose Way #118,SAN JOSE,CA,95126,615000,2,2.0,SAN JOSE,1224,1224,1977,27,502,430,Sold,,,http://www.redfin.com/CA/San-Jose/1485-De-Rose-Way-95126/unit-118/home/729396,MLSListings,ML81682937,N,Y,37.305706,-121.920352
PAST SALE,January-26-2018,Condo/Co-op,1902 Huxley Ct,SAN JOSE,CA,95125,870000,2,2.0,SAN JOSE,1071,1224,1981,4,812,430,Sold,,,http://www.redfin.com/CA/San-Jose/1902-Huxley-Ct-95125/home/728825,MLSListings,ML81688022,N,Y,37.297449,-121.925574
PAST SALE,,Single Family Residential,2341 Bluebell Ave,San Jose,CA,95122,509000,3,2.0,,1113,5562,1962,,457,,,,,http://www.redfin.com/CA/San-Jose/2341-Bluebell-Ave-95122/home/929511,,,N,Y,37.3218405,-121.8294414
PAST SALE,January-9-2018,Condo/Co-op,5934 Bridgeport Lake Way,SAN JOSE,CA,95123,680000,2,2.0,SAN JOSE,1002,959,1988,21,679,365,Sold,,,http://www.redfin.com/CA/San-Jose/5934-Bridgeport-Lake-Way-95123/home/1133288,MLSListings,ML81685822,N,Y,37.243729,-121.868228
PAST SALE,January-24-2018,Single Family Residential,788 Pescadero Dr,SAN JOSE,CA,95123,1066000,4,2.0,SAN JOSE,1739,6117,1966,6,613,,Sold,,,http://www.redfin.com/CA/San-Jose/788-Pescadero-Dr-95123/home/985798,MLSListings,ML81686782,N,Y,37.2408094,-121.8471567
PAST SALE,January-26-2018,Mobile/Manufactured Home,2600 Senter Rd #23,SAN JOSE,CA,95111,200000,3,2.0,SAN JOSE,1440,,1971,4,139,,Sold,,,http://www.redfin.com/CA/San-Jose/2600-Senter-Rd-95111/unit-23/home/144541400,MLSListings,ML81687446,N,Y,37.3052149,-121.841491
PAST SALE,January-17-2018,Townhouse,3227 S Kenhill Dr,SAN JOSE,CA,95111,570000,3,2.0,SAN JOSE,1164,4356,1987,13,490,300,Sold,,,http://www.redfin.com/CA/San-Jose/3227-Kenhill-Dr-95111/home/1552971,MLSListings,ML81686561,N,Y,37.2875439,-121.841679
PAST SALE,January-12-2018,Mobile/Manufactured Home,4271 N First St #39,SAN JOSE,CA,95134,204000,2,2.0,SAN JOSE,1248,,1981,18,163,,Sold,,,http://www.redfin.com/CA/San-Jose/4271-N-1st-St-95134/unit-39/home/1540668,MLSListings,ML81671954,N,Y,37.4178194,-121.9596008
PAST SALE,January-24-2018,Mobile/Manufactured Home,4271 N First St #106,SAN JOSE,CA,95134,285100,3,2.0,SAN JOSE,1460,,1981,6,195,,Sold,,,http://www.redfin.com/CA/San-Jose/4271-N-1st-St-95134/unit-106/home/1094130,MLSListings,ML81687139,N,Y,37.4178194,-121.9596008
PAST SALE,January-26-2018,Mobile/Manufactured Home,327 Mandolin Dr #327,SAN JOSE,CA,95134,90000,3,2.0,SAN JOSE,880,,1999,4,102,,Sold,,,http://www.redfin.com/CA/San-Jose/327-Mandolin-Dr-95134/unit-327/home/113614896,MLSListings,ML81644610,N,Y,37.4171563,-121.9592777
PAST SALE,January-26-2018,Mobile/Manufactured Home,3011 Oakbridge Dr #3011,SAN JOSE,CA,95121,160000,2,2.0,SAN JOSE,1300,,1978,4,123,,Sold,,,http://www.redfin.com/CA/San-Jose/3011-Oakbridge-Dr-95121/unit-3011/home/63743025,MLSListings,ML81675207,N,Y,37.3076108,-121.8151674
PAST SALE,January-4-2018,Single Family Residential,3949 Balcom Rd,SAN JOSE,CA,95148,1500000,4,2.0,SAN JOSE,2661,130680,1964,26,564,,Sold,,,http://www.redfin.com/CA/San-Jose/3949-Pleasant-Hollow-Ln-95148/home/1263012,MLSListings,ML81683495,N,Y,37.337053,-121.7664665
PAST SALE,January-10-2018,Townhouse,2719 Buena View Ct,SAN JOSE,CA,95121,668000,2,2.0,SAN JOSE,936,754,1988,20,714,275,Sold,,,http://www.redfin.com/CA/San-Jose/2719-Buena-View-Ct-95121/home/704927,MLSListings,ML81685516,N,Y,37.3004419,-121.776587
PAST SALE,January-25-2018,Single Family Residential,146 Southsun Ct,SAN JOSE,CA,95138,885000,4,2.0,SAN JOSE,1355,5172,1981,5,653,,Sold,,,http://www.redfin.com/CA/San-Jose/146-Southsun-Ct-95138/home/616407,MLSListings,ML81686519,N,Y,37.247781,-121.7807486
PAST SALE,January-26-2018,Single Family Residential,16 Chatham Ct,SAN JOSE,CA,95139,965000,3,2.0,SAN JOSE,1576,10721,1972,4,612,,Sold,,,http://www.redfin.com/CA/San-Jose/16-Chatham-Ct-95139/home/1006873,MLSListings,ML81686544,N,Y,37.2313342,-121.7622976
PAST SALE,January-16-2018,Condo/Co-op,168 Sunwood Meadows Pl,SAN JOSE,CA,95119,605000,2,2.0,SAN JOSE,920,924,1985,14,658,407,Sold,,,http://www.redfin.com/CA/San-Jose/168-Sunwood-Meadows-Pl-95119/home/1845315,MLSListings,ML81686619,N,Y,37.228136,-121.773643
PAST SALE,January-18-2018,Townhouse,189 Fairway Glen Ln,SAN JOSE,CA,95139,752000,3,2.0,SAN JOSE,1640,3197,1971,12,459,381,Sold,,,http://www.redfin.com/CA/San-Jose/189-Fairway-Glen-Ln-95139/home/576373,MLSListings,ML81686471,N,Y,37.2248623,-121.7760217
PAST SALE,,Condo/Co-op,216 Race St,San Jose,CA,95126,553000,2,2.0,,740,,1986,,747,,,,,http://www.redfin.com/CA/San-Jose/216-Race-St-95126/home/623292,,,N,Y,37.325516,-121.911064
PAST SALE,January-9-2018,Single Family Residential,330 N 11th St,SAN JOSE,CA,95112,875000,3,2.0,SAN JOSE,1024,5793,1906,21,854,,Sold,,,http://www.redfin.com/CA/San-Jose/330-N-11th-St-95112/home/565933,MLSListings,ML81686039,N,Y,37.3464611,-121.8835733
PAST SALE,January-8-2018,Condo/Co-op,222 Race St,SAN JOSE,CA,95126,625000,2,2.0,SAN JOSE,740,716,1986,22,845,220,Sold,,,http://www.redfin.com/CA/San-Jose/222-Race-St-95126/home/1858486,MLSListings,ML81685893,N,Y,37.325322,-121.910978
PAST SALE,January-22-2018,Condo/Co-op,175 W Saint James St #809,SAN JOSE,CA,95110,868500,2,2.0,SAN JOSE,1393,1360,2006,8,623,450,Sold,,,http://www.redfin.com/CA/San-Jose/175-W-Saint-James-St-95110/unit-809/home/17289311,MLSListings,ML81686512,N,Y,37.337936,-121.8955308
PAST SALE,January-29-2018,Single Family Residential,460 Hannah St,San Jose,CA,95126,1072000,4,2.0,Downtown,1587,4800,2002,1,675,,Sold,,,http://www.redfin.com/CA/San-Jose/460-Hannah-St-95126/home/1098576,EBRD/CCAR/Bay East,40806746,N,Y,37.3208015,-121.9019331
PAST SALE,January-16-2018,Condo/Co-op,2968 Moorpark Ave #6,SAN JOSE,CA,95128,812000,2,2.0,SAN JOSE,1040,1484,1991,14,781,382,Sold,,,http://www.redfin.com/CA/San-Jose/2968-Moorpark-Ave-95128/unit-6/home/1153274,MLSListings,ML81687132,N,Y,37.3148229,-121.9476231
PAST SALE,January-10-2018,Single Family Residential,5072 Adair Way,SAN JOSE,CA,95124,1169000,3,2.0,SAN JOSE,1200,7200,1955,20,974,,Sold,,,http://www.redfin.com/CA/San-Jose/5072-Adair-Way-95124/home/836957,MLSListings,ML81656908,N,Y,37.2456862,-121.9433686
PAST SALE,January-29-2018,Mobile/Manufactured Home,466 Chateau la Salle Dr #466,SAN JOSE,CA,95111,351000,3,2.0,SAN JOSE,1635,,2008,1,215,,Sold,,,http://www.redfin.com/CA/San-Jose/466-Chateau-La-Salle-Dr-95111/unit-466/home/21638693,MLSListings,ML81688059,N,Y,37.2933527,-121.8551992
PAST SALE,January-5-2018,Single Family Residential,5520 Playa Del Rey,SAN JOSE,CA,95123,900000,4,2.0,SAN JOSE,1910,6350,1963,25,471,,Sold,,,http://www.redfin.com/CA/San-Jose/5520-Playa-Del-Rey-95123/home/868079,MLSListings,ML81686004,N,Y,37.2532042,-121.8536175
PAST SALE,January-10-2018,Single Family Residential,5234 Harvest Est,SAN JOSE,CA,95135,1141000,3,2.0,SAN JOSE,1728,7422,1976,20,660,,Sold,,,http://www.redfin.com/CA/San-Jose/5234-Harvest-Ests-95135/home/615941,MLSListings,ML81686015,N,Y,37.2931745,-121.7656359
PAST SALE,January-10-2018,Condo/Co-op,5524 Cribari Cir,SAN JOSE,CA,95135,475000,2,2.0,SAN JOSE,1223,10171,1968,20,388,655,Sold,,,http://www.redfin.com/CA/San-Jose/5524-Cribari-Cir-95135/home/1232335,MLSListings,ML81686805,N,Y,37.2928799,-121.756112
PAST SALE,January-11-2018,Single Family Residential,138 Azucar Ave,SAN JOSE,CA,95111,720000,3,2.0,SAN JOSE,1206,5600,1960,19,597,,Sold,,,http://www.redfin.com/CA/San-Jose/138-Azucar-Ave-95111/home/1092397,MLSListings,ML81683332,N,Y,37.2613472,-121.8062351
PAST SALE,January-19-2018,Single Family Residential,310 Bromley Cross Dr,SAN JOSE,CA,95119,965000,3,2.0,SAN JOSE,1564,6000,1972,11,617,,Sold,,,http://www.redfin.com/CA/San-Jose/310-Bromley-Cross-Dr-95119/home/1620189,MLSListings,ML81687142,N,Y,37.2226456,-121.7846775
PAST SALE,January-19-2018,Mobile/Manufactured Home,510 Saddle Brook Dr #131,SAN JOSE,CA,95136,189000,3,2.0,SAN JOSE,1120,,1999,11,169,,Sold,,,http://www.redfin.com/CA/San-Jose/510-Saddlebrook-Dr-95136/unit-131/home/1248577,MLSListings,ML81677614,N,Y,37.2623669,-121.8184019
PAST SALE,January-12-2018,Single Family Residential,894 Calle De Verde,SAN JOSE,CA,95136,868000,3,2.0,SAN JOSE,1508,3421,1975,18,576,,Sold,,,http://www.redfin.com/CA/San-Jose/894-Calle-De-Verde-95136/home/1728612,MLSListings,ML81686073,N,Y,37.2635536,-121.8671117
PAST SALE,,Single Family Residential,5311 Pebbletree Way,San Jose,CA,95111,175000,3,2.0,,1315,6000,1972,,133,,,,,http://www.redfin.com/CA/San-Jose/5311-Pebbletree-Way-95111/home/975170,,,N,Y,37.2623439,-121.7985623
PAST SALE,January-18-2018,Single Family Residential,228 Bangor Ave,SAN JOSE,CA,95123,887500,3,2.0,SAN JOSE,1237,5631,1963,12,717,,Sold,,,http://www.redfin.com/CA/San-Jose/228-Bangor-Ave-95123/home/994056,MLSListings,ML81689427,N,Y,37.2475415,-121.8133029
PAST SALE,,Single Family Residential,2701 Alvin Ave,San Jose,CA,95121,375000,3,1.0,,1298,5194,1963,,289,,,,,http://www.redfin.com/CA/San-Jose/2701-Alvin-Ave-95121/home/1299165,,,N,Y,37.314378,-121.823275
PAST SALE,,Single Family Residential,1190 Pusateri Way,San Jose,CA,95121,925000,4,2.0,,1594,6120,1976,,580,,,,,http://www.redfin.com/CA/San-Jose/1190-Pusateri-Way-95121/home/1625715,,,N,Y,37.3031373,-121.8254666
PAST SALE,January-10-2018,Condo/Co-op,2675 Senter Creek Ct,San Jose,CA,95111,550000,2,2.0,SJOS - San Jose,1146,435,1983,20,480,250,Sold,,,http://www.redfin.com/CA/San-Jose/2675-Senter-Creek-Ct-95111/home/902724,CRMLS,PW17235158,N,Y,37.3037406,-121.8421392
PAST SALE,,Condo/Co-op,2426 Balme Dr,San Jose,CA,95122,147500,2,2.0,,912,,1984,,162,,,,,http://www.redfin.com/CA/San-Jose/2426-Balme-Dr-95122/home/652597,,,N,Y,37.315517,-121.837956
PAST SALE,January-12-2018,Single Family Residential,2128 Sullivan Ave,San Jose,CA,95122,715000,3,2.0,San Jose,1119,6000,1959,18,639,,Sold,,,http://www.redfin.com/CA/San-Jose/2128-Sullivan-Ave-95122/home/890923,San Francisco MLS,465243,N,Y,37.3398868,-121.8310185
PAST SALE,January-25-2018,Single Family Residential,1541 Hurlingham Way,SAN JOSE,CA,95127,560000,3,2.0,SAN JOSE,1188,5394,1955,5,471,,Sold,,,http://www.redfin.com/CA/San-Jose/1541-Hurlingham-Way-95127/home/1840618,MLSListings,ML81686553,N,Y,37.3485484,-121.8153429
PAST SALE,January-25-2018,Single Family Residential,2618 Pendragon Ln,SAN JOSE,CA,95116,575000,5,2.0,SAN JOSE,1683,5000,1959,5,342,,Sold,,,http://www.redfin.com/CA/San-Jose/2618-Pendragon-Ln-95116/home/1742516,MLSListings,ML81677932,N,Y,37.353665,-121.8313473
PAST SALE,,Single Family Residential,1658 Crucero Dr,San Jose,CA,95122,184000,4,1.0,,1404,5700,1971,,131,,,,,http://www.redfin.com/CA/San-Jose/1658-Crucero-Dr-95122/home/1296426,,,N,Y,37.3293206,-121.842804
PAST SALE,,Single Family Residential,1040 Granada Way,San Jose,CA,95122,625000,3,2.0,,1320,6372,1960,,473,,,,,http://www.redfin.com/CA/San-Jose/1040-Granada-Way-95122/home/652473,,,N,Y,37.3213353,-121.8453261
PAST SALE,,Single Family Residential,1759 Mount Rushmore Dr,San Jose,CA,95127,437500,3,2.0,,1064,5000,1960,,411,,,,,http://www.redfin.com/CA/San-Jose/1759-Mount-Rushmore-Dr-95127/home/950540,,,N,Y,37.3493593,-121.8032709
PAST SALE,,Single Family Residential,3531 Pine Ridge Way,San Jose,CA,95127,120500,4,2.0,,1650,7920,1976,,73,,,,,http://www.redfin.com/CA/San-Jose/3531-Pine-Ridge-Way-95127/home/988167,,,N,Y,37.356667,-121.8010968
PAST SALE,January-22-2018,Single Family Residential,1097 Locust St,SAN JOSE,CA,95110,920000,3,2.0,SAN JOSE,1325,6988,1951,8,694,,Sold,,,http://www.redfin.com/CA/San-Jose/1097-Locust-St-95110/home/1403138,MLSListings,ML81687078,N,Y,37.3163972,-121.8833728
PAST SALE,January-12-2018,Single Family Residential,961 S 10th St,SAN JOSE,CA,95112,865000,4,2.0,SAN JOSE,1244,6210,1901,18,695,,Sold,,,http://www.redfin.com/CA/San-Jose/961-S-10th-St-95112/home/757681,MLSListings,ML81683095,N,Y,37.3262033,-121.8704777
PAST SALE,,Single Family Residential,2628 Aborn Rd,San Jose,CA,95121,155000,3,3.0,,2194,6000,1965,,71,,,,,http://www.redfin.com/CA/San-Jose/2628-Aborn-Rd-95121/home/1240586,,,N,Y,37.3128445,-121.7969054
PAST SALE,January-9-2018,Single Family Residential,1039 Prouty Way,SAN JOSE,CA,95129,1975000,3,2.0,SAN JOSE,1040,6660,1956,21,1899,,Sold,,,http://www.redfin.com/CA/San-Jose/1039-Prouty-Way-95129/home/1057051,MLSListings,ML81685680,N,Y,37.3084853,-122.0029292
PAST SALE,January-19-2018,Single Family Residential,5149 Betlo Ct,SAN JOSE,CA,95130,1550000,4,2.0,SAN JOSE,1697,6902,1964,11,913,,Sold,,,http://www.redfin.com/CA/San-Jose/5149-Betlo-Ct-95130/home/814310,MLSListings,ML81688628,N,Y,37.2820278,-121.9914899
PAST SALE,January-3-2018,Single Family Residential,4119 Arpeggio Ave,SAN JOSE,CA,95136,960000,3,2.0,SAN JOSE,1442,5766,1971,27,666,25,Sold,,,http://www.redfin.com/CA/San-Jose/4119-Arpeggio-Ave-95136/home/864799,MLSListings,ML81686280,N,Y,37.2726774,-121.8406941
PAST SALE,January-2-2018,Single Family Residential,462 Chinook Ln,SAN JOSE,CA,95123,881101,3,2.0,SAN JOSE,1579,6403,1966,28,558,,Sold,,,http://www.redfin.com/CA/San-Jose/462-Chinook-Ln-95123/home/1695658,MLSListings,ML81686971,N,Y,37.2422921,-121.8319624
PAST SALE,January-9-2018,Single Family Residential,5387 Garrison Cir,San Jose,CA,95123,870000,4,2.0,Blossom Valley,1399,4500,1977,21,622,,Sold,,,http://www.redfin.com/CA/San-Jose/5387-Garrison-Cir-95123/home/1134215,EBRD/CCAR/Bay East,40804799,N,Y,37.2570312,-121.8090752
PAST SALE,January-24-2018,Single Family Residential,5848 Blossom Ave,SAN JOSE,CA,95123,900000,4,2.0,SAN JOSE,1516,6770,1963,6,594,,Sold,,,http://www.redfin.com/CA/San-Jose/5848-Blossom-Ave-95123/home/1183954,MLSListings,ML81686330,N,Y,37.2432163,-121.8393973
PAST SALE,January-23-2018,Single Family Residential,1070 Wallace Dr,SAN JOSE,CA,95120,1285000,3,2.0,SAN JOSE,1423,6042,1962,7,903,,Sold,,,http://www.redfin.com/CA/San-Jose/1070-Wallace-Dr-95120/home/1694539,MLSListings,ML81687063,N,Y,37.2271203,-121.8655703
PAST SALE,January-19-2018,Single Family Residential,418 Lyoncross Way,SAN JOSE,CA,95123,900000,3,2.0,SAN JOSE,1409,6634,1972,11,639,,Sold,,,http://www.redfin.com/CA/San-Jose/418-Lyoncross-Way-95123/home/1481527,MLSListings,ML81685607,N,Y,37.2476506,-121.8271334
PAST SALE,January-24-2018,Townhouse,1792 Battersea Ct,SAN JOSE,CA,95132,850000,4,2.5,SAN JOSE,1474,1012,1975,6,577,215,Sold,,,http://www.redfin.com/CA/San-Jose/1792-Battersea-Ct-95132/home/1387843,MLSListings,ML81678078,N,Y,37.4125749,-121.852681
PAST SALE,January-9-2018,Townhouse,3179 Loma Verde Dr #4,SAN JOSE,CA,95117,885000,2,2.5,SAN JOSE,1306,1534,1976,21,678,290,Sold,,,http://www.redfin.com/CA/San-Jose/3179-Loma-Verde-Dr-95117/unit-4/home/1547192,MLSListings,ML81685942,N,Y,37.299298,-121.952308
PAST SALE,January-25-2018,Single Family Residential,1080 Monica Ln,SAN JOSE,CA,95128,1525000,4,2.5,SAN JOSE,1741,6000,1962,5,876,,Sold,,,http://www.redfin.com/CA/San-Jose/1080-Monica-Ln-95128/home/662817,MLSListings,ML81687652,N,Y,37.30289,-121.9446865
PAST SALE,January-11-2018,Single Family Residential,4785 Roundtree Dr,CAMPBELL,CA,95008,1545000,5,2.5,CAMPBELL,2077,9600,1975,19,744,,Sold,,,http://www.redfin.com/CA/Campbell/4785-Roundtree-Dr-95008/home/1616289,MLSListings,ML81684425,N,Y,37.267799,-121.9846338
PAST SALE,January-19-2018,Single Family Residential,1495 Norman Ave,SAN JOSE,CA,95125,1775000,3,2.5,SAN JOSE,2038,5880,2017,11,871,,Sold,,,http://www.redfin.com/CA/San-Jose/1495-Norman-Ave-95125/home/1368207,MLSListings,ML81674417,N,Y,37.2982303,-121.9209438
PAST SALE,,Single Family Residential,1882 Lavonne Ave,San Jose,CA,95116,400545,3,2.0,,1958,7800,1948,,205,,,,,http://www.redfin.com/CA/San-Jose/1882-Lavonne-Ave-95116/home/554426,,,N,Y,37.3457536,-121.8446894
PAST SALE,January-16-2018,Townhouse,548 King George Ave,SAN JOSE,CA,95136,740000,2,2.5,SAN JOSE,1057,1057,2000,14,700,242,Sold,,,http://www.redfin.com/CA/San-Jose/King-George-Ave-95136/home/632227,MLSListings,ML81684706,N,Y,37.2823769,-121.858813
PAST SALE,January-9-2018,Single Family Residential,2473 Ottawa Way,SAN JOSE,CA,95130,1950000,4,2.5,SAN JOSE,2014,6293,1959,21,968,,Sold,,,http://www.redfin.com/CA/San-Jose/2473-Ottawa-Way-95130/home/1500921,MLSListings,ML81685663,N,Y,37.2775486,-121.9860316
PAST SALE,January-3-2018,Condo/Co-op,5057 Sutter Creek Cir,SAN JOSE,CA,95136,685000,2,2.5,SAN JOSE,1137,2686,1986,27,602,386,Sold,,,http://www.redfin.com/CA/San-Jose/5057-Sutter-Creek-Cir-95136/home/589274,MLSListings,ML81685894,N,Y,37.262551,-121.822311
PAST SALE,,Single Family Residential,1987 Edgebank Dr,San Jose,CA,95122,173500,4,2.0,,1613,4275,1983,,108,,,,,http://www.redfin.com/CA/San-Jose/1987-Edgebank-Dr-95122/home/967437,,,N,Y,37.323672,-121.8195666
PAST SALE,January-9-2018,Condo/Co-op,3518 Jasmine Cir,SAN JOSE,CA,95135,971800,3,2.5,SAN JOSE,1346,1500,2000,21,722,250,Sold,,,http://www.redfin.com/CA/San-Jose/3518-Jasmine-Cir-95135/home/1461248,MLSListings,ML81685089,N,Y,37.308993,-121.757136
PAST SALE,January-16-2018,Single Family Residential,1966 Edgebank Dr,SAN JOSE,CA,95122,900000,3,2.5,SAN JOSE,1429,4566,1983,14,630,,Sold,,,http://www.redfin.com/CA/San-Jose/1966-Edgebank-Dr-95122/home/1497985,MLSListings,ML81687137,N,Y,37.322927,-121.820045
PAST SALE,January-4-2018,Single Family Residential,3224 Foxboro Pl,SAN JOSE,CA,95135,1450000,4,2.5,SAN JOSE,1990,7950,1985,26,729,,Sold,,,http://www.redfin.com/CA/San-Jose/3224-Foxboro-Pl-95135/home/1809016,MLSListings,ML81685239,N,Y,37.3112451,-121.7835557
PAST SALE,,Townhouse,3235 Amidy Garden Way,San Jose,CA,95136,202500,2,2.0,,1362,1002,2010,,149,,,,,http://www.redfin.com/CA/San-Jose/3235-Amidy-Garden-Way-95136/home/52671507,,,N,Y,37.28103,-121.858752
PAST SALE,January-26-2018,Townhouse,84 Van Cott Ct,SAN JOSE,CA,95127,678000,3,2.5,SAN JOSE,1418,1435,1986,4,478,234,Sold,,,http://www.redfin.com/CA/San-Jose/84-Van-Cott-Ct-95127/home/1368661,MLSListings,ML81686229,N,Y,37.3622372,-121.8336732
PAST SALE,January-16-2018,Single Family Residential,526 Bella Calais Way,SAN JOSE,CA,95138,1015000,3,2.5,SAN JOSE,1792,4028,1998,14,566,37,Sold,,,http://www.redfin.com/CA/San-Jose/526-Bella-Calais-Way-95138/home/977452,MLSListings,ML81686673,N,Y,37.2412613,-121.7595602
PAST SALE,January-15-2018,Single Family Residential,7061 Via Anacapa,SAN JOSE,CA,95139,880000,5,2.5,SAN JOSE,1742,7080,1975,15,505,,Sold,,,http://www.redfin.com/CA/San-Jose/7061-Via-Anacapa-95139/home/1008988,MLSListings,ML81685342,N,Y,37.2328977,-121.7676127
PAST SALE,January-19-2018,Single Family Residential,256 Wildhorse Ct,SAN JOSE,CA,95138,978000,3,2.5,SAN JOSE,1843,2991,2006,11,531,,Sold,,,http://www.redfin.com/CA/San-Jose/256-Wildhorse-Ct-95138/home/12178322,MLSListings,ML81687612,N,Y,37.2377311,-121.7592212
PAST SALE,,Townhouse,215 Fairway Glen Ln,San Jose,CA,95139,128500,3,3.0,,1656,2112,1971,,78,,,,,http://www.redfin.com/CA/San-Jose/215-Fairway-Glen-Ln-95139/home/1372428,,,N,Y,37.223987,-121.77666
PAST SALE,January-19-2018,Single Family Residential,464 N 19th St,SAN JOSE,CA,95112,1300000,3,2.5,SAN JOSE,2306,5607,2001,11,564,,Sold,,,http://www.redfin.com/CA/San-Jose/464-N-19th-St-95112/home/1634058,MLSListings,ML81686368,N,Y,37.3528475,-121.8781826
PAST SALE,January-15-2018,Townhouse,129 Republic Ave,SAN JOSE,CA,95116,625000,2,2.5,SAN JOSE,1074,1172,1988,15,582,164,Sold,,,http://www.redfin.com/CA/San-Jose/129-Republic-Ave-95116/home/1468525,MLSListings,ML81686790,N,Y,37.3594457,-121.8344321
PAST SALE,January-9-2018,Single Family Residential,1136 Phelan Way,SAN JOSE,CA,95122,795000,3,2.5,SAN JOSE,1469,3842,1996,21,541,,Sold,,,http://www.redfin.com/CA/San-Jose/1136-Phelan-Way-95122/home/1253057,MLSListings,ML81686020,N,Y,37.324345,-121.847513
PAST SALE,January-13-2018,Single Family Residential,3473 Maroun Pl,SAN JOSE,CA,95148,1200000,3,2.5,SAN JOSE,1804,3363,2000,17,665,,Sold,,,http://www.redfin.com/CA/San-Jose/3473-Maroun-Pl-95148/home/1449252,MLSListings,ML81688891,N,Y,37.3253093,-121.7706886
PAST SALE,,Townhouse,880 Georgetown Pl,San Jose,CA,95126,1225000,3,2.0,,1859,1008,2004,,659,,,,,http://www.redfin.com/CA/San-Jose/880-Georgetown-Pl-95126/home/1048935,,,N,Y,37.3280055,-121.9058074
PAST SALE,January-10-2018,Single Family Residential,3769 Rigor Dr,SAN JOSE,CA,95148,1150000,4,2.5,SAN JOSE,1989,3484,1999,20,578,,Sold,,,http://www.redfin.com/CA/San-Jose/3769-Rigor-Dr-95148/home/1869986,MLSListings,ML81688549,N,Y,37.3217071,-121.7718147
PAST SALE,January-23-2018,Single Family Residential,986 Fair Ave,SAN JOSE,CA,95122,950000,4,2.5,SAN JOSE,2119,6100,1999,7,448,,Sold,,,http://www.redfin.com/CA/San-Jose/986-Fair-Ave-95122/home/1060645,MLSListings,ML81687134,N,Y,37.3243705,-121.8486529
PAST SALE,January-5-2018,Townhouse,503 Mariani Ln,SAN JOSE,CA,95112,950000,3,2.5,SAN JOSE,1498,7031,2003,25,634,265,Sold,,,http://www.redfin.com/CA/San-Jose/503-Mariani-Ln-95112/home/1048069,MLSListings,ML81686224,N,Y,37.349705,-121.891396
PAST SALE,January-9-2018,Single Family Residential,1714 Montemar Way,SAN JOSE,CA,95125,1525000,3,2.5,SAN JOSE,1910,7741,1956,21,798,,Sold,,,http://www.redfin.com/CA/San-Jose/1714-Montemar-Way-95125/home/1330239,MLSListings,ML81687222,N,Y,37.2903528,-121.9159472
PAST SALE,January-12-2018,Single Family Residential,20861 Almaden Rd,SAN JOSE,CA,95120,1825000,4,2.5,SAN JOSE,2542,453650,1936,18,718,,Sold,,,http://www.redfin.com/CA/San-Jose/20861-Almaden-Rd-95120/home/932068,MLSListings,ML81667965,N,Y,37.184227,-121.81844
PAST SALE,January-11-2018,Single Family Residential,2933 Bolla Ct,SAN JOSE,CA,95124,1450000,4,2.5,SAN JOSE,1995,3471,1999,19,727,,Sold,,,http://www.redfin.com/CA/San-Jose/2933-Bolla-Ct-95124/home/1572813,MLSListings,ML81686651,N,Y,37.2681707,-121.9301533
PAST SALE,January-23-2018,Single Family Residential,1666 Andalusia Way,SAN JOSE,CA,95125,1550000,3,2.5,SAN JOSE,1623,7202,1961,7,955,,Sold,,,http://www.redfin.com/CA/San-Jose/1666-Andalusia-Way-95125/home/852239,MLSListings,ML81686991,N,Y,37.2778006,-121.9058488
PAST SALE,January-12-2018,Townhouse,7122 Menaul Ct,SAN JOSE,CA,95139,725000,3,2.5,SAN JOSE,1386,2060,1979,18,523,300,Sold,,,http://www.redfin.com/CA/San-Jose/7122-Menaul-Ct-95139/home/1604152,MLSListings,ML81686001,N,Y,37.2273362,-121.773254
PAST SALE,January-23-2018,Single Family Residential,6013 Buffett Pl,SAN JOSE,CA,95123,872000,3,2.5,SAN JOSE,1285,1809,1994,7,679,117,Sold,,,http://www.redfin.com/CA/San-Jose/6013-Buffett-Pl-95123/home/1588876,MLSListings,ML81686764,N,Y,37.2396907,-121.8682728
PAST SALE,January-4-2018,Single Family Residential,1776 Lucretia Ave,SAN JOSE,CA,95122,740000,2,2.5,SAN JOSE,1585,2490,1992,26,467,157,Sold,,,http://www.redfin.com/CA/San-Jose/1776-Lucretia-Ave-95122/home/695178,MLSListings,ML81681909,N,Y,37.3226601,-121.849627
PAST SALE,January-26-2018,Single Family Residential,5292 Harwood Rd,San Jose,CA,95124,1600000,5,2.5,San Jose,2111,9000,1973,4,758,,Sold,,,http://www.redfin.com/CA/San-Jose/5292-Harwood-Rd-95124/home/919507,EBRD/CCAR/Bay East,40805964,N,Y,37.2424909,-121.9127687
PAST SALE,,Condo/Co-op,145 Declaration Way,San Jose,CA,95116,620000,3,2.0,,1134,,1988,,547,,,,,http://www.redfin.com/CA/San-Jose/145-Declaration-Way-95116/home/1691070,,,N,Y,37.3585215,-121.8347037
PAST SALE,January-16-2018,Single Family Residential,4844 Birmingham Dr,SAN JOSE,CA,95136,1375000,4,2.5,SAN JOSE,2124,13281,1970,14,647,,Sold,,,http://www.redfin.com/CA/San-Jose/4844-Birmingham-Dr-95136/home/869994,MLSListings,ML81686756,N,Y,37.2638175,-121.8461746
PAST SALE,January-19-2018,Single Family Residential,5495 Copeland Ct,SAN JOSE,CA,95124,1680000,4,2.5,SAN JOSE,2441,8000,1968,11,688,,Sold,,,http://www.redfin.com/CA/San-Jose/5495-Copeland-Ct-95124/home/913526,MLSListings,ML81686631,N,Y,37.2379817,-121.919624
PAST SALE,January-17-2018,Single Family Residential,1588 Hillsdale Ave,SAN JOSE,CA,95118,990000,4,2.5,SAN JOSE,1890,6890,1962,13,524,,Sold,,,http://www.redfin.com/CA/San-Jose/1588-Hillsdale-Ave-95118/home/855685,MLSListings,ML81685662,N,Y,37.2684218,-121.9016831
PAST SALE,January-15-2018,Single Family Residential,1515 Dentona Pl,SAN JOSE,CA,95118,1650000,4,2.5,SAN JOSE,2512,5090,2009,15,657,,Sold,,,http://www.redfin.com/CA/San-Jose/1515-Dentona-Pl-95118/home/21725365,MLSListings,ML81686606,N,Y,37.2455755,-121.8961684
PAST SALE,January-26-2018,Single Family Residential,3743 Arbuckle Dr,SAN JOSE,CA,95124,1375000,3,2.5,SAN JOSE,1595,6272,1958,4,862,,Sold,,,http://www.redfin.com/CA/San-Jose/3743-Arbuckle-Dr-95124/home/831765,MLSListings,ML81687198,N,Y,37.2604425,-121.92168
PAST SALE,January-18-2018,Single Family Residential,6432 Wellmeadow Ct,SAN JOSE,CA,95120,1650000,4,2.5,SAN JOSE,2651,9224,1972,12,622,,Sold,,,http://www.redfin.com/CA/San-Jose/6432-Wellmeadow-Ct-95120/home/1459649,MLSListings,ML81686903,N,Y,37.22292,-121.8773144
PAST SALE,,Single Family Residential,908 N 17th St,San Jose,CA,95112,375000,4,3.0,,2807,10250,1928,,134,,,,,http://www.redfin.com/CA/San-Jose/908-N-17th-St-95112/home/694773,,,N,Y,37.3616154,-121.8872631
PAST SALE,January-12-2018,Single Family Residential,1072 Calboro Dr,SAN JOSE,CA,95117,1750000,3,2.5,SAN JOSE,2008,7920,1958,18,872,,Sold,,,http://www.redfin.com/CA/San-Jose/1072-Calboro-Dr-95117/home/1643456,MLSListings,ML81685464,N,Y,37.3070667,-121.9580792
PAST SALE,January-9-2018,Townhouse,583 Heathertree Ln,SAN JOSE,CA,95129,1310000,3,2.5,SAN JOSE,1348,1360,1975,21,972,347,Sold,,,http://www.redfin.com/CA/San-Jose/583-Heathertree-Ln-95129/home/583267,MLSListings,ML81687017,N,Y,37.3161143,-121.9878133
PAST SALE,January-11-2018,Townhouse,4868 Cherrythorne Ln,SAN JOSE,CA,95129,1351000,3,2.5,SAN JOSE,1348,1385,1975,19,1002,330,Sold,,,http://www.redfin.com/CA/San-Jose/4868-Cherrythorne-Ln-95129/home/1230901,MLSListings,ML81686243,N,Y,37.317389,-121.988118
PAST SALE,January-12-2018,Single Family Residential,2135 W Hedding St,SAN JOSE,CA,95128,1218000,3,2.5,SAN JOSE,1478,7496,1957,18,824,,Sold,,,http://www.redfin.com/CA/San-Jose/2135-W-Hedding-St-95128/home/1329636,MLSListings,ML81686115,N,Y,37.3306052,-121.9380421
PAST SALE,January-4-2018,Single Family Residential,14560 Blossom Hill Rd,LOS GATOS,CA,95032,1625000,4,2.5,LOS GATOS,2135,11415,1964,26,761,,Sold,,,http://www.redfin.com/CA/Los-Gatos/14560-Blossom-Hill-Rd-95032/home/1060202,MLSListings,ML81685982,N,Y,37.235881,-121.923134
PAST SALE,January-15-2018,Single Family Residential,5530 Manderston Dr,SAN JOSE,CA,95138,1299800,3,2.5,SAN JOSE,1817,3997,1998,15,715,230,Sold,,,http://www.redfin.com/CA/San-Jose/5530-Manderston-Dr-95138/home/1619118,MLSListings,ML81681301,N,Y,37.2784559,-121.7678439
PAST SALE,January-26-2018,Townhouse,548 Mill River Ln,SAN JOSE,CA,95134,1120000,3,2.5,SAN JOSE,1887,1252,1991,4,594,440,Sold,,,http://www.redfin.com/CA/San-Jose/548-Mill-River-Ln-95134/home/1522558,MLSListings,ML81686416,N,Y,37.402203,-121.920829
PAST SALE,,Single Family Residential,2027 Inman Way,San Jose,CA,95122,216000,4,2.0,,1393,5800,1960,,155,,,,,http://www.redfin.com/CA/San-Jose/2027-Inman-Way-95122/home/1699436,,,N,Y,37.329851,-121.8284246
PAST SALE,January-5-2018,Single Family Residential,1977 Ceylon Ave,San Jose,CA,95122,599900,5,2.5,SJOS - San Jose,1450,5253,1960,25,414,,Sold,,,http://www.redfin.com/CA/San-Jose/1977-Ceylon-Ave-95122/home/894117,CRMLS,CV17258776,N,Y,37.3300629,-121.8253135
PAST SALE,January-3-2018,Single Family Residential,507 Bella Calais Way,SAN JOSE,CA,95138,1150000,4,2.5,SAN JOSE,1942,3879,1998,27,592,37,Sold,,,http://www.redfin.com/CA/San-Jose/507-Bella-Calais-Way-95138/home/1361818,MLSListings,ML81686097,N,Y,37.241344,-121.76008
PAST SALE,January-15-2018,Single Family Residential,498 Esplanade Ln,SAN JOSE,CA,95138,1065000,4,2.5,SAN JOSE,2060,4061,1998,15,517,37,Sold,,,http://www.redfin.com/CA/San-Jose/498-Esplanade-Ln-95138/home/1781934,MLSListings,ML81686011,N,Y,37.2404718,-121.7595401
PAST SALE,January-16-2018,Townhouse,570 Cityscape Pl,SAN JOSE,CA,95136,750000,2,2.5,SAN JOSE,1285,4325,1997,14,584,278,Sold,,,http://www.redfin.com/CA/San-Jose/570-Cityscape-Pl-95136/home/1404093,MLSListings,ML81687323,N,Y,37.27708,-121.858714
PAST SALE,January-24-2018,Single Family Residential,762 Upton Ct,SAN JOSE,CA,95136,1050000,4,2.5,SAN JOSE,2039,7281,1968,6,515,,Sold,,,http://www.redfin.com/CA/San-Jose/762-Upton-Ct-95136/home/1015519,MLSListings,ML81686201,N,Y,37.270015,-121.8642825
PAST SALE,January-19-2018,Townhouse,5219 Jacana Ln,SAN JOSE,CA,95123,715000,2,2.5,SAN JOSE,1052,1797,1988,11,680,213,Sold,,,http://www.redfin.com/CA/San-Jose/5219-Jacana-Ln-95123/home/1110357,MLSListings,ML81687457,N,Y,37.2584277,-121.8283427
PAST SALE,January-11-2018,Single Family Residential,3783 Marchant Ct,SAN JOSE,CA,95127,1224000,4,2.5,SAN JOSE,2999,8003,1993,19,408,,Sold,,,http://www.redfin.com/CA/San-Jose/3783-Marchant-Ct-95127/home/1851583,MLSListings,ML81681748,N,Y,37.3685414,-121.8052923
PAST SALE,January-26-2018,Townhouse,143 Cahill Park Dr,SAN JOSE,CA,95126,1030000,4,2.5,SAN JOSE,1650,600,2004,4,624,250,Sold,,,http://www.redfin.com/CA/San-Jose/143-Cahill-Park-Dr-95126/home/1667430,MLSListings,ML81685747,N,Y,37.32849,-121.904105
PAST SALE,January-26-2018,Single Family Residential,558 N 20th St,SAN JOSE,CA,95112,855000,3,2.5,SAN JOSE,1544,6196,1989,4,554,,Sold,,,http://www.redfin.com/CA/San-Jose/558-N-20th-St-95112/home/1279323,MLSListings,ML81685542,N,Y,37.3555188,-121.8789546
PAST SALE,January-19-2018,Townhouse,1699 Alder Creek Ct,SAN JOSE,CA,95148,730000,4,2.5,SAN JOSE,1780,2075,1974,11,410,380,Sold,,,http://www.redfin.com/CA/San-Jose/1699-Alder-Creek-Ct-95148/home/1448203,MLSListings,ML81679119,N,Y,37.352655,-121.794447
PAST SALE,January-4-2018,Single Family Residential,18 Paquita Espana Ct,MORGAN HILL,CA,95037,1050000,4,2.5,MORGAN HILL,2200,81457,1998,26,477,,Sold,,,http://www.redfin.com/CA/Morgan-Hill/18-Paquita-Espana-Ct-95037/home/1111093,MLSListings,ML81677019,N,Y,37.18571,-121.708579
PAST SALE,January-17-2018,Single Family Residential,459 Latona Ct,SAN JOSE,CA,95111,906000,4,2.5,SAN JOSE,2000,6000,1980,13,453,,Sold,,,http://www.redfin.com/CA/San-Jose/459-Latona-Ct-95111/home/1472030,MLSListings,ML81643256,N,Y,37.268977,-121.7991129
PAST SALE,January-5-2018,Single Family Residential,29 Cumin Ln,MORGAN HILL,CA,95037,715000,3,2.5,MORGAN HILL,1703,1577,2016,25,420,241,Sold,,,http://www.redfin.com/CA/Morgan-Hill/29-Cumin-Ln-95037/home/112869102,MLSListings,ML81655778,N,Y,37.1553356,-121.6777223
PAST SALE,January-25-2018,Townhouse,7007 Silver Brook Ct,SAN JOSE,CA,95120,1090000,3,2.5,SAN JOSE,1739,6092,1996,5,627,379,Sold,,,http://www.redfin.com/CA/San-Jose/7007-Silver-Brook-Ct-95120/home/759226,MLSListings,ML81687998,N,Y,37.207765,-121.8462
PAST SALE,January-5-2018,Townhouse,279 Palacio Royale Cir,SAN JOSE,CA,95116,529000,4,2.5,SAN JOSE,1474,966,1971,25,359,235,Sold,,,http://www.redfin.com/CA/San-Jose/279-Palacio-Royale-Cir-95116/home/889209,MLSListings,ML81685374,N,Y,37.3594159,-121.8526659
PAST SALE,,Single Family Residential,942 Nevada Ave,San Jose,CA,95125,1950000,4,3.0,,2871,5264,2007,,679,,,,,http://www.redfin.com/CA/San-Jose/942-Nevada-Ave-95125/home/1517696,,,N,Y,37.3026891,-121.8914144
PAST SALE,January-29-2018,Single Family Residential,1543 Phantom Ave,SAN JOSE,CA,95125,1870000,3,3.0,SAN JOSE,1880,7812,1955,1,995,,Sold,,,http://www.redfin.com/CA/San-Jose/1543-Phantom-Ave-95125/home/729966,MLSListings,ML81689754,N,Y,37.2967832,-121.9202036
PAST SALE,January-11-2018,Single Family Residential,3445 Hickerson Dr,SAN JOSE,CA,95127,888888,4,3.0,SAN JOSE,2450,10400,1969,19,363,,Sold,,,http://www.redfin.com/CA/San-Jose/3445-Hickerson-Dr-95127/home/1851586,MLSListings,ML81688600,N,Y,37.3611705,-121.8091209
PAST SALE,January-19-2018,Condo/Co-op,242 San Antonio Pl,SAN JOSE,CA,95116,850000,3,3.0,SAN JOSE,1762,867,2006,11,482,231,Sold,,,http://www.redfin.com/CA/San-Jose/242-San-Antonio-Pl-95116/home/12180947,MLSListings,ML81687022,N,Y,37.349752,-121.851176
PAST SALE,January-25-2018,Single Family Residential,7226 Golf Course Ln,SAN JOSE,CA,95139,1065000,5,3.0,SAN JOSE,2347,6050,1977,5,454,,Sold,,,http://www.redfin.com/CA/San-Jose/7226-Golf-Course-Ln-95139/home/1692328,MLSListings,ML81687607,N,Y,37.2222401,-121.7728541
PAST SALE,January-26-2018,Single Family Residential,1760 Maykirk Ct,SAN JOSE,CA,95124,2010000,4,3.0,SAN JOSE,3274,8848,1978,4,614,,Sold,,,http://www.redfin.com/CA/San-Jose/1760-Maykirk-Ct-95124/home/1568965,MLSListings,ML81685617,N,Y,37.2845962,-121.9145735
PAST SALE,January-4-2018,Townhouse,492 Umbria Pl,SAN JOSE,CA,95128,1180000,3,3.0,SAN JOSE,1507,768,2013,26,783,260,Sold,,,http://www.redfin.com/CA/San-Jose/492-Umbria-Pl-95128/home/95954285,MLSListings,ML81685752,N,Y,37.3188987,-121.9452029
PAST SALE,January-21-2018,Single Family Residential,5028 Joseph Ln,SAN JOSE,CA,95118,1280720,4,3.0,SAN JOSE,1734,6679,1963,9,739,,Sold,,,http://www.redfin.com/CA/San-Jose/5028-Joseph-Ln-95118/home/833565,MLSListings,ML81689712,N,Y,37.2494437,-121.9039759
PAST SALE,January-10-2018,Single Family Residential,2712 Clarion Ct,SAN JOSE,CA,95148,1149000,4,3.0,SAN JOSE,2587,8018,1987,20,444,,Sold,,,http://www.redfin.com/CA/San-Jose/2712-Clarion-Ct-95148/home/952962,MLSListings,ML81686487,N,Y,37.3386267,-121.7821368
PAST SALE,January-29-2018,Single Family Residential,4344 Stone Canyon Dr,SAN JOSE,CA,95136,1102000,4,3.0,SAN JOSE,1902,7299,1979,1,579,,Sold,,,http://www.redfin.com/CA/San-Jose/4344-Stone-Canyon-Dr-95136/home/1567882,MLSListings,ML81687345,N,Y,37.2728994,-121.83275
