SALE TYPE,SOLD DATE,PROPERTY TYPE,ADDRESS,CITY,STATE,ZIP,PRICE,BEDS,BATHS,LOCATION,SQUARE FEET,LOT SIZE,YEAR BUILT,DAYS ON MARKET,$/SQUARE FEET,HOA/MONTH,STATUS,NEXT OPEN HOUSE START TIME,NEXT OPEN HOUSE END TIME,URL (SEE http://www.redfin.com/buy-a-home/comparative-market-analysis FOR INFO ON PRICING),SOURCE,MLS#,FAVORITE,INTERESTED,LATITUDE,LONGITUDE
PAST SALE,February-15-2017,Condo/Co-op,795 N Fair Oaks Ave #9,SUNNYVALE,CA,94085,649000,2,1.0,SUNNYVALE,926,960,1972,349,701,336,Sold,,,http://www.redfin.com/CA/Sunnyvale/795-N-Fair-Oaks-Ave-94085/unit-9/home/1723101,MLSListings,ML81638989,N,Y,37.393379,-122.014617
PAST SALE,November-23-2016,Single Family Residential,502 S Sunnyvale Ave,SUNNYVALE,CA,94086,940000,3,1.0,SUNNYVALE,1302,6483,1947,433,722,,Sold,,,http://www.redfin.com/CA/Sunnyvale/502-S-Sunnyvale-Ave-94086/home/1623130,MLSListings,ML81584676,N,Y,37.3707588,-122.0307231
PAST SALE,August-4-2017,Condo/Co-op,880 E Fremont Ave #214,SUNNYVALE,CA,94087,672000,1,1.0,SUNNYVALE,713,1391,1987,179,942,315,Sold,,,http://www.redfin.com/CA/Sunnyvale/880-E-Fremont-Ave-94087/unit-214/home/2123924,MLSListings,ML81667817,N,Y,37.35183,-122.015045
PAST SALE,October-18-2017,Condo/Co-op,1640 Belleville Way,SUNNYVALE,CA,94087,840000,2,1.0,SUNNYVALE,834,1800,1971,104,1007,380,Sold,,,http://www.redfin.com/CA/Sunnyvale/1640-Belleville-Way-94087/home/1097175,MLSListings,ML81677696,N,Y,37.339472,-122.060506
PAST SALE,,Single Family Residential,1471 Hampton Dr,Sunnyvale,CA,94087,890000,2,1.0,,827,7068,1950,,1076,,,,,http://www.redfin.com/CA/Sunnyvale/1471-Hampton-Dr-94087/home/1503314,,,N,Y,37.3463988,-122.013408
PAST SALE,February-9-2017,Condo/Co-op,3715 Terstena Pl #208,SANTA CLARA,CA,95051,522000,1,1.0,SANTA CLARA,1040,1141,1982,355,502,465,Sold,,,http://www.redfin.com/CA/Santa-Clara/3715-Terstena-Pl-95051/unit-208/home/1278618,MLSListings,ML81631308,N,Y,37.357957,-121.998826
PAST SALE,October-11-2016,Condo/Co-op,3715 Terstena Pl #107,Santa Clara,CA,95051,485000,1,1.0,Santa Clara County,1040,1141,1982,476,466,464,Sold,,,http://www.redfin.com/CA/Santa-Clara/3715-Terstena-Pl-95051/unit-107/home/1355700,BAREIS,21619749,N,Y,37.357957,-121.998826
PAST SALE,,Single Family Residential,1398 Hampton Dr,Sunnyvale,CA,94087,1200000,3,1.0,,1014,7060,1950,,1183,,,,,http://www.redfin.com/CA/Sunnyvale/1398-Hampton-Dr-94087/home/829157,,,N,Y,37.348418,-122.0129081
PAST SALE,May-26-2016,Single Family Residential,950 Marion Way,SUNNYVALE,CA,94087,1360000,3,1.0,SUNNYVALE,1253,9424,1950,614,1085,,Sold,,,http://www.redfin.com/CA/Sunnyvale/950-Marion-Way-94087/home/624504,MLSListings,ML81579922,N,Y,37.3453246,-122.0119822
PAST SALE,,Single Family Residential,1965 Farndon Ave,Los Altos,CA,94024,2200000,3,1.0,,1516,10246,1955,,1451,,,,,http://www.redfin.com/CA/Los-Altos/1965-Farndon-Ave-94024/home/1401056,,,N,Y,37.3428378,-122.0667889
PAST SALE,April-20-2016,Condo/Co-op,999 W Evelyn Ter #66,SUNNYVALE,CA,94086,550777,1,1.0,SUNNYVALE,822,2750,1976,650,670,375,Sold,,,http://www.redfin.com/CA/Sunnyvale/999-Evelyn-Ter-W-94086/unit-66/home/1452975,MLSListings,ML81564718,N,Y,37.3705936,-122.0072236
PAST SALE,October-26-2016,Single Family Residential,678 Georgia Ave,SUNNYVALE,CA,94085,935000,3,1.0,SUNNYVALE,1008,6344,1953,461,928,,Sold,,,http://www.redfin.com/CA/Sunnyvale/678-Georgia-Ave-94085/home/1210517,MLSListings,ML81599955,N,Y,37.3920913,-122.0178622
PAST SALE,September-15-2016,Condo/Co-op,1001 E Evelyn Ter #132,SUNNYVALE,CA,94086,571000,2,1.0,SUNNYVALE,822,2613,1977,502,695,373,Sold,,,http://www.redfin.com/CA/Sunnyvale/1001-Evelyn-Ter-E-94086/unit-132/home/1138373,MLSListings,ML81596071,N,Y,37.370559,-122.005534
PAST SALE,September-30-2017,Condo/Co-op,3740 Miraverde Ct #127,SANTA CLARA,CA,95051,750000,2,1.0,SANTA CLARA,920,,1986,122,815,352,Sold,,,http://www.redfin.com/CA/Santa-Clara/3740-Miraverde-Ct-95051/unit-127/home/1562805,MLSListings,ML81675444,N,Y,37.3582409,-122.0002941
PAST SALE,October-27-2017,Condo/Co-op,767 N Fair Oaks Ave #7,SUNNYVALE,CA,94085,710000,2,1.0,SUNNYVALE,926,960,1972,95,767,336,Sold,,,http://www.redfin.com/CA/Sunnyvale/767-N-Fair-Oaks-Ave-94085/unit-7/home/880281,MLSListings,ML81680632,N,Y,37.393101,-122.0157
PAST SALE,July-18-2016,Condo/Co-op,999 W Evelyn Ter #100,SUNNYVALE,CA,94086,525000,1,1.0,SUNNYVALE,822,2748,1976,561,639,373,Sold,,,http://www.redfin.com/CA/Sunnyvale/999-Evelyn-Ter-W-94086/unit-100/home/1260056,MLSListings,ML81583442,N,Y,37.3705936,-122.0072236
PAST SALE,November-16-2016,Single Family Residential,315 Charles St,SUNNYVALE,CA,94086,1110000,3,1.0,SUNNYVALE,745,6500,1922,440,1490,,Sold,,,http://www.redfin.com/CA/Sunnyvale/315-Charles-St-94086/home/629055,MLSListings,ML81627058,N,Y,37.3750365,-122.0363282
PAST SALE,October-17-2017,Single Family Residential,1394 Lillian Ave,SUNNYVALE,CA,94087,1795000,3,1.0,SUNNYVALE,960,9250,1950,105,1870,,Sold,,,http://www.redfin.com/CA/Sunnyvale/1394-Lillian-Ave-94087/home/1530252,MLSListings,ML81678524,N,Y,37.3488932,-122.0177863
PAST SALE,January-5-2018,Single Family Residential,109 N Frances St,SUNNYVALE,CA,94086,1380000,2,1.0,SUNNYVALE,1176,6096,1926,25,1173,,Sold,,,http://www.redfin.com/CA/Sunnyvale/109-N-Frances-St-94086/home/1304017,MLSListings,ML81684154,N,Y,37.3792058,-122.0307658
PAST SALE,May-6-2016,Single Family Residential,822 Lori Ave,SUNNYVALE,CA,94086,1030000,3,1.0,SUNNYVALE,1000,5000,1950,634,1030,,Sold,,,http://www.redfin.com/CA/Sunnyvale/822-Lori-Ave-94086/home/1292346,MLSListings,ML81577409,N,Y,37.3837631,-122.0372716
PAST SALE,June-9-2017,Single Family Residential,218 Bradford Dr,SUNNYVALE,CA,94089,895000,3,1.0,SUNNYVALE,1086,5000,1953,235,824,,Sold,,,http://www.redfin.com/CA/Sunnyvale/218-Bradford-Dr-94089/home/1101158,MLSListings,ML81650666,N,Y,37.4027435,-122.0233841
PAST SALE,March-31-2017,Multi-Family (2-4 Unit),250-252 W California Ave,SUNNYVALE,CA,94086,1783000,6,,SUNNYVALE,2470,9350,1947,305,722,,Sold,,,http://www.redfin.com/CA/Sunnyvale/252-W-California-Ave-94086/home/659411,MLSListings,ML81636790,N,Y,37.381487,-122.031361
PAST SALE,May-3-2016,Condo/Co-op,1001 E Evelyn Ter #104,SUNNYVALE,CA,94086,565000,2,1.0,SUNNYVALE,822,2749,1977,637,687,373,Sold,,,http://www.redfin.com/CA/Sunnyvale/1001-Evelyn-Ter-E-94086/unit-104/home/1528372,MLSListings,ML81576891,N,Y,37.370559,-122.005534
PAST SALE,February-10-2017,Single Family Residential,2548 amethyst Dr,SANTA CLARA,CA,95051,840000,3,1.0,SANTA CLARA,897,5600,1955,354,936,,Sold,,,http://www.redfin.com/CA/Santa-Clara/2548-Amethyst-Dr-95051/home/1414872,MLSListings,ML81633159,N,Y,37.368604,-121.9835858
PAST SALE,,Condo/Co-op,1123 Reed Ave Apt A,Sunnyvale,CA,94086,676000,3,1.0,,1084,,1972,,624,,,,,http://www.redfin.com/CA/Sunnyvale/1123-Reed-Ave-94086/unit-A/home/1310609,,,N,Y,37.3684716,-121.9993046
PAST SALE,,Single Family Residential,330 Flora Vista Ave,Sunnyvale,CA,94086,850000,2,1.0,,1016,5029,1938,,837,,,,,http://www.redfin.com/CA/Sunnyvale/330-Flora-Vista-Ave-94086/home/1513403,,,N,Y,37.3727287,-122.0279345
PAST SALE,September-21-2017,Single Family Residential,302 Leota Ave,SUNNYVALE,CA,94086,1505000,3,1.0,SUNNYVALE,1066,5100,1953,131,1412,,Sold,,,http://www.redfin.com/CA/Sunnyvale/302-Leota-Ave-94086/home/627522,MLSListings,ML81674383,N,Y,37.3775532,-122.0503286
PAST SALE,May-8-2017,Single Family Residential,823 W Washington Ave,SUNNYVALE,CA,94086,1350000,2,1.0,SUNNYVALE,930,7350,1946,267,1452,,Sold,,,http://www.redfin.com/CA/Sunnyvale/823-W-Washington-Ave-94086/home/1008201,MLSListings,ML81647482,N,Y,37.3780467,-122.0391702
PAST SALE,November-4-2016,Mobile/Manufactured Home,1201 Sycamore Ter #50,SUNNYVALE,CA,94086,75000,1,1.0,SUNNYVALE,672,,1982,452,112,,Sold,,,http://www.redfin.com/CA/Sunnyvale/1201-Sycamore-Ter-94086/unit-50/home/109478787,MLSListings,ML81630510,N,Y,37.3544024,-122.0028495
PAST SALE,,Condo/Co-op,220 Red Oak Dr W Apt A,Sunnyvale,CA,94086,681000,2,1.0,,926,,1971,,735,,,,,http://www.redfin.com/CA/Sunnyvale/220-Red-Oak-Dr-W-94086/unit-A/home/669021,,,N,Y,37.3717753,-122.0100998
PAST SALE,November-3-2017,Condo/Co-op,1115 Reed Ave Unit D,SUNNYVALE,CA,94086,648000,2,1.0,SUNNYVALE,840,840,1972,88,771,394,Sold,,,http://www.redfin.com/CA/Sunnyvale/1115-Reed-Ave-94086/unit-D/home/1317866,MLSListings,ML81680299,N,Y,37.368179,-121.999887
PAST SALE,April-26-2017,Townhouse,20124 Northwind Sq,CUPERTINO,CA,95014,930000,1,1.0,CUPERTINO,1062,1680,1973,279,876,352,Sold,,,http://www.redfin.com/CA/Cupertino/20124-Northwind-Sq-95014/home/766152,MLSListings,ML81643455,N,Y,37.336962,-122.024207
PAST SALE,April-1-2016,Condo/Co-op,785 N Fair Oaks Ave #2,SUNNYVALE,CA,94085,560000,2,1.0,SUNNYVALE,926,958,1972,669,605,336,Sold,,,http://www.redfin.com/CA/Sunnyvale/785-N-Fair-Oaks-Ave-94085/unit-2/home/1092457,MLSListings,ML81550446,N,Y,37.393474,-122.0156
PAST SALE,August-19-2016,Single Family Residential,638 Bryan Ave,SUNNYVALE,CA,94086,920000,3,1.0,SUNNYVALE,1040,5100,1952,529,885,,Sold,,,http://www.redfin.com/CA/Sunnyvale/638-Bryan-Ave-94086/home/1228973,MLSListings,ML81585585,N,Y,37.3719508,-122.0201474
PAST SALE,December-20-2016,Townhouse,1030 Michelangelo Dr,SUNNYVALE,CA,94087,817000,2,1.0,SUNNYVALE,900,1575,1972,406,908,394,Sold,,,http://www.redfin.com/CA/Sunnyvale/1030-Michelangelo-Dr-94087/home/1224317,MLSListings,ML81631998,N,Y,37.356592,-122.023697
PAST SALE,,Single Family Residential,574 Morse Ave,Sunnyvale,CA,94085,955000,3,1.0,,1044,5184,1950,,915,,,,,http://www.redfin.com/CA/Sunnyvale/574-Morse-Ave-94085/home/646204,,,N,Y,37.3885234,-122.0200853
PAST SALE,,Condo/Co-op,795 N Fair Oaks Ave Apt 7,Sunnyvale,CA,94085,420000,2,1.0,,926,,1972,,454,,,,,http://www.redfin.com/CA/Sunnyvale/795-N-Fair-Oaks-Ave-94085/unit-7/home/657186,,,N,Y,37.393379,-122.014617
PAST SALE,October-26-2017,Single Family Residential,1436 Hampton Dr,SUNNYVALE,CA,94087,1550000,2,1.0,SUNNYVALE,827,7068,1950,96,1874,,Sold,,,http://www.redfin.com/CA/Sunnyvale/1436-Hampton-Dr-94087/home/1604597,MLSListings,ML81681605,Y,Y,37.3473493,-122.0129489
PAST SALE,July-11-2017,Townhouse,215 W Red Oak Dr Unit G,SUNNYVALE,CA,94086,720000,2,1.0,SUNNYVALE,926,1440,1971,203,778,405,Sold,,,http://www.redfin.com/CA/Sunnyvale/215-Red-Oak-Dr-W-94086/unit-G/home/1670109,MLSListings,ML81654876,N,Y,37.3718248,-122.0109178
PAST SALE,January-18-2018,Single Family Residential,183 N Sunnyvale Ave,SUNNYVALE,CA,94086,1300000,2,1.0,SUNNYVALE,1112,7005,1915,12,1169,,Sold,,,http://www.redfin.com/CA/Sunnyvale/183-N-Sunnyvale-Ave-94086/home/1786055,MLSListings,ML81686350,N,Y,37.3801402,-122.0279696
PAST SALE,October-26-2016,Single Family Residential,1210 Lynn Way,SUNNYVALE,CA,94087,1350000,3,1.0,SUNNYVALE,1151,5000,1952,461,1173,,Sold,,,http://www.redfin.com/CA/Sunnyvale/1210-Lynn-Way-94087/home/1751696,MLSListings,ML81614281,N,Y,37.3685149,-122.0580892
PAST SALE,April-26-2016,Single Family Residential,323 N Sunnyvale Ave,SUNNYVALE,CA,94085,905000,2,1.0,SUNNYVALE,879,7226,1942,644,1030,,Sold,,,http://www.redfin.com/CA/Sunnyvale/323-N-Sunnyvale-Ave-94085/home/1310245,MLSListings,ML81564742,N,Y,37.3846383,-122.0263905
PAST SALE,November-15-2017,Condo/Co-op,578 Ironwood Ter #12,SUNNYVALE,CA,94086,574000,1,1.0,SUNNYVALE,763,,1983,76,752,315,Sold,,,http://www.redfin.com/CA/Sunnyvale/578-Ironwood-Ter-94086/unit-12/home/969321,MLSListings,ML81684941,N,Y,37.367315,-122.019046
PAST SALE,April-22-2016,Condo/Co-op,971 Belmont Ter #7,SUNNYVALE,CA,94086,650000,2,1.0,SUNNYVALE,854,435,1986,648,761,467,Sold,,,http://www.redfin.com/CA/Sunnyvale/971-Belmont-Ter-94086/unit-7/home/543145,MLSListings,ML81565671,N,Y,37.3841729,-122.042151
PAST SALE,September-12-2017,Condo/Co-op,771 N Fair Oaks Ave #1,SUNNYVALE,CA,94085,658500,2,1.0,SUNNYVALE,926,960,1972,140,711,361,Sold,,,http://www.redfin.com/CA/Sunnyvale/771-N-Fair-Oaks-Ave-94085/unit-1/home/941869,MLSListings,ML81673558,N,Y,37.393175,-122.015968
PAST SALE,,Single Family Residential,301 Jackson St,Sunnyvale,CA,94085,1080000,3,1.0,,1119,5500,1948,,965,,,,,http://www.redfin.com/CA/Sunnyvale/301-Jackson-St-94085/home/660205,,,N,Y,37.3833027,-122.024956
PAST SALE,September-27-2017,Townhouse,10961 Northsky Sq,CUPERTINO,CA,95014,943888,1,1.0,CUPERTINO,1062,1680,1973,125,889,352,Sold,,,http://www.redfin.com/CA/Cupertino/10961-Northsky-Sq-95014/home/1754602,MLSListings,ML81656496,N,Y,37.336821,-122.026581
PAST SALE,,Single Family Residential,626 N Bayview Ave,Sunnyvale,CA,94085,313000,3,1.0,,1056,5610,1952,,296,,,,,http://www.redfin.com/CA/Sunnyvale/626-N-Bayview-Ave-94085/home/1467542,,,N,Y,37.3910073,-122.0202448
PAST SALE,October-13-2017,Condo/Co-op,1031 Crestview Dr #218,MOUNTAIN VIEW,CA,94040,630000,1,1.0,MOUNTAIN VIEW,855,1332,1969,109,737,425,Sold,,,http://www.redfin.com/CA/Mountain-View/1031-Crestview-Dr-94040/unit-218/home/1281246,MLSListings,ML81675266,N,Y,37.3737079,-122.059551
PAST SALE,September-27-2017,Single Family Residential,1055 Lackawanna Ct,SUNNYVALE,CA,94087,1750000,2,1.0,SUNNYVALE,925,6000,1953,125,1892,,Sold,,,http://www.redfin.com/CA/Sunnyvale/1055-Lackawanna-Ct-94087/home/869385,MLSListings,ML81675939,N,Y,37.362904,-122.0545725
PAST SALE,July-18-2016,Single Family Residential,419 N Fernwood Cir,SUNNYVALE,CA,94085,960000,3,1.0,SUNNYVALE,1056,6360,1952,561,909,,Sold,,,http://www.redfin.com/CA/Sunnyvale/419-N-Fernwood-Cir-94085/home/1488167,MLSListings,ML81590772,N,Y,37.3921743,-122.0193798
PAST SALE,May-19-2017,Single Family Residential,1016 Fig,SUNNYVALE,CA,94087,1620000,3,1.0,SUNNYVALE,1066,7200,1954,256,1520,,Sold,,,http://www.redfin.com/CA/Sunnyvale/1016-Fig-Ave-94087/home/650508,MLSListings,ML81647021,N,Y,37.3631464,-122.0567789
PAST SALE,May-10-2017,Single Family Residential,1222 Heatherstone Way,SUNNYVALE,CA,94087,1660000,3,1.0,SUNNYVALE,1065,5800,1953,265,1559,,Sold,,,http://www.redfin.com/CA/Sunnyvale/1222-Heatherstone-Way-94087/home/1427758,MLSListings,ML81643309,N,Y,37.3672329,-122.0589785
PAST SALE,,Single Family Residential,1067 Mango Ave,Sunnyvale,CA,94087,1600000,3,1.0,,1161,6000,1953,,1378,,,,,http://www.redfin.com/CA/Sunnyvale/1067-Mango-Ave-94087/home/1355107,,,N,Y,37.3604686,-122.0543118
PAST SALE,March-4-2016,Single Family Residential,867 Dwight Ave,SUNNYVALE,CA,94086,830000,2,1.0,SUNNYVALE,910,5000,1944,697,912,,Sold,,,http://www.redfin.com/CA/Sunnyvale/867-Dwight-Ave-94086/home/1346616,MLSListings,ML81547457,N,Y,37.3767786,-122.017918
PAST SALE,,Condo/Co-op,625 E El Camino Real Unit 101,Sunnyvale,CA,94087,260500,1,1.0,,590,,2006,,442,,,,,http://www.redfin.com/CA/Sunnyvale/625-E-El-Camino-Real-94087/unit-101/home/12179601,,,N,Y,37.3617959,-122.023736
PAST SALE,September-15-2016,Condo/Co-op,1001 E Evelyn Ter #177,SUNNYVALE,CA,94086,600000,2,1.0,SUNNYVALE,822,2750,1977,502,730,373,Sold,,,http://www.redfin.com/CA/Sunnyvale/1001-Evelyn-Ter-E-94086/unit-177/home/669398,MLSListings,ML81599319,N,Y,37.370559,-122.005534
PAST SALE,,Condo/Co-op,811 W California Ave,Sunnyvale,CA,94086,698000,2,1.0,,760,,1983,,918,,,,,http://www.redfin.com/CA/Sunnyvale/811-W-California-Ave-94086/home/1528956,,,N,Y,37.3834315,-122.0372027
PAST SALE,February-19-2016,Condo/Co-op,929 E El Camino Real Unit 110C,SUNNYVALE,CA,94087,555000,2,1.0,SUNNYVALE,747,1197,1988,711,743,425,Sold,,,http://www.redfin.com/CA/Sunnyvale/929-E-El-Camino-Real-94087/unit-110C/home/102618044,MLSListings,ML81546433,N,Y,37.3534488,-122.0120835
PAST SALE,March-21-2016,Condo/Co-op,999 Evelyn Te Ter #27,SUNNYVALE,CA,94086,510000,1,1.0,SUNNYVALE,822,2750,1976,680,620,373,Sold,,,http://www.redfin.com/CA/Sunnyvale/999-Evelyn-Ter-94086/unit-27/home/113738351,MLSListings,ML81550706,N,Y,37.3709715,-122.0073505
PAST SALE,,Multi-Family (2-4 Unit),275 Roosevelt Ave,Sunnyvale,CA,94086,960000,2,1.0,,1750,6916,1951,,549,,,,,http://www.redfin.com/CA/Sunnyvale/275-Roosevelt-Ave-94086/home/730138,,,N,Y,37.3817121,-122.0221552
PAST SALE,May-31-2016,Condo/Co-op,1139 Reed Ave Unit D,SUNNYVALE,CA,94086,590000,2,1.0,SUNNYVALE,905,923,1972,609,652,379,Sold,,,http://www.redfin.com/CA/Sunnyvale/1139-Reed-Ave-94086/unit-D/home/622266,MLSListings,ML81582827,N,Y,37.367798,-121.998456
PAST SALE,May-17-2016,Townhouse,979 Pinto Palm Ter #17,SUNNYVALE,CA,94087,595000,1,1.0,SUNNYVALE,764,466,1995,623,779,164,Sold,,,http://www.redfin.com/CA/Sunnyvale/979-Pinto-Palm-Ter-94087/unit-17/home/1488643,MLSListings,ML81578770,N,Y,37.353416,-122.009048
PAST SALE,August-4-2016,Condo/Co-op,1083 Reed Ave Unit C,SUNNYVALE,CA,94086,579000,2,1.0,SUNNYVALE,917,775,1972,544,631,379,Sold,,,http://www.redfin.com/CA/Sunnyvale/1083-Reed-Ave-94086/unit-C/home/880674,MLSListings,ML81588179,N,Y,37.3670988,-121.9998894
PAST SALE,,Single Family Residential,556 Kirk Ave,Sunnyvale,CA,94085,250000,3,1.0,,1076,5820,1950,,232,,,,,http://www.redfin.com/CA/Sunnyvale/556-Kirk-Ave-94085/home/730085,,,N,Y,37.3886017,-122.0235323
PAST SALE,April-7-2016,Single Family Residential,562 Cypress Ave,SUNNYVALE,CA,94085,903000,2,1.0,SUNNYVALE,1009,5048,1952,663,895,,Sold,,,http://www.redfin.com/CA/Sunnyvale/562-Cypress-Ave-94085/home/764604,MLSListings,ML81563325,N,Y,37.3882365,-122.0170965
PAST SALE,April-5-2016,Condo/Co-op,999 W Evelyn Ter #67,SUNNYVALE,CA,94086,575000,2,1.0,SUNNYVALE,822,2750,1976,665,700,373,Sold,,,http://www.redfin.com/CA/Sunnyvale/999-Evelyn-Ter-W-94086/unit-67/home/644493,MLSListings,ML81562670,N,Y,37.3705936,-122.0072236
PAST SALE,October-19-2017,Condo/Co-op,1720 Halford Ave #330,SANTA CLARA,CA,95051,455000,1,1.0,SANTA CLARA,678,1554,1970,103,671,478,Sold,,,http://www.redfin.com/CA/Santa-Clara/1720-Halford-Ave-95051/unit-330/home/1590374,MLSListings,ML81677165,N,Y,37.354915,-121.999042
PAST SALE,March-8-2016,Condo/Co-op,999 W Evelyn Ter #89,SUNNYVALE,CA,94086,575000,1,1.0,SUNNYVALE,822,2750,1976,693,700,373,Sold,,,http://www.redfin.com/CA/Sunnyvale/999-Evelyn-Ter-W-94086/unit-89/home/1398531,MLSListings,ML81548588,N,Y,37.3705936,-122.0072236
PAST SALE,March-4-2016,Single Family Residential,427 Roosevelt Ave,SUNNYVALE,CA,94085,950000,2,1.0,SUNNYVALE,1144,7000,1949,697,830,,Sold,,,http://www.redfin.com/CA/Sunnyvale/427-Roosevelt-Ave-94085/home/659208,MLSListings,ML81547428,N,Y,37.384869,-122.0210952
PAST SALE,,Single Family Residential,549 W Washington Ave,Sunnyvale,CA,94086,950000,1,1.0,,484,4500,1920,,1963,,,,,http://www.redfin.com/CA/Sunnyvale/549-W-Washington-Ave-94086/home/629564,,,N,Y,37.3773409,-122.035847
PAST SALE,July-20-2016,Condo/Co-op,1720 Halford Ave #334,SANTA CLARA,CA,95051,420000,1,1.0,SANTA CLARA,678,1555,1970,559,619,454,Sold,,,http://www.redfin.com/CA/Santa-Clara/1720-Halford-Ave-95051/unit-334/home/1711642,MLSListings,ML81585893,N,Y,37.354915,-121.999042
PAST SALE,June-9-2016,Condo/Co-op,425 Costa Mesa Ter Unit F,SUNNYVALE,CA,94085,658000,2,1.0,SUNNYVALE,880,901,1985,600,748,345,Sold,,,http://www.redfin.com/CA/Sunnyvale/425-Costa-Mesa-Ter-94085/unit-F/home/1463415,MLSListings,ML81587018,N,Y,37.3915654,-122.0443715
PAST SALE,July-13-2016,Condo/Co-op,1001 E Evelyn Ter #186,SUNNYVALE,CA,94086,589875,2,1.0,SUNNYVALE,822,2750,1977,566,718,373,Sold,,,http://www.redfin.com/CA/Sunnyvale/1001-Evelyn-Ter-E-94086/unit-186/home/670555,MLSListings,ML81588247,N,Y,37.370559,-122.005534
PAST SALE,September-16-2016,Single Family Residential,401 S Fernwood Cir,SUNNYVALE,CA,94085,960000,3,1.0,SUNNYVALE,1056,5301,1952,501,909,,Sold,,,http://www.redfin.com/CA/Sunnyvale/401-S-Fernwood-Cir-94085/home/1138033,MLSListings,ML81599860,N,Y,37.3915809,-122.0202587
PAST SALE,May-5-2017,Condo/Co-op,236 E Red Oak Drive #S,SUNNYVALE,CA,94086,715000,2,1.0,SUNNYVALE,926,,1971,270,772,405,Sold,,,http://www.redfin.com/CA/Sunnyvale/236-Red-Oak-Dr-E-94086/home/1414659,MLSListings,ML81645469,N,Y,37.3707322,-122.008858
PAST SALE,May-12-2017,Single Family Residential,172 Waverly St,SUNNYVALE,CA,94086,1225000,2,1.0,SUNNYVALE,672,6000,1920,263,1823,,Sold,,,http://www.redfin.com/CA/Sunnyvale/172-Waverly-St-94086/home/1667308,MLSListings,ML81645676,N,Y,37.3781347,-122.0370322
PAST SALE,December-8-2017,Condo/Co-op,880 E Fremont Ave #324,SUNNYVALE,CA,94087,690000,1,1.0,SUNNYVALE,713,1391,1987,53,968,315,Sold,,,http://www.redfin.com/CA/Sunnyvale/880-E-Fremont-Ave-94087/unit-324/home/2123941,MLSListings,ML81684167,N,Y,37.35183,-122.015045
PAST SALE,,Single Family Residential,375 Orchard Ave,Sunnyvale,CA,94085,995000,2,1.0,,790,5200,1942,,1259,,,,,http://www.redfin.com/CA/Sunnyvale/375-Orchard-Ave-94085/home/1592487,,,N,Y,37.3872512,-122.0284409
PAST SALE,,Single Family Residential,366 Orchard Ave,Sunnyvale,CA,94085,750000,2,1.0,,790,5200,1942,,949,,,,,http://www.redfin.com/CA/Sunnyvale/366-Orchard-Ave-94085/home/658910,,,N,Y,37.3868904,-122.0280674
PAST SALE,August-17-2017,Single Family Residential,152 S Bayview Ave,SUNNYVALE,CA,94086,1428000,2,1.0,SUNNYVALE,1112,6580,1939,166,1284,,Sold,,,http://www.redfin.com/CA/Sunnyvale/152-S-Bayview-Ave-94086/home/1092642,MLSListings,ML81672450,N,Y,37.3757577,-122.0259727
PAST SALE,May-17-2017,Single Family Residential,805 Gary Ave,SUNNYVALE,CA,94086,1320000,3,1.0,SUNNYVALE,1215,13205,1952,258,1086,,Sold,,,http://www.redfin.com/CA/Sunnyvale/805-Gary-Ave-94086/home/664121,MLSListings,ML81643085,N,Y,37.359217,-122.017655
PAST SALE,July-11-2017,Condo/Co-op,999 W Evelyn Ter #95,SUNNYVALE,CA,94086,575000,1,1.0,SUNNYVALE,822,2750,1976,203,700,381,Sold,,,http://www.redfin.com/CA/Sunnyvale/999-Evelyn-Ter-W-94086/unit-95/home/669227,MLSListings,ML81652874,N,Y,37.3705936,-122.0072236
PAST SALE,December-8-2017,Single Family Residential,482 Morse Ave,SUNNYVALE,CA,94085,1371000,3,1.0,SUNNYVALE,917,7000,1947,53,1495,,Sold,,,http://www.redfin.com/CA/Sunnyvale/482-Morse-Ave-94085/home/1310259,MLSListings,ML81682775,N,Y,37.386172,-122.021237
PAST SALE,,Condo/Co-op,795 N Fair Oaks Ave Apt 12,Sunnyvale,CA,94085,500000,2,1.0,,926,,1972,,540,,,,,http://www.redfin.com/CA/Sunnyvale/795-N-Fair-Oaks-Ave-94085/unit-12/home/764590,,,N,Y,37.393379,-122.014617
PAST SALE,August-18-2017,Single Family Residential,254 Beemer Ave,SUNNYVALE,CA,94086,1080000,2,1.0,SUNNYVALE,773,3248,1947,165,1397,,Sold,,,http://www.redfin.com/CA/Sunnyvale/254-Beemer-Ave-94086/home/659396,MLSListings,ML81669556,N,Y,37.3803618,-122.0307553
PAST SALE,August-25-2017,Townhouse,224 E Red Oak Dr Unit R,SUNNYVALE,CA,94086,752000,2,1.0,SUNNYVALE,926,1440,1971,158,812,405,Sold,,,http://www.redfin.com/CA/Sunnyvale/224-Red-Oak-Dr-E-94086/unit-R/home/670280,MLSListings,ML81670494,N,Y,37.3712329,-122.0086923
PAST SALE,,Condo/Co-op,209 Red Oak Dr E Apt Q,Sunnyvale,CA,94086,750000,2,1.0,,926,,1971,,810,,,,,http://www.redfin.com/CA/Sunnyvale/209-Red-Oak-Dr-E-94086/unit-Q/home/670324,,,N,Y,37.3721068,-122.0094111
PAST SALE,January-9-2018,Condo/Co-op,999 W Evelyn Ter #6,SUNNYVALE,CA,94086,735000,1,1.0,SUNNYVALE,822,2750,1976,21,894,381,Sold,,,http://www.redfin.com/CA/Sunnyvale/999-Evelyn-Ter-W-94086/unit-6/home/1180337,MLSListings,ML81686440,N,Y,37.3705936,-122.0072236
PAST SALE,September-27-2017,Condo/Co-op,605 Arcadia Ter #102,SUNNYVALE,CA,94085,656000,1,1.0,SUNNYVALE,867,1161,1994,125,757,338,Sold,,,http://www.redfin.com/CA/Sunnyvale/605-Arcadia-Ter-94085/unit-102/home/1275830,MLSListings,ML81676267,N,Y,37.3925096,-122.0131164
PAST SALE,May-12-2017,Condo/Co-op,795 N Fair Oaks Ave #2,SUNNYVALE,CA,94085,650000,2,1.0,SUNNYVALE,926,960,1972,263,702,336,Sold,,,http://www.redfin.com/CA/Sunnyvale/795-N-Fair-Oaks-Ave-94085/unit-2/home/1187777,MLSListings,ML81645266,N,Y,37.393379,-122.014617
PAST SALE,June-23-2017,Single Family Residential,565 E Arbor Ave,SUNNYVALE,CA,94085,1100000,3,1.0,SUNNYVALE,1009,5050,1952,221,1090,,Sold,,,http://www.redfin.com/CA/Sunnyvale/565-E-Arbor-Ave-94085/home/1223972,MLSListings,ML81653493,N,Y,37.3872851,-122.0172453
PAST SALE,July-6-2017,Condo/Co-op,708 San Conrado Ter #2,SUNNYVALE,CA,94085,580000,1,1.0,SUNNYVALE,784,2250,1986,208,740,339,Sold,,,http://www.redfin.com/CA/Sunnyvale/708-San-Conrado-Ter-94085/unit-2/home/1827941,MLSListings,ML81651154,N,Y,37.3925034,-122.0155496
PAST SALE,,Single Family Residential,633 Bernal Ave,Sunnyvale,CA,94085,231000,3,1.0,,999,6032,1953,,231,,,,,http://www.redfin.com/CA/Sunnyvale/633-Bernal-Ave-94085/home/689733,,,N,Y,37.3892606,-122.0141481
PAST SALE,November-8-2017,Condo/Co-op,785 N Fair Oaks Ave #1,SUNNYVALE,CA,94085,655000,2,1.0,SUNNYVALE,926,960,1972,83,707,336,Sold,,,http://www.redfin.com/CA/Sunnyvale/785-N-Fair-Oaks-Ave-94085/unit-1/home/655645,MLSListings,ML81682067,N,Y,37.393474,-122.0156
PAST SALE,January-17-2017,Single Family Residential,639 Johanna Ave,SUNNYVALE,CA,94085,935000,3,1.0,SUNNYVALE,999,6032,1953,378,936,,Sold,,,http://www.redfin.com/CA/Sunnyvale/639-Johanna-Ave-94085/home/662239,MLSListings,ML81632889,N,Y,37.3892017,-122.0131696
PAST SALE,,Single Family Residential,462 Morse Ave,Sunnyvale,CA,94085,1416000,3,1.0,,1055,7000,1948,,1342,,,,,http://www.redfin.com/CA/Sunnyvale/462-Morse-Ave-94085/home/1083980,,,N,Y,37.3857966,-122.0214668
PAST SALE,April-8-2016,Condo/Co-op,611 N SAN CONRADO Ter #2,SUNNYVALE,CA,94085,566375,1,1.0,SUNNYVALE,784,2250,1985,662,722,330,Sold,,,http://www.redfin.com/CA/Sunnyvale/611-San-Conrado-Ter-94085/unit-2/home/1096355,MLSListings,ML81563494,N,Y,37.3915908,-122.0164662
PAST SALE,April-27-2017,Townhouse,1239 Picasso Dr,SUNNYVALE,CA,94087,950088,2,1.0,SUNNYVALE,900,1575,1972,278,1056,402,Sold,,,http://www.redfin.com/CA/Sunnyvale/1239-Picasso-Dr-94087/home/1786223,MLSListings,ML81645452,N,Y,37.3536689,-122.02386
PAST SALE,December-6-2017,Single Family Residential,591 Bryan Ave,Sunnyvale,CA,94086-6420,1500000,3,1.0,Santa Clara,1226,5400,1948,55,1223,,Sold,,,http://www.redfin.com/CA/Sunnyvale/591-Bryan-Ave-94086/home/1623053,EBRD/CCAR/Bay East,40802999,N,Y,37.3730762,-122.0216563
PAST SALE,April-12-2016,Single Family Residential,399 N Murphy Ave,SUNNYVALE,CA,94085,933620,3,1.0,SUNNYVALE,1106,8250,1942,658,844,,Sold,,,http://www.redfin.com/CA/Sunnyvale/399-N-Murphy-Ave-94085/home/658918,MLSListings,ML81563158,N,Y,37.3880628,-122.0264405
PAST SALE,,Single Family Residential,355 Bishop Ave,Sunnyvale,CA,94086,1200000,2,1.0,,1248,6993,1952,,962,,,,,http://www.redfin.com/CA/Sunnyvale/355-Bishop-Ave-94086/home/666877,,,N,Y,37.3700579,-122.0290333
PAST SALE,,Single Family Residential,397 Vine Ave,Sunnyvale,CA,94086,1500000,3,1.0,,1536,5200,1943,,977,,,,,http://www.redfin.com/CA/Sunnyvale/397-Vine-Ave-94086/home/1092726,,,N,Y,37.3715719,-122.0270061
PAST SALE,,Single Family Residential,760 Madrone Ave,Sunnyvale,CA,94085,192000,3,1.0,,1027,5000,1953,,187,,,,,http://www.redfin.com/CA/Sunnyvale/760-Madrone-Ave-94085/home/654946,,,N,Y,37.3957677,-122.0248201
PAST SALE,September-22-2017,Single Family Residential,295 Beechnut Ave,SUNNYVALE,CA,94085,1282000,3,1.0,SUNNYVALE,1200,5824,1951,130,1068,,Sold,,,http://www.redfin.com/CA/Sunnyvale/295-Beechnut-Ave-94085/home/1393029,MLSListings,ML81673716,N,Y,37.3909924,-122.0280274
PAST SALE,,Single Family Residential,393 N Murphy Ave,Sunnyvale,CA,94085,212000,2,1.0,,900,5200,1942,,236,,,,,http://www.redfin.com/CA/Sunnyvale/393-N-Murphy-Ave-94085/home/658926,,,N,Y,37.3877423,-122.026548
PAST SALE,,Condo/Co-op,999 Evelyn Ter W Apt 97,Sunnyvale,CA,94086,495000,1,1.0,,822,,1976,,602,,,,,http://www.redfin.com/CA/Sunnyvale/999-Evelyn-Ter-W-94086/unit-97/home/1671292,,,N,Y,37.3705936,-122.0072236
PAST SALE,May-16-2017,Single Family Residential,559 S Taaffe,SUNNYVALE,CA,94086,1350000,2,1.0,SUNNYVALE,1010,5000,1935,259,1337,,Sold,,,http://www.redfin.com/CA/Sunnyvale/559-S-Taaffe-St-94086/home/1684846,MLSListings,ML81647373,N,Y,37.3701252,-122.0349376
PAST SALE,November-21-2016,Condo/Co-op,1031 Crestview Dr #112,MOUNTAIN VIEW,CA,94040,568000,1,1.0,MOUNTAIN VIEW,855,1332,1969,435,664,412,Sold,,,http://www.redfin.com/CA/Mountain-View/1031-Crestview-Dr-94040/unit-112/home/1376293,MLSListings,ML81626812,N,Y,37.3737079,-122.059551
PAST SALE,April-29-2016,Condo/Co-op,1001 E Evelyn Ter #112,SUNNYVALE,CA,94086,610000,2,1.0,SUNNYVALE,822,2748,1977,641,742,373,Sold,,,http://www.redfin.com/CA/Sunnyvale/1001-Evelyn-Ter-E-94086/unit-112/home/1161621,MLSListings,ML81564878,N,Y,37.370559,-122.005534
PAST SALE,May-5-2016,Single Family Residential,966 Cambridge Ave,SUNNYVALE,CA,94087,1528888,3,1.0,SUNNYVALE,1040,5663,1954,635,1470,,Sold,,,http://www.redfin.com/CA/Sunnyvale/966-Cambridge-Ave-94087/home/821805,MLSListings,ML81565440,N,Y,37.367702,-122.0482551
PAST SALE,June-23-2017,Single Family Residential,206 S Pastoria Ave,SUNNYVALE,CA,94086,1450000,3,1.0,SUNNYVALE,1100,5550,1920,221,1318,,Sold,,,http://www.redfin.com/CA/Sunnyvale/206-S-Pastoria-Ave-94086/home/628689,MLSListings,ML81651933,N,Y,37.3774991,-122.0382067
PAST SALE,October-27-2016,Condo/Co-op,605 Arcadia Ter #104,SUNNYVALE,CA,94085,580000,1,1.0,SUNNYVALE,867,1163,1994,460,669,312,Sold,,,http://www.redfin.com/CA/Sunnyvale/605-Arcadia-Ter-94085/unit-104/home/897651,MLSListings,ML81613201,N,Y,37.3925096,-122.0131164
PAST SALE,November-10-2016,Single Family Residential,748 Manzanita Ave,SUNNYVALE,CA,94085,865000,3,1.0,SUNNYVALE,1027,5082,1953,446,842,,Sold,,,http://www.redfin.com/CA/Sunnyvale/748-Manzanita-Ave-94085/home/1508804,MLSListings,ML81630414,N,Y,37.3953421,-122.0240847
PAST SALE,August-22-2017,Condo/Co-op,3755 Terstena Pl #172,SANTA CLARA,CA,95051,680888,2,1.0,SANTA CLARA,912,,1986,161,747,466,Sold,,,http://www.redfin.com/CA/Santa-Clara/3755-Terstena-Pl-95051/unit-172/home/1045729,MLSListings,ML81653584,N,Y,37.3579359,-121.9995519
PAST SALE,,Condo/Co-op,1750 Halford Ave Apt 105,Santa Clara,CA,95051,102000,1,1.0,,678,,1970,,150,,,,,http://www.redfin.com/CA/Santa-Clara/1750-Halford-Ave-95051/unit-105/home/1024465,,,N,Y,37.3557149,-121.998715
PAST SALE,September-15-2017,Townhouse,125 Connemara Way #24,SUNNYVALE,CA,94087,921000,2,1.0,SUNNYVALE,900,2340,1971,137,1023,300,Sold,,,http://www.redfin.com/CA/Sunnyvale/125-Connemara-Way-94087/unit-24/home/1739318,MLSListings,ML81675773,N,Y,37.3471379,-122.0318218
PAST SALE,,Single Family Residential,644 Bryan Ave,Sunnyvale,CA,94086,285500,3,3.0,,1526,5100,1952,,187,,,,,http://www.redfin.com/CA/Sunnyvale/644-Bryan-Ave-94086/home/1592535,,,N,Y,37.37191,-122.0199745
PAST SALE,,Single Family Residential,1083 Fulton Ave,Sunnyvale,CA,94089,335000,3,1.0,,1086,5250,1953,,308,,,,,http://www.redfin.com/CA/Sunnyvale/1083-Fulton-Ave-94089/home/583326,,,N,Y,37.4022952,-122.0223435
PAST SALE,May-13-2016,Condo/Co-op,999 W Evelyn Ter #83,SUNNYVALE,CA,94086,562500,1,1.0,SUNNYVALE,778,2748,1976,627,723,373,Sold,,,http://www.redfin.com/CA/Sunnyvale/999-Evelyn-Ter-W-94086/unit-83/home/1643863,MLSListings,ML81578826,N,Y,37.3705936,-122.0072236
PAST SALE,October-3-2017,Condo/Co-op,1730 Halford Ave #345,SANTA CLARA,CA,95051,405000,1,1.0,SANTA CLARA,678,1554,1970,119,597,478,Sold,,,http://www.redfin.com/CA/Santa-Clara/1730-Halford-Ave-95051/unit-345/home/594808,MLSListings,ML81676355,N,Y,37.3551009,-121.9999865
PAST SALE,December-19-2016,Condo/Co-op,1001 E Evelyn Ter #129,SUNNYVALE,CA,94086,601000,2,1.0,SUNNYVALE,822,2748,1977,407,731,373,Sold,,,http://www.redfin.com/CA/Sunnyvale/1001-Evelyn-Ter-E-94086/unit-129/home/1278582,MLSListings,ML81630637,N,Y,37.370559,-122.005534
PAST SALE,April-21-2016,Single Family Residential,1073 Fulton Ave,SUNNYVALE,CA,94089,1020000,3,1.0,SUNNYVALE,1086,5250,1953,649,939,,Sold,,,http://www.redfin.com/CA/Sunnyvale/1073-Fulton-Ave-94089/home/583334,MLSListings,ML81565314,N,Y,37.4018973,-122.0224642
PAST SALE,June-3-2016,Other,1020 Ahwanee Ave,SUNNYVALE,CA,94086,1000000,,,SUNNYVALE,,15600,,606,,,Sold,,,http://www.redfin.com/CA/Sunnyvale/1020-Ahwanee-Ave-94085/home/1073990,MLSListings,ML81520606,N,Y,37.391911,-122.000958
PAST SALE,April-12-2016,Single Family Residential,825 Cedar Ave,SUNNYVALE,CA,94086,939000,3,1.0,SUNNYVALE,1045,5000,1944,658,899,,Sold,,,http://www.redfin.com/CA/Sunnyvale/825-Cedar-Ave-94086/home/1376541,MLSListings,ML81561909,N,Y,37.3776652,-122.0188616
PAST SALE,November-21-2016,Single Family Residential,112 S Pastoria Ave,SUNNYVALE,CA,94086,849000,3,1.0,SUNNYVALE,912,5750,1943,435,931,,Sold,,,http://www.redfin.com/CA/Sunnyvale/112-S-Pastoria-Ave-94086/home/1432274,MLSListings,ML81631093,N,Y,37.3801765,-122.0373345
PAST SALE,December-7-2016,Single Family Residential,562 S Mathilda Ave,SUNNYVALE,CA,94086,1112500,3,1.0,SUNNYVALE,1347,6351,1930,419,826,,Sold,,,http://www.redfin.com/CA/Sunnyvale/562-S-Mathilda-Ave-94086/home/1718109,MLSListings,ML81630296,N,Y,37.3703764,-122.0361675
PAST SALE,January-5-2017,Single Family Residential,148 S Pastoria Ave,SUNNYVALE,CA,94086,965000,2,1.0,SUNNYVALE,768,5800,1942,390,1257,,Sold,,,http://www.redfin.com/CA/Sunnyvale/148-S-Pastoria-Ave-94086/home/607596,MLSListings,ML81631384,N,Y,37.3790764,-122.0376916
PAST SALE,November-29-2016,Single Family Residential,398 E Eaglewood Ave,SUNNYVALE,CA,94085,1002000,3,1.0,SUNNYVALE,1087,7078,1952,427,922,,Sold,,,http://www.redfin.com/CA/Sunnyvale/398-E-Eaglewood-Ave-94085/home/656866,MLSListings,ML81626397,N,Y,37.3904078,-122.0209926
PAST SALE,October-7-2016,Single Family Residential,848 E California Ave,SUNNYVALE,CA,94086,725000,2,1.0,SUNNYVALE,765,5000,1942,480,948,,Sold,,,http://www.redfin.com/CA/Sunnyvale/848-E-California-Ave-94086/home/1414487,MLSListings,ML81595436,N,Y,37.3791483,-122.0176496
PAST SALE,August-22-2016,Condo/Co-op,1720 Halford Ave #225,SANTA CLARA,CA,95051,395000,1,1.0,SANTA CLARA,678,1550,1900,526,583,454,Sold,,,http://www.redfin.com/CA/Santa-Clara/1720-Halford-Ave-95051/unit-225/home/1440305,MLSListings,ML81595687,N,Y,37.354915,-121.999042
PAST SALE,April-25-2016,Single Family Residential,3259 Agate Dr,SANTA CLARA,CA,95051,775000,3,1.0,SANTA CLARA,897,7150,1955,645,864,,Sold,,,http://www.redfin.com/CA/Santa-Clara/3259-Agate-Dr-95051/home/1737120,MLSListings,ML81565249,N,Y,37.3701237,-121.9864182
PAST SALE,January-6-2017,Condo/Co-op,938 La Mesa Ter Unit C,SUNNYVALE,CA,94086,717000,2,1.0,SUNNYVALE,834,435,1986,389,860,365,Sold,,,http://www.redfin.com/CA/Sunnyvale/938-La-Mesa-Ter-94086/unit-C/home/1659382,MLSListings,ML81632858,N,Y,37.385043,-122.04109
PAST SALE,June-17-2016,Condo/Co-op,461 Costa Mesa Ter Unit D,SUNNYVALE,CA,94085,705000,2,1.0,SUNNYVALE,880,901,1985,592,801,345,Sold,,,http://www.redfin.com/CA/Sunnyvale/461-Costa-Mesa-Ter-94085/unit-D/home/1561901,MLSListings,ML81583291,N,Y,37.3922288,-122.0448881
PAST SALE,,Condo/Co-op,224 Red Oak Dr E Apt D,Sunnyvale,CA,94086,625000,2,1.0,,926,,1971,,675,,,,,http://www.redfin.com/CA/Sunnyvale/224-Red-Oak-Dr-E-94086/unit-D/home/670285,,,N,Y,37.3712329,-122.0086923
PAST SALE,December-16-2016,Single Family Residential,2626 Glade Dr,SANTA CLARA,CA,95051,825000,3,1.0,SANTA CLARA,897,5300,1955,410,920,,Sold,,,http://www.redfin.com/CA/Santa-Clara/2626-Glade-Dr-95051/home/1752145,MLSListings,ML81600892,N,Y,37.369608,-121.9868807
PAST SALE,,Townhouse,979 Pinto Palm Ter Apt 19,Sunnyvale,CA,94087,590000,1,1.0,,764,465,1995,,772,,,,,http://www.redfin.com/CA/Sunnyvale/979-Pinto-Palm-Ter-94087/unit-19/home/811023,,,N,Y,37.353416,-122.009048
PAST SALE,August-26-2016,Single Family Residential,2565 Amethyst Dr,SANTA CLARA,CA,95051,851000,3,1.0,SANTA CLARA,897,5771,1955,522,949,,Sold,,,http://www.redfin.com/CA/Santa-Clara/2565-Amethyst-Dr-95051/home/672413,MLSListings,ML81595937,N,Y,37.3691851,-121.9843995
PAST SALE,March-15-2016,Single Family Residential,658 N Fair Oaks Ave,SUNNYVALE,CA,94085,772501,2,1.0,SUNNYVALE,1235,5508,1939,686,626,,Sold,,,http://www.redfin.com/CA/Sunnyvale/658-N-Fair-Oaks-Ave-94085/home/1440103,MLSListings,ML81521071,N,Y,37.3899186,-122.0143918
PAST SALE,June-14-2016,Condo/Co-op,999 W Evelyn Ter #90,SUNNYVALE,CA,94086,568000,1,1.0,SUNNYVALE,822,2748,1976,595,691,373,Sold,,,http://www.redfin.com/CA/Sunnyvale/999-Evelyn-Ter-W-94086/unit-90/home/1379755,MLSListings,ML81584789,N,Y,37.3705936,-122.0072236
PAST SALE,June-1-2016,Condo/Co-op,1001 E Evelyn Ter #152,SUNNYVALE,CA,94086,486000,1,1.0,SUNNYVALE,778,2748,1977,608,625,373,Sold,,,http://www.redfin.com/CA/Sunnyvale/1001-Evelyn-Ter-E-94086/unit-152/home/822127,MLSListings,ML81579935,N,Y,37.370559,-122.005534
PAST SALE,,Condo/Co-op,929 E El Camino Real,Sunnyvale,CA,94087,555000,2,1.0,,747,,1988,,743,,,,,http://www.redfin.com/CA/Sunnyvale/929-E-El-Camino-Real-94087/home/1868330,,,N,Y,37.3534488,-122.0120835
PAST SALE,November-7-2017,Condo/Co-op,3735 Terstena Pl #153,SANTA CLARA,CA,95051,680000,2,1.0,SANTA CLARA,912,,1986,84,746,466,Sold,,,http://www.redfin.com/CA/Santa-Clara/3735-Terstena-Pl-95051/unit-153/home/1096911,MLSListings,ML81679319,N,Y,37.3581407,-121.9996845
PAST SALE,October-31-2017,Mobile/Manufactured Home,1220 Tasman #18,SUNNYVALE,CA,94089,129900,2,1.0,SUNNYVALE,672,,1969,91,193,,Sold,,,http://www.redfin.com/CA/Sunnyvale/1220-Tasman-Dr-94089/unit-18/home/143730375,MLSListings,ML81676238,N,Y,37.4013456,-121.9913841
PAST SALE,,Condo/Co-op,987 La Mesa Ter,Sunnyvale,CA,94086,736000,2,1.0,,854,,1986,,862,,,,,http://www.redfin.com/CA/Sunnyvale/987-La-Mesa-Ter-94086/home/729254,,,N,Y,37.3858313,-122.0426142
PAST SALE,January-3-2018,Mobile/Manufactured Home,433 Sylvan #144,MOUNTAIN VIEW,CA,94041,229000,2,1.0,MOUNTAIN VIEW,832,,2011,27,275,,Sold,,,http://www.redfin.com/CA/Mountain-View/433-Sylvan-Ave-94041/unit-144/home/41395936,MLSListings,ML81682669,N,Y,37.383185,-122.05941
PAST SALE,,Condo/Co-op,125 Connemara Way Apt 59,Sunnyvale,CA,94087,740000,2,1.0,,900,,1971,,822,,,,,http://www.redfin.com/CA/Sunnyvale/125-Connemara-Way-94087/unit-59/home/1140046,,,N,Y,37.3471379,-122.0318218
PAST SALE,February-24-2017,Single Family Residential,356 Roosevelt Ave,SUNNYVALE,CA,94085,1101001,2,1.0,SUNNYVALE,900,7000,1945,340,1223,,Sold,,,http://www.redfin.com/CA/Sunnyvale/356-Roosevelt-Ave-94085/home/659058,MLSListings,ML81633490,N,Y,37.3833244,-122.0211595
PAST SALE,May-3-2017,Single Family Residential,1082 Plymouth Dr,SUNNYVALE,CA,94087,1710000,3,1.0,SUNNYVALE,1154,6000,1953,272,1482,,Sold,,,http://www.redfin.com/CA/Sunnyvale/1082-Plymouth-Dr-94087/home/1023777,MLSListings,ML81645432,N,Y,37.3600579,-122.0569477
PAST SALE,February-8-2016,Condo/Co-op,1001 E Evelyn Ter #167,SUNNYVALE,CA,94086,555000,2,1.0,SUNNYVALE,822,2750,1977,722,675,373,Sold,,,http://www.redfin.com/CA/Sunnyvale/Evelyn-Ter-E-94086/home/670525,MLSListings,ML81547526,N,Y,37.370559,-122.005534
PAST SALE,,Condo/Co-op,999 Evelyn Ter W Apt 27,Sunnyvale,CA,94086,510000,1,1.0,,822,,1976,,620,,,,,http://www.redfin.com/CA/Sunnyvale/999-Evelyn-Ter-W-94086/unit-27/home/670449,,,N,Y,37.3705936,-122.0072236
PAST SALE,February-9-2017,Single Family Residential,1386 Lillian Ave,SUNNYVALE,CA,94087,1670000,3,1.0,SUNNYVALE,1088,9250,1950,355,1535,,Sold,,,http://www.redfin.com/CA/Sunnyvale/1386-Lillian-Ave-94087/home/757956,MLSListings,ML81636616,N,Y,37.3490911,-122.0177405
PAST SALE,July-28-2017,Single Family Residential,908 Lois Ave,SUNNYVALE,CA,94087,1730000,3,1.0,SUNNYVALE,1041,6000,1953,186,1662,,Sold,,,http://www.redfin.com/CA/Sunnyvale/908-Lois-Ave-94087/home/1561819,MLSListings,ML81653715,N,Y,37.3639298,-122.0535125
PAST SALE,,Single Family Residential,1230 Heatherstone Way,Sunnyvale,CA,94087,1582500,3,1.0,,1078,5800,1953,,1468,,,,,http://www.redfin.com/CA/Sunnyvale/1230-Heatherstone-Way-94087/home/821792,,,N,Y,37.3673032,-122.0593734
PAST SALE,August-23-2017,Single Family Residential,498 Vine Ave,SUNNYVALE,CA,94086,1502000,3,1.0,SUNNYVALE,979,5000,1943,160,1534,,Sold,,,http://www.redfin.com/CA/Sunnyvale/498-Vine-Ave-94086/home/1198670,MLSListings,ML81672563,N,Y,37.370882,-122.0251322
PAST SALE,November-27-2017,Single Family Residential,3149 Agate Dr,SANTA CLARA,CA,95051,1035000,3,1.0,SANTA CLARA,897,7150,1955,64,1154,,Sold,,,http://www.redfin.com/CA/Santa-Clara/3149-Agate-Dr-95051/home/1328287,MLSListings,ML81682033,N,Y,37.3701533,-121.9843494
PAST SALE,,Single Family Residential,328 Flora Vista Ave,Sunnyvale,CA,94086,950000,2,1.0,,723,4305,1952,,1314,,,,,http://www.redfin.com/CA/Sunnyvale/328-Flora-Vista-Ave-94086/home/1462823,,,N,Y,37.3728601,-122.0279203
PAST SALE,,Single Family Residential,552 Crawford Dr,Sunnyvale,CA,94087,1724000,3,1.0,,1125,9825,1953,,1532,,,,,http://www.redfin.com/CA/Sunnyvale/552-Crawford-Dr-94087/home/1094430,,,N,Y,37.3628773,-122.034065
PAST SALE,,Townhouse,20228 Northwest Sq,Cupertino,CA,95014,375000,1,1.0,,1062,1680,1973,,353,,,,,http://www.redfin.com/CA/Cupertino/20228-Northwest-Sq-95014/home/767478,,,N,Y,37.336937,-122.0277238
PAST SALE,July-18-2017,Single Family Residential,348 Angel Ave,SUNNYVALE,CA,94086,1200000,3,1.0,SUNNYVALE,1042,6400,1936,196,1152,,Sold,,,http://www.redfin.com/CA/Sunnyvale/348-Angel-Ave-94086/home/1045397,MLSListings,ML81655238,N,Y,37.379736,-122.0326515
PAST SALE,May-12-2017,Single Family Residential,582 Madrone Ave,SUNNYVALE,CA,94085,1052000,3,1.0,SUNNYVALE,1022,5460,1951,263,1029,,Sold,,,http://www.redfin.com/CA/Sunnyvale/582-Madrone-Ave-94085/home/1576280,MLSListings,ML81645446,N,Y,37.3903446,-122.0266296
PAST SALE,March-21-2017,Single Family Residential,644 W Fernwood Cir,SUNNYVALE,CA,94085,1125000,3,1.0,SUNNYVALE,1056,6200,1952,315,1065,,Sold,,,http://www.redfin.com/CA/Sunnyvale/644-W-Fernwood-Cir-94085/home/1414393,MLSListings,ML81639623,N,Y,37.3915743,-122.0218337
PAST SALE,July-28-2017,Single Family Residential,565 Morse Ave,SUNNYVALE,CA,94085,1252000,3,1.0,SUNNYVALE,1600,5500,1948,186,783,,Sold,,,http://www.redfin.com/CA/Sunnyvale/565-Morse-Ave-94085/home/993183,MLSListings,ML81656755,N,Y,37.388421,-122.0206816
PAST SALE,August-10-2017,Single Family Residential,310 Schroeder St,SUNNYVALE,CA,94085,1300000,3,1.0,SUNNYVALE,1119,6254,1948,173,1162,,Sold,,,http://www.redfin.com/CA/Sunnyvale/310-Schroeder-St-94085/home/659349,MLSListings,ML81671177,N,Y,37.3836777,-122.0252452
PAST SALE,,Single Family Residential,326 Jackson St,Sunnyvale,CA,94085,1310000,3,1.0,,1119,6785,1948,,1171,,,,,http://www.redfin.com/CA/Sunnyvale/326-Jackson-St-94085/home/1355257,,,N,Y,37.3841241,-122.0241863
PAST SALE,May-12-2017,Single Family Residential,1549 Meadowlark Ln,SUNNYVALE,CA,94087,2150000,3,1.0,SUNNYVALE,1560,14006,1922,263,1378,,Sold,,,http://www.redfin.com/CA/Sunnyvale/1549-Meadowlark-Ln-94087/home/17293481,MLSListings,ML81647414,N,Y,37.3430375,-122.0135408
PAST SALE,September-29-2017,Single Family Residential,1433 Navarro Dr,SUNNYVALE,CA,94087,1680000,2,1.0,SUNNYVALE,1176,9300,1950,123,1429,,Sold,,,http://www.redfin.com/CA/Sunnyvale/1433-Navarro-Dr-94087/home/1550003,MLSListings,ML81674898,N,Y,37.3474682,-122.0113612
PAST SALE,January-18-2018,Single Family Residential,557 Kirk Ave,SUNNYVALE,CA,94085,1250000,3,1.0,SUNNYVALE,1260,5019,1950,12,992,,Sold,,,http://www.redfin.com/CA/Sunnyvale/557-Kirk-Ave-94085/home/608340,MLSListings,ML81687303,N,Y,37.3887416,-122.023983
PAST SALE,,Condo/Co-op,880 E Fremont Ave Apt 413,Sunnyvale,CA,94087,156500,1,1.0,,733,,1987,,214,,,,,http://www.redfin.com/CA/Sunnyvale/880-E-Fremont-Ave-94087/unit-413/home/2122568,,,N,Y,37.35183,-122.015045
PAST SALE,August-28-2017,Condo/Co-op,1750 Halford Ave #206,SANTA CLARA,CA,95051,435000,1,1.0,SANTA CLARA,678,1554,1970,155,642,473,Sold,,,http://www.redfin.com/CA/Santa-Clara/1750-Halford-Ave-95051/unit-206/home/1058409,MLSListings,ML81672957,N,Y,37.3557149,-121.998715
PAST SALE,November-3-2017,Condo/Co-op,1902 Miraplaza Ct #25,SANTA CLARA,CA,95051,781000,2,1.0,SANTA CLARA,920,,1986,88,849,375,Sold,,,http://www.redfin.com/CA/Santa-Clara/1902-Miraplaza-Ct-95051/unit-25/home/690052,MLSListings,ML81679749,N,Y,37.3575299,-121.998603
PAST SALE,May-26-2017,Condo/Co-op,999 W Evelyn Ter #49,SUNNYVALE,CA,94086,578000,1,1.0,SUNNYVALE,778,2750,1976,249,743,381,Sold,,,http://www.redfin.com/CA/Sunnyvale/999-Evelyn-Ter-W-94086/unit-49/home/1671282,MLSListings,ML81648470,N,Y,37.3705936,-122.0072236
PAST SALE,,Single Family Residential,334 N Bayview Ave,Sunnyvale,CA,94085,850000,3,1.0,,766,7000,1947,,1110,,,,,http://www.redfin.com/CA/Sunnyvale/334-N-Bayview-Ave-94085/home/1210584,,,N,Y,37.3833488,-122.0234547
PAST SALE,September-11-2017,Single Family Residential,818 Birch Ave,SUNNYVALE,CA,94086,1055000,3,1.0,SUNNYVALE,1009,5000,1944,141,1046,,Sold,,,http://www.redfin.com/CA/Sunnyvale/818-Birch-Ave-94086/home/1340764,MLSListings,ML81674958,N,Y,37.3779874,-122.0189104
PAST SALE,March-21-2017,Townhouse,210 W Red Oak Dr Unit H,SUNNYVALE,CA,94086,617500,2,1.0,SUNNYVALE,926,1307,1971,315,667,405,Sold,,,http://www.redfin.com/CA/Sunnyvale/210-Red-Oak-Dr-W-94086/home/1711620,MLSListings,ML81636726,N,Y,37.3722691,-122.0101421
PAST SALE,,Condo/Co-op,236 Red Oak Dr E,Sunnyvale,CA,94086,715000,2,1.0,,926,,1971,,772,,,,,http://www.redfin.com/CA/Sunnyvale/236-Red-Oak-Dr-E-94086/home/670274,,,N,Y,37.3707322,-122.008858
PAST SALE,May-5-2016,Mobile/Manufactured Home,1201 Sycamore Ter #168,SUNNYVALE,CA,94086,96000,3,1.0,SUNNYVALE,6172,637910,1959,635,16,,Sold,,,http://www.redfin.com/CA/Sunnyvale/1201-Sycamore-Ter-94086/unit-168/home/63743501,MLSListings,ML81563183,N,Y,37.3544024,-122.0028495
PAST SALE,October-6-2017,Condo/Co-op,209 Red Oak Dr Unit Q,SUNNYVALE,CA,94086,750000,2,1.0,SUNNYVALE,926,1440,1971,116,810,405,Sold,,,http://www.redfin.com/CA/Sunnyvale/209-Red-Oak-Dr-94086/unit-Q/home/113801270,MLSListings,ML81674213,N,Y,37.3703456,-122.0099701
PAST SALE,December-7-2016,Single Family Residential,481 Southwood Ave,SUNNYVALE,CA,94086,1180000,3,1.0,SUNNYVALE,1051,5000,1943,419,1123,,Sold,,,http://www.redfin.com/CA/Sunnyvale/481-Southwood-Ave-94086/home/1603450,MLSListings,ML81630903,N,Y,37.3719737,-122.0254059
PAST SALE,,Condo/Co-op,578 Ironwood Ter Apt 5,Sunnyvale,CA,94086,630000,1,1.0,,747,,1983,,843,,,,,http://www.redfin.com/CA/Sunnyvale/578-Ironwood-Ter-94086/unit-5/home/665268,,,N,Y,37.367315,-122.019046
PAST SALE,April-6-2017,Single Family Residential,550 Fir Ave,SUNNYVALE,CA,94085,985000,3,1.0,SUNNYVALE,1015,5400,1952,299,970,,Sold,,,http://www.redfin.com/CA/Sunnyvale/550-Fir-Ave-94085/home/1198502,MLSListings,ML81640241,N,Y,37.3862009,-122.0182996
PAST SALE,April-10-2017,Single Family Residential,625 Johanna Ave,SUNNYVALE,CA,94085,865000,3,1.0,SUNNYVALE,999,6032,1953,295,866,,Sold,,,http://www.redfin.com/CA/Sunnyvale/625-Johanna-Ave-94085/home/1773074,MLSListings,ML81646155,N,Y,37.3889089,-122.0132782
PAST SALE,April-8-2016,Condo/Co-op,785 N Fair Oaks Ave #5,SUNNYVALE,CA,94085,570000,2,1.0,SUNNYVALE,926,960,1972,662,616,336,Sold,,,http://www.redfin.com/CA/Sunnyvale/785-N-Fair-Oaks-Ave-94085/unit-5/home/1628524,MLSListings,ML81561857,N,Y,37.393474,-122.0156
PAST SALE,May-5-2017,Condo/Co-op,615 San Conrado Ter #2,SUNNYVALE,CA,94085,580000,1,1.0,SUNNYVALE,784,2250,1985,270,740,340,Sold,,,http://www.redfin.com/CA/Sunnyvale/615-San-Conrado-Ter-94085/unit-2/home/657241,MLSListings,ML81643967,N,Y,37.3918113,-122.0164441
PAST SALE,June-29-2017,Condo/Co-op,714 San Conrado Ter #2,SUNNYVALE,CA,94085,575000,1,1.0,SUNNYVALE,784,2250,1986,215,733,339,Sold,,,http://www.redfin.com/CA/Sunnyvale/714-San-Conrado-Ter-94085/unit-2/home/941942,MLSListings,ML81649860,N,Y,37.3922058,-122.0156144
PAST SALE,May-26-2017,Condo/Co-op,606 San Conrado Ter #3,SUNNYVALE,CA,94085,580000,1,1.0,SUNNYVALE,784,2250,1985,249,740,339,Sold,,,http://www.redfin.com/CA/Sunnyvale/606-San-Conrado-Ter-94085/unit-3/home/579225,MLSListings,ML81648405,N,Y,37.391335,-122.015574
PAST SALE,June-19-2017,Condo/Co-op,795 N Fair Oaks Ave #4,SUNNYVALE,CA,94085,665000,2,1.0,SUNNYVALE,926,960,1972,225,718,336,Sold,,,http://www.redfin.com/CA/Sunnyvale/795-N-Fair-Oaks-Ave-94085/unit-4/home/1788918,MLSListings,ML81651257,N,Y,37.393379,-122.014617
PAST SALE,June-20-2017,Condo/Co-op,795 N Fair Oaks Ave #6,SUNNYVALE,CA,94085,650000,2,1.0,SUNNYVALE,926,960,1972,224,702,336,Sold,,,http://www.redfin.com/CA/Sunnyvale/795-N-Fair-Oaks-Ave-94085/unit-6/home/1440019,MLSListings,ML81653787,N,Y,37.393379,-122.014617
PAST SALE,,Single Family Residential,599 Gresham Ave,Sunnyvale,CA,94085,1700000,2,1.0,,1348,5292,1951,,1261,,,,,http://www.redfin.com/CA/Sunnyvale/599-Gresham-Ave-94085/home/1670716,,,N,Y,37.389166,-122.018655
PAST SALE,,Condo/Co-op,787 N Fair Oaks Ave Apt 1,Sunnyvale,CA,94085,645000,2,1.0,,926,,1972,,697,,,,,http://www.redfin.com/CA/Sunnyvale/787-N-Fair-Oaks-Ave-94085/unit-1/home/1827887,,,N,Y,37.393362,-122.01511
PAST SALE,July-8-2016,Condo/Co-op,785 N Fair Oaks Ave #4,SUNNYVALE,CA,94085,576000,2,1.0,SUNNYVALE,926,960,1972,571,622,336,Sold,,,http://www.redfin.com/CA/Sunnyvale/785-N-Fair-Oaks-Ave-94085/unit-4/home/608301,MLSListings,ML81587321,N,Y,37.393474,-122.0156
PAST SALE,May-10-2016,Condo/Co-op,613 Arcadia Ter #103,SUNNYVALE,CA,94085,610000,1,1.0,SUNNYVALE,867,1161,1995,630,704,285,Sold,,,http://www.redfin.com/CA/Sunnyvale/613-Arcadia-Ter-94085/unit-103/home/1612342,MLSListings,ML81584759,N,Y,37.392565,-122.01204
PAST SALE,October-30-2017,Condo/Co-op,605 San Conrado Ter #2,SUNNYVALE,CA,94085,702000,1,1.0,SUNNYVALE,784,2250,1985,92,895,339,Sold,,,http://www.redfin.com/CA/Sunnyvale/605-San-Conrado-Ter-94085/unit-2/home/1073895,MLSListings,ML81680333,N,Y,37.391603,-122.014958
PAST SALE,January-24-2018,Single Family Residential,559 E Duane Ave,SUNNYVALE,CA,94085,1360000,3,1.0,SUNNYVALE,999,6760,1953,6,1361,,Sold,,,http://www.redfin.com/CA/Sunnyvale/559-E-Duane-Ave-94085/home/1802568,MLSListings,ML81688468,N,Y,37.3893791,-122.0167836
PAST SALE,July-13-2016,Townhouse,346 Dunsmuir Ter #5,SUNNYVALE,CA,94085,518888,1,1.0,SUNNYVALE,630,435,1996,566,824,319,Sold,,,http://www.redfin.com/CA/Sunnyvale/346-Dunsmuir-Ter-94085/unit-5/home/913895,MLSListings,ML81588274,N,Y,37.384486,-122.030919
PAST SALE,,Single Family Residential,498 N Fair Oaks Ave,Sunnyvale,CA,94085,895000,3,1.0,,1150,4355,1900,,778,,,,,http://www.redfin.com/CA/Sunnyvale/498-N-Fair-Oaks-Ave-94085/home/1433156,,,N,Y,37.3850622,-122.0170357
PAST SALE,December-28-2017,Single Family Residential,590 Balsam Ave,SUNNYVALE,CA,94085,1150000,3,1.0,SUNNYVALE,1009,5090,1952,33,1140,,Sold,,,http://www.redfin.com/CA/Sunnyvale/590-Balsam-Ave-94085/home/1467538,MLSListings,ML81686583,N,Y,37.3873277,-122.0161737
PAST SALE,November-15-2017,Condo/Co-op,613 Arcadia Ter #105,SUNNYVALE,CA,94085,681000,1,1.0,SUNNYVALE,867,1161,1996,76,785,338,Sold,,,http://www.redfin.com/CA/Sunnyvale/613-Arcadia-Ter-94085/unit-105/home/1603380,MLSListings,ML81679708,N,Y,37.392565,-122.01204
PAST SALE,February-6-2017,Single Family Residential,2009 Crist Dr,LOS ALTOS,CA,94024,1955000,3,1.0,LOS ALTOS,1962,10062,1953,358,996,,Sold,,,http://www.redfin.com/CA/Los-Altos/2009-Crist-Dr-94024/home/1683556,MLSListings,ML81633897,N,Y,37.3420513,-122.0666217
PAST SALE,January-16-2018,Condo/Co-op,602 Arcadia Ter #105,SUNNYVALE,CA,94085,675000,1,1.0,SUNNYVALE,867,1868,1996,14,779,324,Sold,,,http://www.redfin.com/CA/Sunnyvale/602-Arcadia-Ter-94085/unit-105/home/1187871,MLSListings,ML81686528,N,Y,37.393247,-122.012866
PAST SALE,June-13-2017,Townhouse,125 Connemara Way #151,SUNNYVALE,CA,94087,820000,2,1.0,SUNNYVALE,900,2150,1971,231,911,298,Sold,,,http://www.redfin.com/CA/Sunnyvale/125-Connemara-Way-94087/unit-151/home/759959,MLSListings,ML81650816,N,Y,37.3471379,-122.0318218
PAST SALE,,Single Family Residential,364 Carroll St,Sunnyvale,CA,94086,1250000,2,1.0,,1154,5922,1928,,1083,,,,,http://www.redfin.com/CA/Sunnyvale/364-Carroll-St-94086/home/1697371,,,N,Y,37.3728263,-122.0289379
PAST SALE,July-21-2017,Condo/Co-op,621 E El Camino Real #202,SUNNYVALE,CA,94087,510000,1,1.0,SUNNYVALE,590,1864,2006,193,864,320,Sold,,,http://www.redfin.com/CA/Sunnyvale/621-E-El-Camino-Real-94087/unit-202/home/12179593,MLSListings,ML81655838,N,Y,37.361893,-122.024229
PAST SALE,May-25-2017,Single Family Residential,435 Lincoln Ave,SUNNYVALE,CA,94086,1450000,3,1.0,SUNNYVALE,1246,5184,1930,250,1164,,Sold,,,http://www.redfin.com/CA/Sunnyvale/435-Lincoln-Ave-94086/home/661460,MLSListings,ML81648503,N,Y,37.374698,-122.0257869
PAST SALE,,Single Family Residential,220 Carroll St,Sunnyvale,CA,94086,2100000,2,1.0,,1180,12700,1930,,1780,,,,,http://www.redfin.com/CA/Sunnyvale/220-Carroll-St-94086/home/1464180,,,N,Y,37.37503,-122.027906
PAST SALE,October-20-2017,Single Family Residential,523 Carroll St,SUNNYVALE,CA,94086,1730000,3,1.0,SUNNYVALE,1264,7975,1953,102,1369,,Sold,,,http://www.redfin.com/CA/Sunnyvale/523-Carroll-St-94086/home/1500684,MLSListings,ML81678620,N,Y,37.3699471,-122.0304222
PAST SALE,June-23-2016,Townhouse,225 W Red Oak Dr Unit Q,SUNNYVALE,CA,94086,645000,2,1.0,SUNNYVALE,926,1441,1971,586,697,395,Sold,,,http://www.redfin.com/CA/Sunnyvale/225-Red-Oak-Dr-W-94086/unit-Q/home/1151786,MLSListings,ML81582686,N,Y,37.371314,-122.0109396
PAST SALE,June-9-2016,Single Family Residential,569 Gresham Ave,SUNNYVALE,CA,94085,895000,2,1.0,SUNNYVALE,854,4996,1951,600,1048,,Sold,,,http://www.redfin.com/CA/Sunnyvale/569-Gresham-Ave-94085/home/1355230,MLSListings,ML81581562,N,Y,37.3880763,-122.0189887
PAST SALE,April-22-2016,Condo/Co-op,578 Ironwood Ter #9,SUNNYVALE,CA,94086,540000,1,1.0,SUNNYVALE,747,,1983,648,723,305,Sold,,,http://www.redfin.com/CA/Sunnyvale/578-Ironwood-Ter-94086/unit-9/home/1198841,MLSListings,ML81565558,N,Y,37.367315,-122.019046
PAST SALE,January-20-2017,Condo/Co-op,976 W Belmont Ter #3,SUNNYVALE,CA,94086,660000,2,1.0,SUNNYVALE,834,8712,1986,375,791,461,Sold,,,http://www.redfin.com/CA/Sunnyvale/976-Belmont-Ter-94086/unit-3/home/1447260,MLSListings,ML81634161,N,Y,37.384056,-122.042444
PAST SALE,July-26-2017,Single Family Residential,587 Borregas Ave,SUNNYVALE,CA,94085,975000,2,1.0,SUNNYVALE,884,5096,1950,188,1103,,Sold,,,http://www.redfin.com/CA/Sunnyvale/587-Borregas-Ave-94085/home/1224005,MLSListings,ML81669212,N,Y,37.3902379,-122.0253979
PAST SALE,July-12-2017,Single Family Residential,324 Orchard Ave,SUNNYVALE,CA,94085,1180000,3,1.0,SUNNYVALE,1021,5200,1942,202,1156,,Sold,,,http://www.redfin.com/CA/Sunnyvale/324-Orchard-Ave-94085/home/1723153,MLSListings,ML81654915,N,Y,37.3855073,-122.0285697
PAST SALE,,Single Family Residential,576 Borregas Ave,Sunnyvale,CA,94085,1220000,3,1.0,,913,5564,1949,,1336,,,,,http://www.redfin.com/CA/Sunnyvale/576-Borregas-Ave-94085/home/821986,,,N,Y,37.3897221,-122.0250237
PAST SALE,August-18-2017,Single Family Residential,569 Waite Ave,SUNNYVALE,CA,94085,1120000,3,1.0,SUNNYVALE,913,5564,1949,165,1227,,Sold,,,http://www.redfin.com/CA/Sunnyvale/569-Waite-Ave-94085/home/827469,MLSListings,ML81670520,N,Y,37.3893539,-122.024689
PAST SALE,September-8-2016,Condo/Co-op,125 Connemara Way #124,SUNNYVALE,CA,94087,751000,2,1.0,SUNNYVALE,900,2150,1971,509,834,298,Sold,,,http://www.redfin.com/CA/Sunnyvale/125-Connemara-Way-94087/unit-124/home/1547736,MLSListings,ML81595935,N,Y,37.3471379,-122.0318218
PAST SALE,July-22-2016,Single Family Residential,818 Cedar Ave,SUNNYVALE,CA,94086,852500,3,1.0,SUNNYVALE,1009,5000,1944,557,845,,Sold,,,http://www.redfin.com/CA/Sunnyvale/818-Cedar-Ave-94086/home/660845,MLSListings,ML81591476,N,Y,37.3773759,-122.019127
PAST SALE,April-12-2016,Single Family Residential,551 Maple Ave,SUNNYVALE,CA,94085,988000,3,1.0,SUNNYVALE,1044,6046,1950,658,946,,Sold,,,http://www.redfin.com/CA/Sunnyvale/551-Maple-Ave-94085/home/656148,MLSListings,ML81562041,N,Y,37.3876059,-122.0200611
PAST SALE,October-31-2016,Single Family Residential,359 Stowell Ave,SUNNYVALE,CA,94085,805000,2,1.0,SUNNYVALE,790,5200,1942,456,1019,,Sold,,,http://www.redfin.com/CA/Sunnyvale/359-Stowell-Ave-94085/home/1115014,MLSListings,ML81625792,N,Y,37.3865337,-122.0277872
PAST SALE,January-9-2017,Townhouse,125 Connemara Way #5,SUNNYVALE,CA,94087,771000,2,1.0,SUNNYVALE,900,2340,1971,386,857,298,Sold,,,http://www.redfin.com/CA/Sunnyvale/125-Connemara-Way-94087/unit-5/home/1382194,MLSListings,ML81633008,N,Y,37.3471379,-122.0318218
PAST SALE,June-17-2016,Single Family Residential,451 Southwood Ave,SUNNYVALE,CA,94086,1150000,3,1.0,SUNNYVALE,979,5000,1943,592,1175,,Sold,,,http://www.redfin.com/CA/Sunnyvale/451-Southwood-Ave-94086/home/1327863,MLSListings,ML81584835,N,Y,37.3721234,-122.0260717
PAST SALE,February-5-2016,Condo/Co-op,1001 E Evelyn Ter #182,SUNNYVALE,CA,94086,606000,2,1.0,SUNNYVALE,822,2750,1977,725,737,373,Sold,,,http://www.redfin.com/CA/Sunnyvale/1001-Evelyn-Ter-E-94086/unit-182/home/1789389,MLSListings,ML81547559,N,Y,37.370559,-122.005534
PAST SALE,January-25-2017,Single Family Residential,172 N Murphy Ave,SUNNYVALE,CA,94086,1000000,2,1.0,SUNNYVALE,1193,6751,1941,370,838,,Sold,,,http://www.redfin.com/CA/Sunnyvale/172-N-Murphy-Ave-94086/home/1376454,MLSListings,ML81627222,N,Y,37.3800676,-122.0287889
PAST SALE,February-2-2017,Single Family Residential,1730 Holt Ave,LOS ALTOS,CA,94024,1849000,3,1.0,LOS ALTOS,1084,9120,1953,362,1706,,Sold,,,http://www.redfin.com/CA/Los-Altos/1730-Holt-Ave-94024/home/1613784,MLSListings,ML81631859,N,Y,37.3446451,-122.065007
PAST SALE,,Single Family Residential,305 Beemer Ave,Sunnyvale,CA,94086,1000000,2,1.0,,728,9200,1941,,1374,,,,,http://www.redfin.com/CA/Sunnyvale/305-Beemer-Ave-94086/home/1525691,,,N,Y,37.3807883,-122.0312617
PAST SALE,May-24-2016,Single Family Residential,386 N Fernwood Cir,SUNNYVALE,CA,94085,948880,3,1.0,SUNNYVALE,1056,5301,1952,616,899,,Sold,,,http://www.redfin.com/CA/Sunnyvale/386-N-Fernwood-Cir-94085/home/1589931,MLSListings,ML81580670,N,Y,37.3920453,-122.0210206
PAST SALE,August-30-2016,Condo/Co-op,346 Dunsmuir Ter #11,SUNNYVALE,CA,94085,490000,1,1.0,SUNNYVALE,630,435,1996,518,778,320,Sold,,,http://www.redfin.com/CA/Sunnyvale/346-Dunsmuir-Ter-94085/unit-11/home/1589981,MLSListings,ML81582882,N,Y,37.384486,-122.030919
PAST SALE,September-5-2016,Single Family Residential,1081 Colton Ave,SUNNYVALE,CA,94089,930000,3,1.0,SUNNYVALE,1140,5200,1954,512,816,,Sold,,,http://www.redfin.com/CA/Sunnyvale/1081-Colton-Ave-94089/home/1248339,MLSListings,ML81597413,N,Y,37.4020042,-122.0252085
PAST SALE,March-1-2016,Single Family Residential,1441 Norman Dr,SUNNYVALE,CA,94087,1410000,3,1.0,SUNNYVALE,1219,9300,1951,700,1157,,Sold,,,http://www.redfin.com/CA/Sunnyvale/1441-Norman-Dr-94087/home/1550005,MLSListings,ML81548210,N,Y,37.3472626,-122.0103515
PAST SALE,April-18-2016,Condo/Co-op,880 E Fremont Ave #518,SUNNYVALE,CA,94087,545000,1,1.0,SUNNYVALE,733,1389,1987,652,744,317,Sold,,,http://www.redfin.com/CA/Sunnyvale/880-E-Fremont-Ave-94087/unit-518/home/2123976,MLSListings,ML81563984,N,Y,37.35183,-122.015045
PAST SALE,October-24-2016,Condo/Co-op,880 E Fremont Ave #216,SUNNYVALE,CA,94087,550000,1,1.0,SUNNYVALE,733,1391,1987,463,750,317,Sold,,,http://www.redfin.com/CA/Sunnyvale/880-E-Fremont-Ave-94087/unit-216/home/2122565,MLSListings,ML81599456,N,Y,37.35183,-122.015045
PAST SALE,,Single Family Residential,1478 Navarro Dr,Sunnyvale,CA,94087,194000,3,1.0,,1219,9300,1951,,159,,,,,http://www.redfin.com/CA/Sunnyvale/1478-Navarro-Dr-94087/home/1182881,,,N,Y,37.3462693,-122.0109518
PAST SALE,April-18-2017,Condo/Co-op,1750 Halford Ave #113,SANTA CLARA,CA,95051,395000,1,1.0,SANTA CLARA,678,1554,1970,287,583,473,Sold,,,http://www.redfin.com/CA/Santa-Clara/1750-Halford-Ave-95051/unit-113/home/1592805,MLSListings,ML81640920,N,Y,37.3557149,-121.998715
PAST SALE,June-23-2017,Single Family Residential,3039 Agate Dr,SANTA CLARA,CA,95051,820000,3,1.0,SANTA CLARA,897,5940,1955,221,914,,Sold,,,http://www.redfin.com/CA/Santa-Clara/3039-Agate-Dr-95051/home/672641,MLSListings,ML81653304,N,Y,37.3700433,-121.9821356
PAST SALE,July-10-2017,Mobile/Manufactured Home,1201 Sycamore Terrace #118,SUNNYVALE,CA,94086,100000,2,1.0,SUNNYVALE,800,,1980,204,125,,Sold,,,http://www.redfin.com/CA/Sunnyvale/1201-Sycamore-Ter-94086/home/1509133,MLSListings,ML81656453,N,Y,37.3544024,-122.0028495
PAST SALE,,Single Family Residential,386 E Duane Ave,Sunnyvale,CA,94085,500000,2,1.0,,982,5200,1949,,509,,,,,http://www.redfin.com/CA/Sunnyvale/386-E-Duane-Ave-94085/home/1376429,,,N,Y,37.3897664,-122.0217249
PAST SALE,August-28-2017,Condo/Co-op,1750 Halford Ave #213,SANTA CLARA,CA,95051,415000,1,1.0,SANTA CLARA,678,1554,1970,155,612,473,Sold,,,http://www.redfin.com/CA/Santa-Clara/1750-Halford-Ave-95051/unit-213/home/1393366,MLSListings,ML81655931,N,Y,37.3557149,-121.998715
PAST SALE,May-5-2016,Single Family Residential,1345 Eleanor Way,SUNNYVALE,CA,94087,1390000,3,1.0,SUNNYVALE,1333,11700,1948,635,1043,,Sold,,,http://www.redfin.com/CA/Sunnyvale/1345-Eleanor-Way-94087/home/675645,MLSListings,ML81581176,N,Y,37.3506409,-122.012792
PAST SALE,,Condo/Co-op,880 E Fremont Ave Apt 625,Sunnyvale,CA,94087,271000,1,1.0,,713,,1987,,380,,,,,http://www.redfin.com/CA/Sunnyvale/880-E-Fremont-Ave-94087/unit-625/home/2123999,,,N,Y,37.35183,-122.015045
PAST SALE,February-10-2016,Townhouse,159 Brahms Way,SUNNYVALE,CA,94087,716888,2,1.0,SUNNYVALE,720,720,1973,720,996,325,Sold,,,http://www.redfin.com/CA/Sunnyvale/159-Brahms-Way-94087/home/769441,MLSListings,ML81546806,N,Y,37.3636798,-122.0301774
PAST SALE,February-13-2017,Mobile/Manufactured Home,1201 Sycamore Ter #106,SUNNYVALE,CA,94086,125000,1,1.0,SUNNYVALE,588,,1996,351,213,,Sold,,,http://www.redfin.com/CA/Sunnyvale/1201-Sycamore-Ter-94086/unit-106/home/668880,MLSListings,ML81635639,N,Y,37.3544024,-122.0028495
PAST SALE,August-19-2016,Single Family Residential,2607 Landslide Ct,SANTA CLARA,CA,95051,770000,3,1.0,SANTA CLARA,897,7200,1955,529,858,,Sold,,,http://www.redfin.com/CA/Santa-Clara/2607-Landslide-Ct-95051/home/811097,MLSListings,ML81594082,N,Y,37.3692617,-121.9830273
PAST SALE,October-17-2016,Single Family Residential,111 Charles St,SUNNYVALE,CA,94086,900000,3,1.0,SUNNYVALE,912,6499,1943,470,987,,Sold,,,http://www.redfin.com/CA/Sunnyvale/111-Charles-St-94086/home/913159,MLSListings,ML81601305,N,Y,37.3794758,-122.0348589
PAST SALE,February-23-2017,Single Family Residential,1056 Essex Ave,SUNNYVALE,CA,94089,875000,3,1.0,SUNNYVALE,1086,5250,1953,341,806,,Sold,,,http://www.redfin.com/CA/Sunnyvale/1056-Essex-Ave-94089/home/1747837,MLSListings,ML81634937,N,Y,37.4015812,-122.0229794
PAST SALE,September-30-2016,Single Family Residential,443 Morse Ave,SUNNYVALE,CA,94085,880000,2,1.0,SUNNYVALE,940,7000,1945,487,936,,Sold,,,http://www.redfin.com/CA/Sunnyvale/443-Morse-Ave-94085/home/764668,MLSListings,ML81601178,N,Y,37.3854779,-122.0220935
PAST SALE,September-28-2016,Mobile/Manufactured Home,1201 E Sycamore Ter #34,SUNNYVALE,CA,94086,120000,2,1.0,SUNNYVALE,728,,1989,489,165,,Sold,,,http://www.redfin.com/CA/Sunnyvale/1201-Sycamore-Ter-94086/unit-34/home/26838574,MLSListings,ML81598944,N,Y,37.3544024,-122.0028495
PAST SALE,August-30-2016,Single Family Residential,954 Marion Way,SUNNYVALE,CA,94087,1380000,2,1.0,SUNNYVALE,1102,9422,1950,518,1252,,Sold,,,http://www.redfin.com/CA/Sunnyvale/954-Marion-Way-94087/home/1118507,MLSListings,ML81597992,N,Y,37.3453678,-122.0114552
PAST SALE,July-27-2016,Condo/Co-op,625 E El Camino Real #201,SUNNYVALE,CA,94087,428888,1,1.0,SUNNYVALE,590,1864,2006,552,727,273,Sold,,,http://www.redfin.com/CA/Sunnyvale/625-E-El-Camino-Real-94087/unit-201/home/12179604,MLSListings,ML81587302,N,Y,37.3617959,-122.023736
PAST SALE,December-30-2016,Condo/Co-op,614 Arcadia Ter #103,SUNNYVALE,CA,94085,540000,1,1.0,SUNNYVALE,867,867,1996,396,623,299,Sold,,,http://www.redfin.com/CA/Sunnyvale/614-Arcadia-Ter-94085/unit-103/home/1524635,MLSListings,ML81611549,N,Y,37.393428,-122.011255
PAST SALE,April-14-2017,Condo/Co-op,1730 Halford Ave #154,SANTA CLARA,CA,95051,410000,1,1.0,SANTA CLARA,678,1554,1970,291,605,473,Sold,,,http://www.redfin.com/CA/Santa-Clara/1730-Halford-Ave-95051/unit-154/home/897958,MLSListings,ML81641488,N,Y,37.3551009,-121.9999865
PAST SALE,January-31-2017,Condo/Co-op,1001 E Evelyn Ter #127,SUNNYVALE,CA,94086,600000,2,1.0,SUNNYVALE,822,2750,1977,364,730,381,Sold,,,http://www.redfin.com/CA/Sunnyvale/1001-Evelyn-Ter-E-94086/unit-127/home/1188207,MLSListings,ML81636284,N,Y,37.370559,-122.005534
PAST SALE,December-6-2016,Single Family Residential,395 N Murphy Ave,SUNNYVALE,CA,94085,950000,2,1.0,SUNNYVALE,790,5201,1942,420,1203,,Sold,,,http://www.redfin.com/CA/Sunnyvale/395-N-Murphy-Ave-94085/home/658461,MLSListings,ML81630147,N,Y,37.3878835,-122.0264937
PAST SALE,January-25-2017,Condo/Co-op,631 E El Camino Real #102,SUNNYVALE,CA,94087,445000,1,1.0,SUNNYVALE,590,1864,2006,370,754,320,Sold,,,http://www.redfin.com/CA/Sunnyvale/631-E-El-Camino-Real-94087/unit-102/home/12179612,MLSListings,ML81636679,N,Y,37.3614325,-122.0235859
PAST SALE,October-24-2016,Single Family Residential,1361 La Bella Ave,SUNNYVALE,CA,94087,1492000,3,1.0,SUNNYVALE,1034,9576,1950,463,1443,,Sold,,,http://www.redfin.com/CA/Sunnyvale/1361-La-Bella-Ave-94087/home/1355130,MLSListings,ML81626990,N,Y,37.3499393,-122.0378883
PAST SALE,,Single Family Residential,148 Charles St,Sunnyvale,CA,94086,1000000,2,1.0,,893,7320,1942,,1120,,,,,http://www.redfin.com/CA/Sunnyvale/148-Charles-St-94086/home/1258986,,,N,Y,37.3784845,-122.034775
PAST SALE,September-30-2016,Single Family Residential,565 Kirk Ave,SUNNYVALE,CA,94085,1000000,3,1.0,SUNNYVALE,1260,5201,1950,487,794,,Sold,,,http://www.redfin.com/CA/Sunnyvale/565-Kirk-Ave-94085/home/1670827,MLSListings,ML81594916,N,Y,37.3890127,-122.0238858
PAST SALE,December-23-2016,Single Family Residential,675 E Mc Kinley Ave,SUNNYVALE,CA,94086,1100000,3,1.0,SUNNYVALE,1040,5150,1952,403,1058,,Sold,,,http://www.redfin.com/CA/Sunnyvale/675-E-McKinley-Ave-94086/home/1462756,MLSListings,ML81631993,N,Y,37.371458,-122.019224
PAST SALE,,Condo/Co-op,990 La Mesa Ter Unit C,Sunnyvale,CA,94086,650000,2,1.0,,854,,1986,,761,,,,,http://www.redfin.com/CA/Sunnyvale/990-La-Mesa-Ter-94086/unit-C/home/628954,,,N,Y,37.3855855,-122.0428711
PAST SALE,,Condo/Co-op,420 E Evelyn Ave Unit Z103,Sunnyvale,CA,94086,565000,1,1.0,,755,,2005,,748,,,,,http://www.redfin.com/CA/Sunnyvale/420-E-Evelyn-Ave-94086/unit-Z103/home/2123125,,,N,Y,37.375645,-122.025389
PAST SALE,,Condo/Co-op,891 W California Ave,Sunnyvale,CA,94086,560000,2,1.0,,760,,1983,,737,,,,,http://www.redfin.com/CA/Sunnyvale/891-W-California-Ave-94086/home/894213,,,N,Y,37.3839811,-122.0399483
PAST SALE,June-15-2016,Single Family Residential,370 Balsam Ave,SUNNYVALE,CA,94085,1050000,3,1.0,SUNNYVALE,1130,5148,1949,594,929,,Sold,,,http://www.redfin.com/CA/Sunnyvale/370-Balsam-Ave-94085/home/1802605,MLSListings,ML81583634,N,Y,37.3885941,-122.0228852
PAST SALE,,Single Family Residential,171 W Arques Ave,Sunnyvale,CA,94085,850000,2,1.0,,1010,4992,1942,,842,,,,,http://www.redfin.com/CA/Sunnyvale/171-W-Arques-Ave-94085/home/1423378,,,N,Y,37.3842132,-122.0292561
PAST SALE,,Condo/Co-op,929 E El Camino Real,Sunnyvale,CA,94087,525000,1,1.0,,785,,1988,,669,,,,,http://www.redfin.com/CA/Sunnyvale/929-E-El-Camino-Real-94087/home/1322215,,,N,Y,37.3534488,-122.0120835
PAST SALE,,Single Family Residential,684 Carolina Ave,Sunnyvale,CA,94085,212500,3,1.0,,1056,6344,1953,,201,,,,,http://www.redfin.com/CA/Sunnyvale/684-Carolina-Ave-94085/home/657496,,,N,Y,37.3918862,-122.0168535
PAST SALE,April-8-2016,Condo/Co-op,929 E El Camino Real Unit 210C,SUNNYVALE,CA,94087,595000,2,1.0,SUNNYVALE,747,1200,1988,662,797,425,Sold,,,http://www.redfin.com/CA/Sunnyvale/929-E-El-Camino-Real-94087/unit-210C/home/21859140,MLSListings,ML81565541,N,Y,37.3534488,-122.0120835
PAST SALE,December-6-2016,Condo/Co-op,935 La Mesa Ter Unit G,SUNNYVALE,CA,94086,673000,2,1.0,SUNNYVALE,854,2375,1985,420,788,365,Sold,,,http://www.redfin.com/CA/Sunnyvale/935-La-Mesa-Ter-94086/unit-G/home/1254528,MLSListings,ML81629690,N,Y,37.3847461,-122.0408397
PAST SALE,November-23-2016,Condo/Co-op,880 E Fremont Ave #202,SUNNYVALE,CA,94087,555000,1,1.0,SUNNYVALE,733,1389,1987,433,757,317,Sold,,,http://www.redfin.com/CA/Sunnyvale/880-E-Fremont-Ave-94087/unit-202/home/2125422,MLSListings,ML81600029,N,Y,37.35183,-122.015045
PAST SALE,August-26-2016,Mobile/Manufactured Home,580 Ahwanee Ave #54,SUNNYVALE,CA,94085,50000,1,1.0,SUNNYVALE,618,,1962,522,81,,Sold,,,http://www.redfin.com/CA/Sunnyvale/580-Ahwanee-Ave-94085/unit-54/home/21855642,MLSListings,ML81592846,N,Y,37.395001,-122.015132
PAST SALE,June-15-2016,Condo/Co-op,1908 Magdalena Cir #59,SANTA CLARA,CA,95051,652000,2,1.0,SANTA CLARA,920,920,1986,594,709,351,Sold,,,http://www.redfin.com/CA/Santa-Clara/1908-Magdalena-Cir-95051/unit-59/home/670691,MLSListings,ML81584826,N,Y,37.3573415,-121.9995363
PAST SALE,February-29-2016,Single Family Residential,742 Georgia Ave,SUNNYVALE,CA,94085,943000,3,1.0,SUNNYVALE,996,6118,1953,701,947,,Sold,,,http://www.redfin.com/CA/Sunnyvale/742-Georgia-Ave-94085/home/1161366,MLSListings,ML81522188,N,Y,37.3936534,-122.0173271
PAST SALE,November-17-2016,Single Family Residential,1390 Cordilleras Ave,SUNNYVALE,CA,94087,1495000,3,1.0,SUNNYVALE,1034,9450,1950,439,1446,,Sold,,,http://www.redfin.com/CA/Sunnyvale/1390-Cordilleras-Ave-94087/home/568031,MLSListings,ML81612873,N,Y,37.3488879,-122.0384097
PAST SALE,,Single Family Residential,488 E Evelyn Ave,Sunnyvale,CA,94086,700000,3,1.0,,956,4650,1926,,732,,,,,http://www.redfin.com/CA/Sunnyvale/488-E-Evelyn-Ave-94086/home/1275844,,,N,Y,37.3747578,-122.0243678
PAST SALE,,Condo/Co-op,233 Red Oak Dr E Apt C,Sunnyvale,CA,94086,676000,3,1.0,,1174,,1971,,576,,,,,http://www.redfin.com/CA/Sunnyvale/233-Red-Oak-Dr-E-94086/unit-C/home/1641243,,,N,Y,37.3714691,-122.009526
PAST SALE,,Single Family Residential,789 Georgia Ave,Sunnyvale,CA,94085,1000000,3,1.0,,1008,6084,1953,,992,,,,,http://www.redfin.com/CA/Sunnyvale/789-Georgia-Ave-94085/home/1113605,,,N,Y,37.3946014,-122.0175578
PAST SALE,October-14-2016,Single Family Residential,872 Dwight Ave,SUNNYVALE,CA,94086,875000,3,1.0,SUNNYVALE,1009,5000,1944,473,867,,Sold,,,http://www.redfin.com/CA/Sunnyvale/872-Dwight-Ave-94086/home/1576285,MLSListings,ML81612299,N,Y,37.376415,-122.0178629
PAST SALE,October-20-2016,Condo/Co-op,929 E El Camino Real Unit 223F,SUNNYVALE,CA,94087,525000,1,1.0,SUNNYVALE,785,1197,1988,467,669,432,Sold,,,http://www.redfin.com/CA/Sunnyvale/929-E-El-Camino-Real-94087/unit-223F/home/108577555,MLSListings,ML81600425,N,Y,37.3534488,-122.0120835
PAST SALE,March-14-2016,Townhouse,220 Red Oak Dr Unit A,SUNNYVALE,CA,94086,681000,2,1.0,SUNNYVALE,926,1441,1971,687,735,380,Sold,,,http://www.redfin.com/CA/Sunnyvale/220-Red-Oak-Dr-94086/unit-A/home/103484099,MLSListings,ML81548674,N,Y,37.3704821,-122.0097781
PAST SALE,March-10-2017,Townhouse,224 Red Oak Dr Unit D,SUNNYVALE,CA,94086,625000,2,1.0,SUNNYVALE,926,1440,1971,326,675,405,Sold,,,http://www.redfin.com/CA/Sunnyvale/224-Red-Oak-Dr-94086/unit-D/home/105499599,MLSListings,ML81637379,N,Y,37.3705504,-122.0097775
PAST SALE,July-29-2016,Single Family Residential,838 San Mateo Ct,SUNNYVALE,CA,94085,920000,3,1.0,SUNNYVALE,1078,4998,1956,550,853,,Sold,,,http://www.redfin.com/CA/Sunnyvale/838-San-Mateo-Ct-94085/home/913958,MLSListings,ML81590579,N,Y,37.3930835,-122.0076981
PAST SALE,May-11-2016,Condo/Co-op,880 E Fremont Ave #211,SUNNYVALE,CA,94087,580000,1,1.0,SUNNYVALE,733,1391,1987,629,791,317,Sold,,,http://www.redfin.com/CA/Sunnyvale/880-E-Fremont-Ave-94087/unit-211/home/2125424,MLSListings,ML81566565,N,Y,37.35183,-122.015045
PAST SALE,,Townhouse,212 Red Oak Dr E,Sunnyvale,CA,94086,685000,3,1.5,,1174,,1971,,583,,,,,http://www.redfin.com/CA/Sunnyvale/212-Red-Oak-Dr-E-94086/home/1532270,,,N,Y,37.3716909,-122.0087453
PAST SALE,March-15-2017,Single Family Residential,952 Robin Way,SUNNYVALE,CA,94087,1735000,3,1.5,SUNNYVALE,1227,9300,1954,321,1414,,Sold,,,http://www.redfin.com/CA/Sunnyvale/952-Robin-Way-94087/home/650523,MLSListings,ML81636465,N,Y,37.3638333,-122.0599028
PAST SALE,June-13-2016,Single Family Residential,1694 Clay Dr,LOS ALTOS,CA,94024,2960000,1,1.5,LOS ALTOS,1300,300,1968,596,2277,,Sold,,,http://www.redfin.com/CA/Los-Altos/1694-Clay-Dr-94024/home/1336540,MLSListings,ML81582718,N,Y,37.3491227,-122.0661331
PAST SALE,June-23-2016,Single Family Residential,698 Madrone Ave,SUNNYVALE,CA,94085,1050000,3,1.5,SUNNYVALE,1554,5797,1953,586,676,,Sold,,,http://www.redfin.com/CA/Sunnyvale/698-Madrone-Ave-94085/home/1460038,MLSListings,ML81592424,N,Y,37.3940827,-122.0254286
PAST SALE,,Single Family Residential,285 W Eaglewood Ave,Sunnyvale,CA,94085,132000,4,1.0,,1416,5200,1953,,93,,,,,http://www.redfin.com/CA/Sunnyvale/285-W-Eaglewood-Ave-94085/home/869627,,,N,Y,37.3924218,-122.0273753
PAST SALE,September-1-2016,Single Family Residential,1059 S Bernardo Ave,SUNNYVALE,CA,94087,1380000,3,1.5,SUNNYVALE,1168,5998,1954,516,1182,,Sold,,,http://www.redfin.com/CA/Sunnyvale/1059-S-Bernardo-Ave-94087/home/689466,MLSListings,ML81597023,N,Y,37.3618951,-122.0600391
PAST SALE,July-28-2016,Townhouse,1289 Picasso Dr,SUNNYVALE,CA,94087,750000,2,1.5,SUNNYVALE,1222,1045,1972,551,614,394,Sold,,,http://www.redfin.com/CA/Sunnyvale/1289-Picasso-Dr-94087/home/1255414,MLSListings,ML81585512,N,Y,37.352476,-122.02403
PAST SALE,June-29-2017,Single Family Residential,18771 East Homestead Ave,SUNNYVALE,CA,94087,4000000,2,1.5,SUNNYVALE,1839,36154,1949,215,2175,,Sold,,,http://www.redfin.com/CA/Sunnyvale/18771-E-Homestead-Rd-94087/home/108957723,MLSListings,ML81612738,N,Y,37.3379134,-122.0008127
PAST SALE,July-19-2017,Single Family Residential,965 E Duane Ave,SUNNYVALE,CA,94085,960000,3,1.5,SUNNYVALE,1050,5200,1954,195,914,,Sold,,,http://www.redfin.com/CA/Sunnyvale/965-E-Duane-Ave-94085/home/1223736,MLSListings,ML81654776,N,Y,37.3887396,-122.0014558
PAST SALE,September-29-2016,Townhouse,125 Connemara Way #69,SUNNYVALE,CA,94087,820000,2,1.5,SUNNYVALE,1136,2339,1971,488,722,298,Sold,,,http://www.redfin.com/CA/Sunnyvale/125-Connemara-Way-94087/unit-69/home/1622082,MLSListings,ML81601354,N,Y,37.3471379,-122.0318218
PAST SALE,,Townhouse,675 Crescent Ave,Sunnyvale,CA,94087,880000,2,1.0,,1222,1044,1972,,720,,,,,http://www.redfin.com/CA/Sunnyvale/675-Crescent-Ave-94087/home/1138172,,,N,Y,37.355047,-122.024149
PAST SALE,June-8-2017,Mobile/Manufactured Home,1220 Tasman Dr #359,SUNNYVALE,CA,94089,125000,2,1.5,SUNNYVALE,672,,1969,236,186,,Sold,,,http://www.redfin.com/CA/Sunnyvale/1220-Tasman-Dr-94089/unit-359/home/61580960,MLSListings,ML81643442,N,Y,37.4013456,-121.9913841
PAST SALE,August-19-2016,Townhouse,682 Crescent Ave,SUNNYVALE,CA,94087,725000,2,1.5,SUNNYVALE,1222,1045,1972,529,593,394,Sold,,,http://www.redfin.com/CA/Sunnyvale/682-Crescent-Ave-94087/home/1355491,MLSListings,ML81593700,N,Y,37.354328,-122.023957
PAST SALE,July-30-2016,Single Family Residential,663 Manzanita Ave,SUNNYVALE,CA,94085,930000,3,1.5,SUNNYVALE,1092,5000,1953,549,852,,Sold,,,http://www.redfin.com/CA/Sunnyvale/663-Manzanita-Ave-94085/home/1247219,MLSListings,ML81589142,N,Y,37.3932144,-122.0253884
PAST SALE,November-21-2016,Single Family Residential,602 Bryan Ave,SUNNYVALE,CA,94086,975000,3,1.5,SUNNYVALE,1449,5150,1952,435,673,,Sold,,,http://www.redfin.com/CA/Sunnyvale/602-Bryan-Ave-94086/home/723742,MLSListings,ML81632399,N,Y,37.3721948,-122.0212937
PAST SALE,April-29-2016,Townhouse,751 Carmel Ave,SUNNYVALE,CA,94085,660000,2,1.5,SUNNYVALE,1105,1576,2005,641,597,250,Sold,,,http://www.redfin.com/CA/Sunnyvale/751-Carmel-Ave-94085/home/1278100,MLSListings,ML81576999,N,Y,37.390106,-122.009835
PAST SALE,,Single Family Residential,1075 S Bernardo Ave,Sunnyvale,CA,94087,1460500,3,1.0,,1168,6460,1954,,1250,,,,,http://www.redfin.com/CA/Sunnyvale/1075-S-Bernardo-Ave-94087/home/780867,,,N,Y,37.3612008,-122.0602435
PAST SALE,May-5-2016,Single Family Residential,1035 S Bernardo Ave,SUNNYVALE,CA,94087,1397000,3,1.5,SUNNYVALE,1168,6000,1954,635,1196,,Sold,,,http://www.redfin.com/CA/Sunnyvale/1035-S-Bernardo-Ave-94087/home/1592293,MLSListings,ML81579909,N,Y,37.3628421,-122.0596948
PAST SALE,May-5-2016,Single Family Residential,850 Lewis Ave,SUNNYVALE,CA,94086,1204800,2,1.5,SUNNYVALE,1041,6351,1954,635,1157,,Sold,,,http://www.redfin.com/CA/Sunnyvale/850-Lewis-Ave-94086/home/1710749,MLSListings,ML81565417,N,Y,37.3787313,-122.0398631
PAST SALE,March-7-2017,Townhouse,125 Connemara Way #122,SUNNYVALE,CA,94087,870000,2,1.5,SUNNYVALE,1136,2150,1971,329,766,298,Sold,,,http://www.redfin.com/CA/Sunnyvale/125-Connemara-Way-94087/unit-122/home/1258113,MLSListings,ML81638170,N,Y,37.3471379,-122.0318218
PAST SALE,December-20-2016,Condo/Co-op,233 Red Oak Dr Unit C,SUNNYVALE,CA,94086,676000,3,1.5,SUNNYVALE,1174,879,1971,406,576,405,Sold,,,http://www.redfin.com/CA/Sunnyvale/233-Red-Oak-Dr-94086/unit-C/home/109495652,MLSListings,ML81630848,N,Y,37.3709606,-122.0099645
PAST SALE,May-20-2016,Single Family Residential,1628 Samedra St,SUNNYVALE,CA,94087,1805000,3,1.5,SUNNYVALE,1144,9825,1953,620,1578,,Sold,,,http://www.redfin.com/CA/Sunnyvale/1628-Samedra-St-94087/home/770291,MLSListings,ML81577137,N,Y,37.3400247,-122.0508481
PAST SALE,March-8-2016,Townhouse,688 S Garland Ter,SUNNYVALE,CA,94086,828888,2,1.5,SUNNYVALE,1122,720,1974,693,739,435,Sold,,,http://www.redfin.com/CA/Sunnyvale/688-Garland-Ter-S-94086/home/1423581,MLSListings,ML81549238,N,Y,37.365201,-122.022376
PAST SALE,August-16-2017,Condo/Co-op,811 W California Ave Unit S,SUNNYVALE,CA,94086,698000,2,1.5,SUNNYVALE,760,2002,1983,167,918,314,Sold,,,http://www.redfin.com/CA/Sunnyvale/811-W-California-Ave-94086/unit-S/home/105496743,MLSListings,ML81668480,N,Y,37.3834315,-122.0372026
PAST SALE,August-5-2016,Townhouse,10421 Mary,CUPERTINO,CA,95014,925000,2,1.5,CUPERTINO,1216,1600,1971,543,761,344,Sold,,,http://www.redfin.com/CA/Cupertino/10421-Mary-Ave-95014/home/1178490,MLSListings,ML81592069,N,Y,37.329962,-122.051338
PAST SALE,August-31-2016,Single Family Residential,935 E Cardinal Dr,SUNNYVALE,CA,94087,1288000,3,1.5,SUNNYVALE,1138,5702,1953,517,1132,,Sold,,,http://www.redfin.com/CA/Sunnyvale/935-E-Cardinal-Dr-94087/home/1827768,MLSListings,ML81596084,N,Y,37.3645771,-122.0609521
PAST SALE,June-9-2017,Single Family Residential,598 Pine Ave,SUNNYVALE,CA,94085,1332000,3,1.5,SUNNYVALE,1132,5824,1952,235,1177,,Sold,,,http://www.redfin.com/CA/Sunnyvale/598-Pine-Ave-94085/home/769272,MLSListings,ML81649667,N,Y,37.3914853,-122.0288033
PAST SALE,June-15-2017,Single Family Residential,217 E Taylor Ave,SUNNYVALE,CA,94085,1165000,2,1.5,SUNNYVALE,1483,5700,1948,229,786,,Sold,,,http://www.redfin.com/CA/Sunnyvale/217-E-Taylor-Ave-94085/home/659083,MLSListings,ML81647209,N,Y,37.3853078,-122.0254985
PAST SALE,April-6-2017,Condo/Co-op,821 W California Ave Unit G,SUNNYVALE,CA,94086,600000,2,1.5,SUNNYVALE,785,2002,1983,299,764,318,Sold,,,http://www.redfin.com/CA/Sunnyvale/821-W-California-Ave-94086/unit-G/home/1867624,MLSListings,ML81640658,N,Y,37.3835222,-122.0376217
PAST SALE,October-3-2017,Single Family Residential,315 Jarvis Ct,SUNNYVALE,CA,94086,1625000,3,1.5,SUNNYVALE,1499,6000,1954,119,1084,,Sold,,,http://www.redfin.com/CA/Sunnyvale/315-Jarvis-Ct-94086/home/666864,MLSListings,ML81676685,N,Y,37.3694325,-122.0298914
PAST SALE,August-25-2017,Single Family Residential,623 Dunholme Way,SUNNYVALE,CA,94087,1840000,2,1.5,SUNNYVALE,1254,9513,1949,158,1467,,Sold,,,http://www.redfin.com/CA/Sunnyvale/623-Dunholme-Way-94087/home/692184,MLSListings,ML81671532,N,Y,37.3450754,-122.0251305
PAST SALE,September-26-2017,Townhouse,692 Picasso Ter,SUNNYVALE,CA,94087,1002000,2,1.5,SUNNYVALE,1184,1004,1972,126,846,402,Sold,,,http://www.redfin.com/CA/Sunnyvale/692-Picasso-Ter-94087/home/1763795,MLSListings,ML81672177,N,Y,37.352875,-122.024283
PAST SALE,May-22-2017,Townhouse,690 Picasso Ter,SUNNYVALE,CA,94087,960000,2,1.5,SUNNYVALE,1184,1004,1972,253,811,402,Sold,,,http://www.redfin.com/CA/Sunnyvale/690-Picasso-Ter-94087/home/781178,MLSListings,ML81647229,N,Y,37.352825,-122.024282
PAST SALE,July-14-2017,Townhouse,610 S Fair Oaks Ave,SUNNYVALE,CA,94086,845000,2,1.5,SUNNYVALE,1122,720,1974,200,753,435,Sold,,,http://www.redfin.com/CA/Sunnyvale/610-S-Fair-Oaks-Ave-94086/home/1223872,MLSListings,ML81646292,N,Y,37.3666094,-122.0230485
PAST SALE,September-21-2016,Townhouse,753 Carmel Ave,SUNNYVALE,CA,94085,640000,2,1.5,SUNNYVALE,1105,1576,2005,496,579,250,Sold,,,http://www.redfin.com/CA/Sunnyvale/753-Carmel-Ave-94085/home/1050717,MLSListings,ML81600583,N,Y,37.390096,-122.009787
PAST SALE,January-11-2018,Single Family Residential,439 Glendale Ave,SUNNYVALE,CA,94085,1360000,3,1.5,SUNNYVALE,996,6229,1951,19,1365,,Sold,,,http://www.redfin.com/CA/Sunnyvale/439-Glendale-Ave-94085/home/1559153,MLSListings,ML81686525,N,Y,37.395091,-122.0175475
PAST SALE,November-3-2017,Single Family Residential,654 San Patricio Ave,SUNNYVALE,CA,94085,1300880,3,1.5,SUNNYVALE,1112,5350,1954,88,1170,,Sold,,,http://www.redfin.com/CA/Sunnyvale/654-San-Patricio-Ave-94085/home/1071488,MLSListings,ML81676648,N,Y,37.3891078,-122.0068992
PAST SALE,May-19-2017,Townhouse,763 Carmel Ave,SUNNYVALE,CA,94085,755000,2,1.5,SUNNYVALE,1105,1575,2005,256,683,250,Sold,,,http://www.redfin.com/CA/Sunnyvale/763-Carmel-Ave-94085/home/1050729,MLSListings,ML81646487,Y,Y,37.390029,-122.009466
PAST SALE,November-1-2017,Single Family Residential,630 San Miguel Ave,SUNNYVALE,CA,94085,1200000,3,1.5,SUNNYVALE,1112,6206,1954,90,1079,,Sold,,,http://www.redfin.com/CA/Sunnyvale/630-San-Miguel-Ave-94085/home/1198641,MLSListings,ML81676555,N,Y,37.3885343,-122.0077922
PAST SALE,November-28-2017,Townhouse,618 S Fair Oaks Ave,SUNNYVALE,CA,94086,830000,2,1.5,SUNNYVALE,1122,720,1974,63,740,380,Sold,,,http://www.redfin.com/CA/Sunnyvale/618-S-Fair-Oaks-Ave-94086/home/1737310,MLSListings,ML81679789,N,Y,37.3662657,-122.0232905
PAST SALE,October-28-2016,Condo/Co-op,10355 Mary Ave,CUPERTINO,CA,95014,945000,2,1.5,CUPERTINO,1216,1600,1971,459,777,344,Sold,,,http://www.redfin.com/CA/Cupertino/10355-Mary-Ave-95014/home/1696714,MLSListings,ML81588279,N,Y,37.329254,-122.051379
PAST SALE,September-7-2017,Single Family Residential,755 San Ramon Ave,SUNNYVALE,CA,94085,1050000,3,1.5,SUNNYVALE,1442,5304,1954,145,728,,Sold,,,http://www.redfin.com/CA/Sunnyvale/755-San-Ramon-Ave-94085/home/935744,MLSListings,ML81670464,N,Y,37.39142,-122.0056272
PAST SALE,June-8-2017,Single Family Residential,695 San Miguel Ave,SUNNYVALE,CA,94085,1089000,4,1.5,SUNNYVALE,1112,5000,1954,236,979,,Sold,,,http://www.redfin.com/CA/Sunnyvale/695-San-Miguel-Ave-94085/home/1559275,MLSListings,ML81651355,N,Y,37.3900097,-122.0083009
PAST SALE,March-27-2017,Single Family Residential,585 Maple Ave,SUNNYVALE,CA,94085,1180000,4,1.5,SUNNYVALE,1284,5184,1950,309,919,,Sold,,,http://www.redfin.com/CA/Sunnyvale/585-Maple-Ave-94085/home/1562516,MLSListings,ML81641456,N,Y,37.388889,-122.0196223
PAST SALE,October-26-2016,Single Family Residential,409 Peralta Ave,SUNNYVALE,CA,94086,1346000,3,1.5,SUNNYVALE,1144,5501,1954,461,1177,,Sold,,,http://www.redfin.com/CA/Sunnyvale/409-Peralta-Ave-94086/home/1681426,MLSListings,ML81614938,N,Y,37.3736291,-122.0427265
PAST SALE,April-11-2017,Single Family Residential,880 San Mateo Ct,SUNNYVALE,CA,94085,940000,3,1.5,SUNNYVALE,1112,5880,1954,294,845,,Sold,,,http://www.redfin.com/CA/Sunnyvale/880-San-Mateo-Ct-94085/home/673624,MLSListings,ML81642354,N,Y,37.3940604,-122.0076198
PAST SALE,,Townhouse,209 Red Oak Dr E Apt F,Sunnyvale,CA,94086,750000,3,1.0,,1174,880,1971,,639,,,,,http://www.redfin.com/CA/Sunnyvale/209-Red-Oak-Dr-E-94086/unit-F/home/1590312,,,N,Y,37.3721068,-122.0094111
PAST SALE,January-5-2018,Single Family Residential,505 S Frances St,SUNNYVALE,CA,94086,1910000,3,1.5,SUNNYVALE,1580,6500,1935,25,1209,,Sold,,,http://www.redfin.com/CA/Sunnyvale/505-S-Frances-St-94086/home/544410,MLSListings,ML81684204,N,Y,37.3709736,-122.0335208
PAST SALE,April-6-2017,Townhouse,236 E Red Oak Dr Unit P,SUNNYVALE,CA,94086,691000,2,1.5,SUNNYVALE,974,760,1971,299,709,405,Sold,,,http://www.redfin.com/CA/Sunnyvale/236-Red-Oak-Dr-E-94086/unit-P/home/669056,MLSListings,ML81640320,N,Y,37.3707322,-122.008858
PAST SALE,March-21-2017,Townhouse,530 La Conner Dr #23,SUNNYVALE,CA,94087,988000,3,1.5,SUNNYVALE,1296,792,1972,315,762,467,Sold,,,http://www.redfin.com/CA/Sunnyvale/530-La-Conner-Dr-94087/unit-23/home/972263,MLSListings,ML81640880,N,Y,37.3398477,-122.0333864
PAST SALE,May-15-2017,Single Family Residential,401 Peralta Ave,SUNNYVALE,CA,94086,1725000,3,1.5,SUNNYVALE,1144,6000,1954,260,1508,,Sold,,,http://www.redfin.com/CA/Sunnyvale/401-Peralta-Ave-94086/home/628410,MLSListings,ML81646500,N,Y,37.3737895,-122.0427021
PAST SALE,May-9-2017,Single Family Residential,840 Tamarack Ln,SUNNYVALE,CA,94086,1250000,3,1.5,SUNNYVALE,1439,6110,1955,266,869,,Sold,,,http://www.redfin.com/CA/Sunnyvale/840-Tamarack-Ln-94086/home/689988,MLSListings,ML81637786,N,Y,37.3601854,-122.0006209
PAST SALE,February-12-2016,Condo/Co-op,1103 Reed Ave Unit A,SUNNYVALE,CA,94086,725000,3,1.5,SUNNYVALE,1084,1050,1972,718,669,377,Sold,,,http://www.redfin.com/CA/Sunnyvale/1103-Reed-Ave-94086/unit-A/home/1513951,MLSListings,ML81545600,N,Y,37.3671072,-121.9991034
PAST SALE,March-30-2017,Condo/Co-op,964 Bellomo Ave #3,SUNNYVALE,CA,94086,800000,2,1.5,SUNNYVALE,1250,1672,1984,306,640,315,Sold,,,http://www.redfin.com/CA/Sunnyvale/964-Bellomo-Ave-94086/unit-3/home/1763879,MLSListings,ML81639556,N,Y,37.357251,-122.015162
PAST SALE,August-31-2016,Townhouse,215 W Red Oak Dr Unit M,SUNNYVALE,CA,94086,620000,2,1.5,SUNNYVALE,974,757,1971,517,637,395,Sold,,,http://www.redfin.com/CA/Sunnyvale/215-Red-Oak-Dr-W-94086/unit-M/home/668798,MLSListings,ML81582375,N,Y,37.3718248,-122.0109178
PAST SALE,October-17-2017,Single Family Residential,675 Manzanita Ave,SUNNYVALE,CA,94085,1360000,3,1.5,SUNNYVALE,1092,5000,1953,105,1245,,Sold,,,http://www.redfin.com/CA/Sunnyvale/675-Manzanita-Ave-94085/home/1247216,MLSListings,ML81678931,N,Y,37.3934798,-122.0252911
PAST SALE,September-6-2017,Single Family Residential,656 W Fernwood Cir,SUNNYVALE,CA,94085,1295000,3,1.5,SUNNYVALE,1083,5044,1952,146,1196,,Sold,,,http://www.redfin.com/CA/Sunnyvale/656-W-Fernwood-Cir-94085/home/657848,MLSListings,ML81675295,Y,Y,37.3917504,-122.0217446
PAST SALE,October-17-2017,Single Family Residential,275 W Eaglewood Ave,SUNNYVALE,CA,94085,1250000,3,1.5,SUNNYVALE,1052,5200,1953,105,1188,,Sold,,,http://www.redfin.com/CA/Sunnyvale/275-W-Eaglewood-Ave-94085/home/1079571,MLSListings,ML81673316,N,Y,37.3923605,-122.0271948
PAST SALE,July-12-2017,Townhouse,10423 Mary Ave,CUPERTINO,CA,95014,1020000,2,1.5,CUPERTINO,1216,1600,1971,202,839,359,Sold,,,http://www.redfin.com/CA/Cupertino/10423-Mary-Ave-95014/home/776793,MLSListings,ML81667252,N,Y,37.329918,-122.051338
PAST SALE,,Townhouse,10437 Mary Ave,Cupertino,CA,95014,1090000,2,1.0,,1216,1600,1971,,896,,,,,http://www.redfin.com/CA/Cupertino/10437-Mary-Ave-95014/home/649572,,,N,Y,37.32961,-122.051343
PAST SALE,,Single Family Residential,1219 W Knickerbocker Dr,Sunnyvale,CA,94087,1850000,3,2.0,,1168,5700,1954,,1584,,,,,http://www.redfin.com/CA/Sunnyvale/1219-W-Knickerbocker-Dr-94087/home/1589797,,,N,Y,37.364987,-122.0597856
PAST SALE,September-6-2017,Single Family Residential,445 Purisima Ave,SUNNYVALE,CA,94086,1831000,3,1.5,SUNNYVALE,1194,5500,1954,146,1534,,Sold,,,http://www.redfin.com/CA/Sunnyvale/445-Purisima-Ave-94086/home/1854880,MLSListings,ML81672328,Y,Y,37.3727345,-122.0421464
PAST SALE,August-21-2017,Single Family Residential,545 Dawn Dr,SUNNYVALE,CA,94087,1780000,3,1.5,SUNNYVALE,1360,8775,1949,162,1309,,Sold,,,http://www.redfin.com/CA/Sunnyvale/545-Dawn-Dr-94087/home/1398059,MLSListings,ML81670020,N,Y,37.36087,-122.0343
PAST SALE,May-16-2017,Single Family Residential,1030 Robin Way,SUNNYVALE,CA,94087,1750000,3,1.5,SUNNYVALE,1227,9262,1954,259,1426,,Sold,,,http://www.redfin.com/CA/Sunnyvale/1030-Robin-Way-94087/home/650521,MLSListings,ML81645241,N,Y,37.3628929,-122.0602246
PAST SALE,,Single Family Residential,550 Sunnymount Ave,Sunnyvale,CA,94087,1807909,3,1.0,,1989,8850,1949,,909,,,,,http://www.redfin.com/CA/Sunnyvale/550-Sunnymount-Ave-94087/home/654091,,,N,Y,37.3595815,-122.0345671
PAST SALE,October-12-2017,Townhouse,125 Connemara Way #106,SUNNYVALE,CA,94087,990000,2,1.5,SUNNYVALE,1136,2340,1971,110,871,298,Sold,,,http://www.redfin.com/CA/Sunnyvale/125-Connemara-Way-94087/unit-106/home/1764224,MLSListings,ML81677314,N,Y,37.3471379,-122.0318218
PAST SALE,October-6-2017,Townhouse,746 Winstead Ter,SUNNYVALE,CA,94087,1175500,3,1.5,SUNNYVALE,1276,1452,1972,116,921,370,Sold,,,http://www.redfin.com/CA/Sunnyvale/746-Winstead-Ter-94087/home/1079642,MLSListings,ML81680647,N,Y,37.353249,-122.0435693
PAST SALE,December-31-2017,Condo/Co-op,811 W California Ave Unit R,SUNNYVALE,CA,94086,770000,2,1.5,SUNNYVALE,760,669,1983,30,1013,315,Sold,,,http://www.redfin.com/CA/Sunnyvale/811-W-California-Ave-94086/unit-R/home/1083329,MLSListings,ML81687868,N,Y,37.3834315,-122.0372026
PAST SALE,January-5-2018,Condo/Co-op,801 W California Ave Unit K,SUNNYVALE,CA,94086,855000,2,1.5,SUNNYVALE,785,,1983,25,1089,318,Sold,,,http://www.redfin.com/CA/Sunnyvale/801-W-California-Ave-94086/unit-K/home/1223531,MLSListings,ML81684719,N,Y,37.3833437,-122.0369595
PAST SALE,October-30-2017,Condo/Co-op,831 W California Ave Unit M,SUNNYVALE,CA,94086,735000,2,1.5,SUNNYVALE,760,2002,1983,92,967,314,Sold,,,http://www.redfin.com/CA/Sunnyvale/831-W-California-Ave-94086/unit-M/home/722726,MLSListings,ML81679584,N,Y,37.3835391,-122.0378803
PAST SALE,April-3-2017,Condo/Co-op,871 W California Ave Unit D,SUNNYVALE,CA,94086,660000,2,1.5,SUNNYVALE,760,2002,1983,302,868,314,Sold,,,http://www.redfin.com/CA/Sunnyvale/871-W-California-Ave-94086/unit-D/home/1091767,MLSListings,ML81643341,N,Y,37.3839602,-122.0396955
