SALE TYPE,SOLD DATE,PROPERTY TYPE,ADDRESS,CITY,STATE,ZIP,PRICE,BEDS,BATHS,LOCATION,SQUARE FEET,LOT SIZE,YEAR BUILT,DAYS ON MARKET,$/SQUARE FEET,HOA/MONTH,STATUS,NEXT OPEN HOUSE START TIME,NEXT OPEN HOUSE END TIME,URL (SEE http://www.redfin.com/buy-a-home/comparative-market-analysis FOR INFO ON PRICING),SOURCE,MLS#,FAVORITE,INTERESTED,LATITUDE,LONGITUDE
PAST SALE,,Single Family Residential,4 Gem Ave,Los Gatos,CA,95030,2100000,3,2.0,,1850,8250,1946,,1135,,,,,http://www.redfin.com/CA/Los-Gatos/4-Gem-Ave-95030/home/1479471,,,N,Y,37.2260526,-121.9652746
PAST SALE,,Single Family Residential,14331 Browns Ln,Los Gatos,CA,95032,850000,2,1.0,,816,9523,1948,,1042,,,,,http://www.redfin.com/CA/Los-Gatos/14331-Browns-Ln-95032/home/821385,,,N,Y,37.2603076,-121.9721681
PAST SALE,June-23-2017,Condo/Co-op,420 Alberto Way #4,LOS GATOS,CA,95032,585000,1,1.0,LOS GATOS,789,950,1970,221,741,467,Sold,,,http://www.redfin.com/CA/Los-Gatos/420-Alberto-Way-95032/unit-4/home/1269510,MLSListings,ML81653610,N,Y,37.2272959,-121.9718705
PAST SALE,September-25-2017,Single Family Residential,17741 Comanche Trl,LOS GATOS,CA,95033,550000,2,1.0,LOS GATOS,549,3956,1935,127,1002,159,Sold,,,http://www.redfin.com/CA/Los-Gatos/17741-Comanche-Trl-95033/home/916663,MLSListings,ML81674021,N,Y,37.163469,-121.980804
PAST SALE,October-11-2017,Single Family Residential,14270 Arnerich Rd,Los Gatos,CA,95032,1250000,3,1.0,Los Gatos,1466,87120,1921,111,853,,Sold,,,http://www.redfin.com/CA/Los-Gatos/14270-Arnerich-Rd-95032/home/915337,EBRD/CCAR/Bay East,40787794,N,Y,37.2140606,-121.9176642
PAST SALE,August-25-2017,Single Family Residential,17721 Navajo Trl,LOS GATOS,CA,95033,605000,2,1.0,LOS GATOS,841,3630,1960,158,719,130,Sold,,,http://www.redfin.com/CA/Los-Gatos/17721-Navajo-Trl-95033/home/1247491,MLSListings,ML81668652,N,Y,37.160659,-121.980286
PAST SALE,,Other,511 Westbranch Rd,Los Gatos,CA,95033,429000,1,1.0,,752,261360,1908,,570,,,,,http://www.redfin.com/CA/Los-Gatos/511-Westbranch-Rd-95033/home/2406194,,,N,Y,37.090744,-121.957563
PAST SALE,May-16-2017,Single Family Residential,21685 Woolaroc Dr,LOS GATOS,CA,95033,855000,2,1.0,LOS GATOS,1329,10976,1959,259,643,89,Sold,,,http://www.redfin.com/CA/Los-Gatos/21685-Woolaroc-Dr-95033/home/1154489,MLSListings,ML81645842,N,Y,37.1514482,-121.9921427
PAST SALE,,Single Family Residential,15571 Loma Vista Ave,Los Gatos,CA,95032,475000,2,1.0,,1213,7840,1940,,392,,,,,http://www.redfin.com/CA/Los-Gatos/15571-Loma-Vista-Ave-95032/home/12177232,,,N,Y,37.2421962,-121.9510215
PAST SALE,March-28-2017,Condo/Co-op,576 W Parr Ave #4,LOS GATOS,CA,95032,505000,2,1.0,LOS GATOS,934,1587,1987,308,541,436,Sold,,,http://www.redfin.com/CA/Los-Gatos/576-W-Parr-Ave-95032/unit-4/home/1755611,MLSListings,ML81641227,N,Y,37.2639008,-121.9636119
PAST SALE,July-7-2017,Single Family Residential,49 Fillmer Ave,LOS GATOS,CA,95030,1700000,2,1.0,LOS GATOS,1086,8792,1951,207,1565,,Sold,,,http://www.redfin.com/CA/Los-Gatos/49-Fillmer-Ave-95030/home/1552290,MLSListings,ML81653048,N,Y,37.2262075,-121.9661534
PAST SALE,December-26-2017,Condo/Co-op,95 Church St #2104,LOS GATOS,CA,95030,895000,1,1.0,LOS GATOS,1059,2100,1981,35,845,567,Sold,,,http://www.redfin.com/CA/Los-Gatos/95-Church-St-95030/unit-2104/home/864086,MLSListings,ML81675982,N,Y,37.2223445,-121.9792825
PAST SALE,November-8-2017,Single Family Residential,15 Loma Alta Ave,LOS GATOS,CA,95030,1358000,3,1.0,LOS GATOS,1276,5500,1925,83,1064,,Sold,,,http://www.redfin.com/CA/Los-Gatos/15-Loma-Alta-Ave-95030/home/1756461,MLSListings,ML81678878,N,Y,37.221856,-121.9717254
PAST SALE,October-6-2017,Condo/Co-op,576 W Parr Ave #10,LOS GATOS,CA,95032,575000,2,1.0,LOS GATOS,934,1587,1987,116,616,436,Sold,,,http://www.redfin.com/CA/Los-Gatos/576-W-Parr-Ave-95032/unit-10/home/1778505,MLSListings,ML81679631,N,Y,37.2639008,-121.9636119
PAST SALE,March-15-2017,Vacant Land,14320 Arnerich Rd,LOS GATOS,CA,95032,2150000,,,LOS GATOS,,704800,,321,,,Sold,,,http://www.redfin.com/CA/Los-Gatos/14320-Arnerich-Rd-95032/home/916084,MLSListings,ML81577864,N,Y,37.214525,-121.919548
PAST SALE,,Single Family Residential,43 Montgomery St,Los Gatos,CA,95030,1600000,2,1.0,,980,9150,1953,,1633,,,,,http://www.redfin.com/CA/Los-Gatos/43-Montgomery-St-95030/home/1831114,,,N,Y,37.2321386,-121.9830074
PAST SALE,April-13-2017,Single Family Residential,441 University Ave,LOS GATOS,CA,95032,1450000,2,1.0,LOS GATOS,1125,7260,1900,292,1289,,Sold,,,http://www.redfin.com/CA/Los-Gatos/441-University-Ave-95032/home/1421347,MLSListings,ML81642565,N,Y,37.2297053,-121.9790966
PAST SALE,March-29-2017,Vacant Land,28000 Loma Prieta Way,LOS GATOS,CA,95033,879000,,,LOS GATOS,,3535329,,307,,,Sold,,,http://www.redfin.com/CA/Los-Gatos/28000-Loma-Prieta-Way-95033/home/2407064,MLSListings,ML81613412,N,Y,37.094913,-121.876175
PAST SALE,July-20-2017,Single Family Residential,14300 Lora Dr,LOS GATOS,CA,95032,1500000,2,1.0,LOS GATOS,1142,19532,1939,194,1313,,Sold,,,http://www.redfin.com/CA/Los-Gatos/14300-Lora-Dr-95032/home/1179415,MLSListings,ML81656076,N,Y,37.260653,-121.9766225
PAST SALE,October-2-2017,Condo/Co-op,14225 Lora Dr #59,LOS GATOS,CA,95032,575000,2,1.0,LOS GATOS,996,2242,1963,120,577,365,Sold,,,http://www.redfin.com/CA/Los-Gatos/14225-Lora-Dr-95032/unit-59/home/1755792,MLSListings,ML81676919,N,Y,37.262377,-121.976824
PAST SALE,,Single Family Residential,24188 Loma Prieta Ave,Los Gatos,CA,95033,700000,2,1.0,,1133,127977,1953,,618,,,,,http://www.redfin.com/CA/Los-Gatos/24188-Loma-Prieta-Ave-95033/home/1192009,,,N,Y,37.125784,-121.927643
PAST SALE,June-30-2017,Single Family Residential,15911 West Rd,LOS GATOS,CA,95030,1188000,2,1.0,LOS GATOS,1045,7654,1926,214,1137,,Sold,,,http://www.redfin.com/CA/Los-Gatos/15911-West-Rd-95030/home/1039019,MLSListings,ML81653601,N,Y,37.2373222,-122.0073947
PAST SALE,September-15-2017,Single Family Residential,18475 Circle Dr,LOS GATOS,CA,95033,725000,2,1.0,LOS GATOS,1368,7536,1967,137,530,118,Sold,,,http://www.redfin.com/CA/Los-Gatos/18475-Circle-Dr-95033/home/2400575,MLSListings,ML81675362,N,Y,37.114525,-121.983357
PAST SALE,January-19-2018,Single Family Residential,21551 Mary Alice Way,LOS GATOS,CA,95033,780000,3,1.0,LOS GATOS,1060,11409,1934,11,736,89,Sold,,,http://www.redfin.com/CA/Los-Gatos/21551-Mary-Alice-Way-95033/home/12177260,MLSListings,ML81689637,N,Y,37.155005,-121.986135
PAST SALE,February-17-2017,Single Family Residential,19500 Manzanita Dr,LOS GATOS,CA,95033,445000,3,1.0,LOS GATOS,960,17253,1946,347,464,200,Sold,,,http://www.redfin.com/CA/Los-Gatos/19500-Manzanita-Dr-95033/home/1770542,MLSListings,ML81634976,N,Y,37.198082,-122.012941
PAST SALE,June-16-2017,Single Family Residential,15812 Linda Ave,LOS GATOS,CA,95032,1300000,2,1.0,LOS GATOS,1027,8037,1953,228,1266,,Sold,,,http://www.redfin.com/CA/Los-Gatos/15812-Linda-Ave-95032/home/911229,MLSListings,ML81650376,N,Y,37.2387409,-121.9483094
PAST SALE,November-28-2017,Single Family Residential,131 Olive St,LOS GATOS,CA,95030,1350000,2,1.0,LOS GATOS,1011,3588,1939,63,1335,,Sold,,,http://www.redfin.com/CA/Los-Gatos/131-Olive-St-95030/home/1663916,MLSListings,ML81667691,N,Y,37.2338616,-121.9804571
PAST SALE,June-28-2017,Townhouse,108 Willow Hill Ct,LOS GATOS,CA,95032,845000,2,1.0,LOS GATOS,960,3096,1973,216,880,453,Sold,,,http://www.redfin.com/CA/Los-Gatos/108-Willow-Hill-Ct-95032/home/1568678,MLSListings,ML81651416,N,Y,37.2554892,-121.9624236
PAST SALE,November-13-2017,Single Family Residential,15415 National Ave,LOS GATOS,CA,95032,1480000,2,1.0,LOS GATOS,1140,23800,1930,78,1298,,Sold,,,http://www.redfin.com/CA/Los-Gatos/15415-National-Ave-95032/home/836267,MLSListings,ML81673539,N,Y,37.2444204,-121.9502187
PAST SALE,August-11-2017,Single Family Residential,5486 Sharon Ln,SAN JOSE,CA,95124,1200000,3,1.0,SAN JOSE,1434,6380,1959,172,837,,Sold,,,http://www.redfin.com/CA/San-Jose/5486-Sharon-Ln-95124/home/911653,MLSListings,ML81672145,N,Y,37.2383555,-121.9243346
PAST SALE,May-5-2017,Condo/Co-op,420 Alberto Way #29,LOS GATOS,CA,95032,565000,1,1.0,LOS GATOS,764,,1970,270,740,468,Sold,,,http://www.redfin.com/CA/Los-Gatos/420-Alberto-Way-95032/unit-29/home/1823809,MLSListings,ML81614563,N,Y,37.2272959,-121.9718705
PAST SALE,November-30-2017,Single Family Residential,15933 Linda Ave,LOS GATOS,CA,95032,1755000,1,1.0,LOS GATOS,720,11628,1948,61,2438,,Sold,,,http://www.redfin.com/CA/Los-Gatos/15933-Linda-Ave-95032/home/910218,MLSListings,ML81685056,N,Y,37.2369329,-121.9488878
PAST SALE,January-23-2018,Single Family Residential,13072 Bell Rd,LOS GATOS,CA,95033,820000,1,1.0,LOS GATOS,1091,134600,1979,7,752,,Sold,,,http://www.redfin.com/CA/Los-Gatos/13072-Bell-Rd-95033/home/2433417,MLSListings,ML81686055,N,Y,37.126147,-122.012615
PAST SALE,December-5-2017,Single Family Residential,1408 Burrows Rd,CAMPBELL,CA,95008,1500000,3,1.0,CAMPBELL,1295,10437,1946,56,1158,,Sold,,,http://www.redfin.com/CA/Campbell/1408-Burrows-Rd-95008/home/818757,MLSListings,ML81684043,N,Y,37.2666762,-121.9725964
PAST SALE,May-12-2017,Single Family Residential,19000 Overlook Rd,LOS GATOS,CA,95030,1300000,2,1.0,LOS GATOS,1000,190026,1915,263,1300,30,Sold,,,http://www.redfin.com/CA/Los-Gatos/19000-Overlook-Rd-95030/home/1756239,MLSListings,ML81641321,N,Y,37.2266407,-122.0033905
PAST SALE,May-25-2017,Single Family Residential,25786 Adams Rd,LOS GATOS,CA,95033,833000,1,1.0,LOS GATOS,385,1372576,2000,250,2164,,Sold,,,http://www.redfin.com/CA/Los-Gatos/25786-Adams-Rd-95033/home/58803864,MLSListings,ML81640540,N,Y,37.105408,-121.915982
PAST SALE,,Single Family Residential,16354 Lilac Ln,Los Gatos,CA,95032,260000,3,1.0,,1521,8000,1952,,171,,,,,http://www.redfin.com/CA/Los-Gatos/16354-Lilac-Ln-95032/home/1758434,,,N,Y,37.2363166,-121.9556798
PAST SALE,December-22-2017,Condo/Co-op,14225 Lora Dr #90,LOS GATOS,CA,95032,631000,2,1.0,LOS GATOS,1000,2242,1963,39,631,375,Sold,,,http://www.redfin.com/CA/Los-Gatos/14225-Lora-Dr-95032/unit-90/home/1727447,MLSListings,ML81682120,N,Y,37.262377,-121.976824
PAST SALE,,Single Family Residential,14101 Capri Dr,Los Gatos,CA,95032,165500,2,1.0,,1136,7560,1949,,146,,,,,http://www.redfin.com/CA/Los-Gatos/14101-Capri-Dr-95032/home/1259560,,,N,Y,37.2639,-121.962931
PAST SALE,June-27-2017,Single Family Residential,16760 Magneson Loop,LOS GATOS,CA,95032,1525000,2,1.0,LOS GATOS,1160,8250,1932,217,1315,,Sold,,,http://www.redfin.com/CA/Los-Gatos/16760-Magneson-Loop-95032/home/1519453,MLSListings,ML81648972,N,Y,37.2335128,-121.9631555
PAST SALE,,Other,25373 Spanish Ranch Rd,Los Gatos,CA,95033,309500,1,1.0,,713,194931,,,434,,,,,http://www.redfin.com/CA/Los-Gatos/25373-Spanish-Ranch-Rd-95033/home/2407363,,,N,Y,37.092117,-121.907955
PAST SALE,July-28-2017,Single Family Residential,21568 Mary Alice Way,LOS GATOS,CA,95033,745000,2,1.0,LOS GATOS,1200,30492,1977,186,621,,Sold,,,http://www.redfin.com/CA/Los-Gatos/21568-Mary-Alice-Way-95033/home/1818799,MLSListings,ML81646967,N,Y,37.1543629,-121.986206
PAST SALE,August-15-2017,Single Family Residential,21516 Old Mine Rd,LOS GATOS,CA,95033,610000,2,1.25,LOS GATOS,1282,23169,1954,168,476,,Sold,,,http://www.redfin.com/CA/Los-Gatos/21516-Old-Mine-Rd-95033/home/917233,MLSListings,ML81669059,N,Y,37.1573648,-121.9681657
PAST SALE,December-5-2017,Condo/Co-op,171 Villa Ave,LOS GATOS,CA,95030,1200000,2,1.5,LOS GATOS,1523,870,1979,56,788,375,Sold,,,http://www.redfin.com/CA/Los-Gatos/171-Villa-Ave-95030/home/914607,MLSListings,ML81683151,N,Y,37.220306,-121.975134
PAST SALE,December-29-2017,Single Family Residential,16166 Los Gatos Almaden Rd,LOS GATOS,CA,95032,1775000,3,1.5,LOS GATOS,1315,9990,1955,32,1350,,Sold,,,http://www.redfin.com/CA/Los-Gatos/16166-Los-Gatos-Almaden-Rd-95032/home/1028971,MLSListings,ML81686142,N,Y,37.242483,-121.9524703
PAST SALE,December-13-2017,Single Family Residential,15785 Linda Ave,LOS GATOS,CA,95032,1600000,3,1.5,LOS GATOS,1507,7980,1952,48,1062,,Sold,,,http://www.redfin.com/CA/Los-Gatos/15785-Linda-Ave-95032/home/1267287,MLSListings,ML81682252,N,Y,37.239127,-121.948886
PAST SALE,October-31-2017,Single Family Residential,21717 Summit Rd,LOS GATOS,CA,95033,1175000,4,1.5,LOS GATOS,1696,9400,1966,91,693,89,Sold,,,http://www.redfin.com/CA/Los-Gatos/21717-Summit-Rd-95033/home/1206398,MLSListings,ML81677024,N,Y,37.149432,-121.993663
PAST SALE,April-11-2017,Condo/Co-op,600 Pennsylvania Ave #14,LOS GATOS,CA,95030,752500,1,1.5,LOS GATOS,864,,1962,294,871,500,Sold,,,http://www.redfin.com/CA/Los-Gatos/600-Pennsylvania-Ave-95030/unit-14/home/908808,MLSListings,ML81643770,N,Y,37.226425,-121.992789
PAST SALE,December-28-2017,Condo/Co-op,120 Oak Rim Way #23,LOS GATOS,CA,95032,940000,2,1.5,LOS GATOS,1040,672,1971,33,904,418,Sold,,,http://www.redfin.com/CA/Los-Gatos/120-Oak-Rim-Way-95032/unit-23/home/1204619,MLSListings,ML81685768,N,Y,37.237255,-121.9648648
PAST SALE,January-12-2018,Single Family Residential,20915 Comanche Trl,LOS GATOS,CA,95033,632900,4,1.5,LOS GATOS,1866,12960,1926,18,339,159,Sold,,,http://www.redfin.com/CA/Los-Gatos/20915-Comanche-Trl-95033/home/917198,MLSListings,ML81684759,N,Y,37.161884,-121.978156
PAST SALE,June-6-2017,Single Family Residential,221 Almendra Ave,LOS GATOS,CA,95030,1790000,0,1.5,LOS GATOS,1832,7632,1900,238,977,,Sold,,,http://www.redfin.com/CA/Los-Gatos/221-Almendra-Ave-95030/home/113710198,MLSListings,ML81646304,N,Y,37.2283303,-121.9820613
PAST SALE,August-16-2017,Single Family Residential,15603 Benedict Ln,LOS GATOS,CA,95032,1670000,3,1.5,LOS GATOS,1545,9375,1948,167,1081,,Sold,,,http://www.redfin.com/CA/Los-Gatos/15603-Benedict-Ln-95032/home/1467255,MLSListings,ML81669239,N,Y,37.2419042,-121.9617022
PAST SALE,June-30-2017,Single Family Residential,17640 Bruce Ave,LOS GATOS,CA,95030,2000000,3,1.5,LOS GATOS,1235,13923,1952,214,1619,,Sold,,,http://www.redfin.com/CA/Los-Gatos/17640-Bruce-Ave-95030/home/1299183,MLSListings,ML81651742,N,Y,37.2373286,-121.9793484
PAST SALE,,Single Family Residential,16346 Robie Ln,Los Gatos,CA,95032,150000,3,1.0,,1327,11775,1949,,113,,,,,http://www.redfin.com/CA/Los-Gatos/16346-Robie-Ln-95032/home/1496759,,,N,Y,37.2311552,-121.9627189
PAST SALE,September-15-2017,Mobile/Manufactured Home,14685 Oka Rd #10,LOS GATOS,CA,95032,250000,2,2.0,LOS GATOS,880,,2013,137,284,,Sold,,,http://www.redfin.com/CA/Los-Gatos/14685-Oka-Rd-95032/unit-10/home/143797437,MLSListings,ML81668618,N,Y,37.255659,-121.960259
PAST SALE,,Single Family Residential,104 Loma Vista Ct,Los Gatos,CA,95032,928182,4,2.0,,2300,8515,1978,,404,,,,,http://www.redfin.com/CA/Los-Gatos/104-Loma-Vista-Ct-95032/home/927761,,,N,Y,37.2435551,-121.9508117
PAST SALE,July-18-2017,Single Family Residential,1581 Hyde Dr,LOS GATOS,CA,95032,1700000,4,2.0,LOS GATOS,1854,7200,1967,196,917,,Sold,,,http://www.redfin.com/CA/Los-Gatos/1581-Hyde-Dr-95032/home/839878,MLSListings,ML81656100,N,Y,37.2660584,-121.989445
PAST SALE,August-24-2017,Single Family Residential,204 Prince St,LOS GATOS,CA,95032,1720000,3,2.0,LOS GATOS,1856,9238,1961,159,927,,Sold,,,http://www.redfin.com/CA/Los-Gatos/204-Prince-St-95032/home/822436,MLSListings,ML81671298,N,Y,37.2626854,-121.9836002
PAST SALE,,Single Family Residential,20630 Black Rd,Los Gatos,CA,95033,1310000,2,2.0,,1608,115681,1949,,815,,,,,http://www.redfin.com/CA/Los-Gatos/20630-Black-Rd-95033/home/1039279,,,N,Y,37.202352,-122.03048
PAST SALE,,Condo/Co-op,108 Spruce Hill Ct,Los Gatos,CA,95032,393500,3,2.0,,1295,,1973,,304,,,,,http://www.redfin.com/CA/Los-Gatos/108-Spruce-Hill-Ct-95032/home/1532869,,,N,Y,37.2533249,-121.964348
PAST SALE,December-21-2017,Single Family Residential,121 Wood Rd,LOS GATOS,CA,95030,2250000,3,2.0,LOS GATOS,2625,39126,1975,40,857,,Sold,,,http://www.redfin.com/CA/Los-Gatos/121-Wood-Rd-95030/home/874902,MLSListings,ML81677914,N,Y,37.2196621,-121.9882748
PAST SALE,March-30-2017,Condo/Co-op,600 Pennsylvania Ave #20,LOS GATOS,CA,95030,970000,2,2.0,LOS GATOS,1368,1368,1962,306,709,430,Sold,,,http://www.redfin.com/CA/Los-Gatos/600-Pennsylvania-Ave-95030/unit-20/home/1285171,MLSListings,ML81638516,N,Y,37.226425,-121.992789
PAST SALE,September-20-2017,Single Family Residential,127 Briarwood Way,LOS GATOS,CA,95032,1625000,3,2.0,LOS GATOS,1612,8448,1965,132,1008,35,Sold,,,http://www.redfin.com/CA/Los-Gatos/127-Briarwood-Way-95032/home/1569372,MLSListings,ML81676482,N,Y,37.2384881,-121.9293593
PAST SALE,July-13-2017,Single Family Residential,190 Lester Ln,LOS GATOS,CA,95032,1275000,3,2.0,LOS GATOS,1296,7140,1958,201,984,,Sold,,,http://www.redfin.com/CA/Los-Gatos/190-Lester-Ln-95032/home/626699,MLSListings,ML81649397,N,Y,37.246779,-121.9532504
PAST SALE,October-11-2017,Single Family Residential,414 Hershner Way,LOS GATOS,CA,95032,1492000,4,2.0,LOS GATOS,1622,9700,1965,111,920,,Sold,,,http://www.redfin.com/CA/Los-Gatos/414-Hershner-Way-95032/home/1329988,MLSListings,ML81678916,N,Y,37.2421766,-121.9249464
PAST SALE,December-20-2017,Single Family Residential,1717 Hydrangea Ln,SAN JOSE,CA,95124,1200000,3,2.0,SAN JOSE,1210,6340,1961,41,992,,Sold,,,http://www.redfin.com/CA/San-Jose/1717-Hydrangea-Ln-95124/home/1247567,MLSListings,ML81686709,N,Y,37.2329519,-121.9103119
PAST SALE,March-15-2017,Single Family Residential,249 Gregg Dr,LOS GATOS,CA,95032,1520000,4,2.0,LOS GATOS,1557,6534,1965,321,976,,Sold,,,http://www.redfin.com/CA/Los-Gatos/249-Gregg-Dr-95032/home/911734,MLSListings,ML81638350,N,Y,37.2417541,-121.9238889
PAST SALE,June-6-2017,Townhouse,156 Milmar Way,LOS GATOS,CA,95032,1100000,3,2.0,LOS GATOS,1218,2666,1972,238,903,365,Sold,,,http://www.redfin.com/CA/Los-Gatos/156-Milmar-Way-95032/home/1538458,MLSListings,ML81651544,N,Y,37.242523,-121.945375
PAST SALE,March-28-2017,Single Family Residential,20875 Panorama Dr,LOS GATOS,CA,95033,841500,3,2.0,LOS GATOS,1413,27885,1995,308,596,,Sold,,,http://www.redfin.com/CA/Los-Gatos/20875-Panorama-Dr-95033/home/1767445,MLSListings,ML81635124,N,Y,37.165306,-121.974801
PAST SALE,December-4-2017,Single Family Residential,5102 Redstone Dr,SAN JOSE,CA,95124,1400000,3,2.0,SAN JOSE,1576,10050,1960,57,888,,Sold,,,http://www.redfin.com/CA/San-Jose/5102-Redstone-Dr-95124/home/1037086,MLSListings,ML81682345,N,Y,37.2453028,-121.9451727
PAST SALE,February-21-2017,Single Family Residential,16950 Placer Oaks Rd,LOS GATOS,CA,95032,1608000,3,2.0,LOS GATOS,1221,6020,1968,343,1317,,Sold,,,http://www.redfin.com/CA/Los-Gatos/16950-Placer-Oaks-Rd-95032/home/1122617,MLSListings,ML81637758,N,Y,37.2381002,-121.9665033
PAST SALE,October-24-2017,Single Family Residential,20117 Beatty Ridge Rd,LOS GATOS,CA,95033,1030000,3,2.0,LOS GATOS,2072,42689,1978,98,497,240,Sold,,,http://www.redfin.com/CA/Los-Gatos/20117-Beatty-Ridge-Rd-95033/home/2395091,MLSListings,ML81682703,N,Y,37.202424,-122.071827
PAST SALE,April-24-2017,Single Family Residential,5581 Bobbywood Ave,SAN JOSE,CA,95124,1140000,3,2.0,SAN JOSE,1176,6200,1964,281,969,,Sold,,,http://www.redfin.com/CA/San-Jose/5581-Bobbywood-Ave-95124/home/912931,MLSListings,ML81642399,N,Y,37.2366138,-121.9179873
PAST SALE,September-30-2017,Single Family Residential,28 Pennsylvania Ave,LOS GATOS,CA,95030,2030000,3,2.0,LOS GATOS,1946,8775,1906,122,1043,,Sold,,,http://www.redfin.com/CA/Los-Gatos/28-Pennsylvania-Ave-95030/home/628701,MLSListings,ML81667854,N,Y,37.2249394,-121.9871269
PAST SALE,,Single Family Residential,1650 ELWOOD DR,CAMPBELL,CA,95008,1250000,4,2.0,,1854,6000,1966,,674,,,,,http://www.redfin.com/CA/CAMPBELL/1650-ELWOOD-DR-95008/home/1337752,,,N,Y,37.264803,-121.988484
PAST SALE,October-23-2017,Condo/Co-op,14225 Lora Dr #78,LOS GATOS,CA,95032,600000,2,2.0,LOS GATOS,1050,2242,1963,99,571,391,Sold,,,http://www.redfin.com/CA/Los-Gatos/14225-Lora-Dr-95032/unit-78/home/1294906,MLSListings,ML81673207,N,Y,37.262377,-121.976824
PAST SALE,,Condo/Co-op,203 Palmer Dr,Los Gatos,CA,95032,168500,3,2.0,,1856,,1984,,91,,,,,http://www.redfin.com/CA/Los-Gatos/203-Palmer-Dr-95032/home/821476,,,N,Y,37.2584162,-121.9676137
PAST SALE,May-18-2017,Single Family Residential,14976 Natalye Rd,MONTE SERENO,CA,95030,2200000,3,2.0,MONTE SERENO,2176,10120,1951,257,1011,,Sold,,,http://www.redfin.com/CA/Monte-Sereno/14976-Natalye-Rd-95030/home/1633029,MLSListings,ML81648251,N,Y,37.251005,-121.9726811
PAST SALE,April-14-2017,Townhouse,127 Milmar Way,LOS GATOS,CA,95032,900000,2,2.0,LOS GATOS,1015,1824,1972,291,887,365,Sold,,,http://www.redfin.com/CA/Los-Gatos/127-Milmar-Way-95032/home/1454613,MLSListings,ML81643193,N,Y,37.241605,-121.945286
PAST SALE,April-11-2017,Single Family Residential,20965 Comanche Trl,LOS GATOS,CA,95033,780000,2,2.0,LOS GATOS,1128,11564,1938,294,691,135,Sold,,,http://www.redfin.com/CA/Los-Gatos/20965-Comanche-Trl-95033/home/1598269,MLSListings,ML81636436,N,Y,37.160896,-121.977525
PAST SALE,January-12-2018,Single Family Residential,33200 Loma Chiquita Rd,LOS GATOS,CA,95033,819000,5,2.0,LOS GATOS,1904,217800,1977,18,430,,Sold,,,http://www.redfin.com/CA/Los-Gatos/33200-Loma-Chiquita-Rd-95033/home/668046,MLSListings,ML81667784,N,Y,37.106034,-121.819308
PAST SALE,,Condo/Co-op,1841 Los Encantos Ct,Los Gatos,CA,95032,184500,3,2.0,,1739,,1979,,106,,,,,http://www.redfin.com/CA/Los-Gatos/1841-Los-Encantos-Ct-95032/home/1203283,,,N,Y,37.265844,-121.985122
PAST SALE,October-16-2017,Single Family Residential,15050 STETSON,LOS GATOS,CA,95033,635000,3,2.0,LOS GATOS,1500,60984,1968,106,423,,Sold,,,http://www.redfin.com/CA/Los-Gatos/15050-Stetson-Rd-95033/home/2406853,MLSListings,ML81671005,N,Y,37.101276,-121.931178
PAST SALE,November-14-2017,Single Family Residential,5125 Kozo Ct,SAN JOSE,CA,95124,1206000,3,2.0,SAN JOSE,1422,3649,1978,77,848,220,Sold,,,http://www.redfin.com/CA/San-Jose/5125-Kozo-Ct-95124/home/1478393,MLSListings,ML81682750,N,Y,37.2444293,-121.9275597
PAST SALE,,Single Family Residential,419 San Benito Ave,Los Gatos,CA,95030,1700000,3,3.0,,1962,7200,1953,,866,,,,,http://www.redfin.com/CA/Los-Gatos/419-San-Benito-Ave-95030/home/1466889,,,N,Y,37.2311228,-121.9828151
PAST SALE,March-15-2017,Condo/Co-op,420 Alberto Way #33,LOS GATOS,CA,95032,766000,2,2.0,LOS GATOS,1032,1104,1970,321,742,483,Sold,,,http://www.redfin.com/CA/Los-Gatos/420-Alberto-Way-95032/unit-33/home/914462,MLSListings,ML81639449,N,Y,37.2272959,-121.9718705
PAST SALE,March-17-2017,Townhouse,247 Casitas Bulevar,LOS GATOS,CA,95032,1056000,2,2.0,LOS GATOS,1268,2400,1969,319,833,732,Sold,,,http://www.redfin.com/CA/Los-Gatos/247-Casitas-Bulevar-95032/home/1098292,MLSListings,ML81635380,N,Y,37.261345,-121.986279
PAST SALE,June-16-2017,Single Family Residential,15720 El Gato Ln,Los Gatos,CA,95032,1250000,3,2.0,Santa Clara County,1400,8054,1955,228,893,,Sold,,,http://www.redfin.com/CA/Los-Gatos/15720-El-Gato-Ln-95032/home/910202,BAREIS,21709520,N,Y,37.2404301,-121.9475856
PAST SALE,June-9-2017,Single Family Residential,372 Blackwell Dr,LOS GATOS,CA,95032,1215000,3,2.0,LOS GATOS,1305,7700,1961,235,931,,Sold,,,http://www.redfin.com/CA/Los-Gatos/372-Blackwell-Dr-95032/home/1107807,MLSListings,ML81650336,N,Y,37.2453937,-121.9505261
PAST SALE,,Single Family Residential,15650 Linda Ave,Los Gatos,CA,95032,1400000,4,4.0,,2246,8062,2017,,623,,,,,http://www.redfin.com/CA/Los-Gatos/15650-Linda-Ave-95032/home/1060149,,,N,Y,37.2410665,-121.9489511
PAST SALE,January-5-2018,Mobile/Manufactured Home,14685 Oka Rd #44,LOS GATOS,CA,95032,248000,2,2.0,LOS GATOS,875,,2014,25,283,,Sold,,,http://www.redfin.com/CA/Los-Gatos/14685-Oka-Rd-95032/unit-44/home/69369969,MLSListings,ML81686334,N,Y,37.255659,-121.960259
PAST SALE,August-31-2017,Single Family Residential,18293 Bayview Dr,LOS GATOS,CA,95033,1110000,3,2.0,LOS GATOS,1779,19950,1959,152,624,89,Sold,,,http://www.redfin.com/CA/Los-Gatos/18293-Bayview-Dr-95033/home/1478358,MLSListings,ML81670314,N,Y,37.152516,-121.995836
PAST SALE,June-1-2017,Single Family Residential,416 Hershner Way,LOS GATOS,CA,95032,1670000,4,2.0,LOS GATOS,1642,7777,1965,243,1017,,Sold,,,http://www.redfin.com/CA/Los-Gatos/416-Hershner-Way-95032/home/912647,MLSListings,ML81648380,N,Y,37.2420338,-121.9247402
PAST SALE,,Single Family Residential,115 Meadowbrook Dr,Los Gatos,CA,95032,341364,3,2.0,,2386,8927,1962,,143,,,,,http://www.redfin.com/CA/Los-Gatos/115-Meadowbrook-Dr-95032/home/1220003,,,N,Y,37.2373659,-121.9258548
PAST SALE,,Single Family Residential,123 Green Hill Way,Los Gatos,CA,95032,1500000,4,2.0,,1314,10350,1957,,1142,,,,,http://www.redfin.com/CA/Los-Gatos/123-Green-Hill-Way-95032/home/1427922,,,N,Y,37.24887,-121.9605457
PAST SALE,September-5-2017,Single Family Residential,21440 Shady Ln,LOS GATOS,CA,95033,650000,3,2.0,LOS GATOS,2000,13300,1941,147,325,,Sold,,,http://www.redfin.com/CA/Los-Gatos/21440-Shady-Ln-95033/home/917239,MLSListings,ML81653560,N,Y,37.159192,-121.9683747
PAST SALE,April-12-2017,Condo/Co-op,14225 Lora Dr #24,LOS GATOS,CA,95032,535000,2,2.0,LOS GATOS,1050,2242,1963,293,510,390,Sold,,,http://www.redfin.com/CA/Los-Gatos/14225-Lora-Dr-95032/unit-24/home/823839,MLSListings,ML81640882,N,Y,37.262377,-121.976824
PAST SALE,November-6-2017,Single Family Residential,1641 Elwood Dr,Los Gatos,CA,95032,1605000,4,2.0,Los Gatos,1854,6000,1967,85,866,,Sold,,,http://www.redfin.com/CA/Los-Gatos/1641-Elwood-Dr-95032/home/1456849,CRMLS,PW17229795,N,Y,37.264845,-121.9890789
PAST SALE,,Single Family Residential,26176 Mount Bache Rd,Los Gatos,CA,95033,1160000,3,2.0,,1795,157295,1976,,646,,,,,http://www.redfin.com/CA/Los-Gatos/26176-Mount-Bache-Rd-95033/home/2407779,,,N,Y,37.1044455,-121.8899192
PAST SALE,November-10-2017,Single Family Residential,20741 Bear Creek Rd,LOS GATOS,CA,95033,875000,2,2.0,LOS GATOS,1144,1742400,1972,81,765,,Sold,,,http://www.redfin.com/CA/Los-Gatos/20741-Bear-Creek-Rd-95033/home/2398549,MLSListings,ML81656761,N,Y,37.17257,-122.037181
PAST SALE,July-28-2017,Single Family Residential,23342 Deerfield Rd,LOS GATOS,CA,95033,1460000,3,2.0,LOS GATOS,3112,56715,1964,186,469,,Sold,,,http://www.redfin.com/CA/Los-Gatos/23342-Deerfield-Rd-95033/home/2404694,MLSListings,ML81655739,N,Y,37.124799,-121.96238
PAST SALE,November-8-2017,Single Family Residential,18086 Reed Knoll Rd,LOS GATOS,CA,95033,1238000,3,2.0,LOS GATOS,2489,38071,1993,83,497,220,Sold,,,http://www.redfin.com/CA/Los-Gatos/18086-Reed-Knoll-Rd-95033/home/2394857,MLSListings,ML81678025,N,Y,37.2118759,-122.067607
PAST SALE,September-25-2017,Single Family Residential,17645 Via Sereno,MONTE SERENO,CA,95030,2140000,4,2.0,MONTE SERENO,1932,8000,1971,127,1108,,Sold,,,http://www.redfin.com/CA/Monte-Sereno/17645-Via-Sereno-95030/home/824026,MLSListings,ML81679285,N,Y,37.2392476,-121.9788428
PAST SALE,March-28-2017,Single Family Residential,2259 Blossom Valley Dr,SAN JOSE,CA,95124,1225000,3,2.0,SAN JOSE,1725,6600,1960,308,710,,Sold,,,http://www.redfin.com/CA/San-Jose/2259-Blossom-Valley-Dr-95124/home/1237965,MLSListings,ML81638039,N,Y,37.2397418,-121.9399387
PAST SALE,December-13-2017,Single Family Residential,17785 Comanche Trl,LOS GATOS,CA,95033,925000,2,2.0,LOS GATOS,1310,20440,1938,48,706,159,Sold,,,http://www.redfin.com/CA/Los-Gatos/17785-Comanche-Trl-95033/home/1770571,MLSListings,ML81682472,N,Y,37.163202,-121.981636
PAST SALE,January-3-2018,Single Family Residential,33 Ashler Ave,LOS GATOS,CA,95030,1825000,3,2.0,LOS GATOS,1264,5652,1956,27,1444,,Sold,,,http://www.redfin.com/CA/Los-Gatos/33-Ashler-Ave-95030/home/887716,MLSListings,ML81686172,N,Y,37.234332,-121.980022
PAST SALE,,Single Family Residential,16675 Shannon Rd,Los Gatos,CA,95032,1550000,3,2.0,,1253,10000,1955,,1237,,,,,http://www.redfin.com/CA/Los-Gatos/16675-Shannon-Rd-95032/home/1109885,,,N,Y,37.2326576,-121.9614282
PAST SALE,,Single Family Residential,17395 Zena Ave,Monte Sereno,CA,95030,1900000,3,2.0,,1939,16000,1949,,980,,,,,http://www.redfin.com/CA/Monte-Sereno/17395-Zena-Ave-95030/home/1235113,,,N,Y,37.2501093,-121.9733969
PAST SALE,January-18-2018,Condo/Co-op,600 Pennsylvania Ave #24,LOS GATOS,CA,95030,926000,2,2.0,LOS GATOS,1440,1383,1962,12,643,430,Sold,,,http://www.redfin.com/CA/Los-Gatos/600-Pennsylvania-Ave-95030/unit-24/home/999294,MLSListings,ML81689442,N,Y,37.226425,-121.992789
PAST SALE,January-22-2018,Single Family Residential,17959 Mountain Charlie Rd,LOS GATOS,CA,95033,976250,3,2.0,LOS GATOS,1584,50529,1992,8,616,,Sold,,,http://www.redfin.com/CA/Los-Gatos/17959-Mountain-Charlie-Rd-95033/home/601878,MLSListings,ML81652589,N,Y,37.1493316,-121.9793521
PAST SALE,,Single Family Residential,496 Bird Ave,Los Gatos,CA,95032,1650000,2,2.0,,1102,3800,1951,,1497,,,,,http://www.redfin.com/CA/Los-Gatos/496-Bird-Ave-95032/home/1086714,,,N,Y,37.2292651,-121.9768154
PAST SALE,,Condo/Co-op,15400 Winchester Blvd Apt 41,Los Gatos,CA,95030,828000,3,2.0,,1800,,1972,,460,,,,,http://www.redfin.com/CA/Los-Gatos/15400-Winchester-Blvd-95030/unit-41/home/1473236,,,N,Y,37.243912,-121.973144
PAST SALE,February-17-2017,Single Family Residential,23100 Santa Cruz Hwy,LOS GATOS,CA,95033,832000,3,2.0,LOS GATOS,1504,83200,1962,347,553,,Sold,,,http://www.redfin.com/CA/Los-Gatos/23100-Santa-Cruz-Hwy-95033/home/2403020,MLSListings,ML81631588,N,Y,37.132584,-121.979071
PAST SALE,November-17-2017,Single Family Residential,58 Euclid Ave,LOS GATOS,CA,95030,1699950,3,2.0,LOS GATOS,1510,8379,1962,74,1126,,Sold,,,http://www.redfin.com/CA/Los-Gatos/58-Euclid-Ave-95030/home/1538512,MLSListings,ML81683614,N,Y,37.217797,-121.986217
PAST SALE,May-22-2017,Single Family Residential,16535 Shady View Ln,LOS GATOS,CA,95032,1900000,4,2.0,LOS GATOS,1712,11726,1953,253,1110,,Sold,,,http://www.redfin.com/CA/Los-Gatos/16535-Shady-View-Ln-95032/home/1556480,MLSListings,ML81647232,N,Y,37.2290606,-121.9560597
PAST SALE,,Townhouse,191 Escobar Ave,Los Gatos,CA,95032,1050000,3,2.0,,1218,2666,1972,,862,,,,,http://www.redfin.com/CA/Los-Gatos/191-Escobar-Ave-95032/home/1363031,,,N,Y,37.240584,-121.943889
PAST SALE,September-15-2017,Townhouse,137 Escobar Ave,LOS GATOS,CA,95032,1040000,3,2.0,LOS GATOS,1494,1400,1972,137,696,365,Sold,,,http://www.redfin.com/CA/Los-Gatos/137-Escobar-Ave-95032/home/910393,MLSListings,ML81674098,N,Y,37.242183,-121.942751
PAST SALE,November-22-2017,Single Family Residential,15760 El Gato Ln,LOS GATOS,CA,95032,1535000,2,2.0,LOS GATOS,1100,8478,1954,69,1395,,Sold,,,http://www.redfin.com/CA/Los-Gatos/15760-El-Gato-Ln-95032/home/1359720,MLSListings,ML81682548,N,Y,37.239628,-121.9474108
PAST SALE,July-6-2017,Single Family Residential,16751 Loma St,LOS GATOS,CA,95032,1625000,2,2.0,LOS GATOS,1325,5390,1952,208,1226,,Sold,,,http://www.redfin.com/CA/Los-Gatos/16751-Loma-St-95032/home/914856,MLSListings,ML81650657,N,Y,37.2292648,-121.9627872
PAST SALE,,Condo/Co-op,449 Alberto Way Unit D133,Los Gatos,CA,95032,129000,2,2.0,,1076,,1980,,120,,,,,http://www.redfin.com/CA/Los-Gatos/449-Alberto-Way-95032/unit-D133/home/1247369,,,N,Y,37.229163,-121.972229
PAST SALE,February-24-2017,Single Family Residential,195 Kimble Ave,LOS GATOS,CA,95030,1900000,4,2.0,LOS GATOS,2776,42250,1962,340,684,,Sold,,,http://www.redfin.com/CA/Los-Gatos/195-Kimble-Ave-95030/home/913998,MLSListings,ML81635463,N,Y,37.2155836,-121.9790081
PAST SALE,April-21-2017,Single Family Residential,100 Calle Marguerita,LOS GATOS,CA,95032,1270000,4,2.0,LOS GATOS,1189,8216,1962,284,1068,,Sold,,,http://www.redfin.com/CA/Los-Gatos/100-Calle-Marguerita-95032/home/1314626,MLSListings,ML81639567,N,Y,37.2621021,-121.9817231
PAST SALE,September-15-2017,Single Family Residential,26751 Adams Rd,LOS GATOS,CA,95033,995000,3,2.0,LOS GATOS,1428,106591,1976,137,697,,Sold,,,http://www.redfin.com/CA/Los-Gatos/26751-Adams-Rd-95033/home/2406994,MLSListings,ML81654715,N,Y,37.103966,-121.906948
PAST SALE,May-25-2017,Single Family Residential,249 Belblossom,LOS GATOS,CA,95032,1750000,3,2.0,LOS GATOS,1878,10022,1972,250,932,,Sold,,,http://www.redfin.com/CA/Los-Gatos/249-Belblossom-Way-95032/home/850851,MLSListings,ML81648019,N,Y,37.2337771,-121.9218415
PAST SALE,August-11-2017,Single Family Residential,26000 Pierce Rd,LOS GATOS,CA,95033,810000,3,2.0,LOS GATOS,1747,179075,1978,172,464,,Sold,,,http://www.redfin.com/CA/Los-Gatos/26000-Pierce-Rd-95033/home/2401418,MLSListings,ML81651927,N,Y,37.124906,-121.991813
PAST SALE,,Single Family Residential,231 Nob Hill Way,Los Gatos,CA,95032,1075000,3,2.0,,1184,6200,1957,,908,,,,,http://www.redfin.com/CA/Los-Gatos/231-Nob-Hill-Way-95032/home/1728011,,,N,Y,37.2467075,-121.9621032
PAST SALE,,Single Family Residential,17650 Kilkenny Rd,Los Gatos,CA,95030,1180000,3,2.0,,1842,47659,1939,,641,,,,,http://www.redfin.com/CA/Los-Gatos/17650-Kilkenny-Rd-95030/home/1700208,,,N,Y,37.2138171,-121.9697778
PAST SALE,August-8-2017,Single Family Residential,20073 Beatty Ridge Rd,LOS GATOS,CA,95033,965000,3,2.0,LOS GATOS,2128,59982,1979,175,453,232,Sold,,,http://www.redfin.com/CA/Los-Gatos/20073-Beatty-Ridge-Rd-95033/home/2395075,MLSListings,ML81668550,N,Y,37.202717,-122.070063
PAST SALE,July-7-2017,Single Family Residential,1938 Los Gatos Almaden Rd,SAN JOSE,CA,95124,1180000,3,2.0,SAN JOSE,1248,5974,1960,207,946,,Sold,,,http://www.redfin.com/CA/San-Jose/1938-Los-Gatos-Almaden-Rd-95124/home/795559,MLSListings,ML81653619,N,Y,37.2431986,-121.9262861
PAST SALE,November-1-2017,Single Family Residential,23640 Old Santa Cruz Hwy,LOS GATOS,CA,95033,875000,4,2.0,LOS GATOS,2127,33323,1960,90,411,,Sold,,,http://www.redfin.com/CA/Los-Gatos/23640-Old-Santa-Cruz-Hwy-95033/home/2402992,MLSListings,ML81655430,N,Y,37.129589,-121.975063
PAST SALE,June-20-2017,Single Family Residential,222 Blossom Villa Way,LOS GATOS,CA,95032,1465000,3,2.0,LOS GATOS,1332,8364,1962,224,1100,,Sold,,,http://www.redfin.com/CA/Los-Gatos/222-Blossom-Villa-Way-95032/home/958733,MLSListings,ML81651283,N,Y,37.2367363,-121.9329998
PAST SALE,July-18-2017,Single Family Residential,16306 Redwood Lodge Rd,LOS GATOS,CA,95033,970000,3,2.0,LOS GATOS,1710,70349,1978,196,567,,Sold,,,http://www.redfin.com/CA/Los-Gatos/16306-Redwood-Lodge-Rd-95033/home/2403285,MLSListings,ML81655453,N,Y,37.111573,-121.959193
PAST SALE,,Single Family Residential,496 Wraight Ave,Los Gatos,CA,95032,1725000,2,2.0,,1637,5500,1938,,1054,,,,,http://www.redfin.com/CA/Los-Gatos/496-Wraight-Ave-95032/home/913328,,,N,Y,37.2296215,-121.9775471
PAST SALE,July-7-2017,Single Family Residential,24250 Glenwood Dr,LOS GATOS,CA,95033,675000,3,2.0,LOS GATOS,1538,32931,1940,207,439,,Sold,,,http://www.redfin.com/CA/Los-Gatos/24250-Glenwood-Dr-95033/home/2401895,MLSListings,ML81645407,N,Y,37.122517,-121.980584
PAST SALE,February-24-2017,Single Family Residential,5123 Kozo Ct,SAN JOSE,CA,95124,1120000,3,2.0,SAN JOSE,1422,4005,1978,340,788,215,Sold,,,http://www.redfin.com/CA/San-Jose/5123-Kozo-Ct-95124/home/626490,MLSListings,ML81636847,N,Y,37.2444217,-121.9277038
PAST SALE,June-6-2017,Single Family Residential,231 Tait,LOS GATOS,CA,95030,2366325,3,2.0,LOS GATOS,1918,8113,1899,238,1234,,Sold,,,http://www.redfin.com/CA/Los-Gatos/231-Tait-Ave-95030/home/1447103,MLSListings,ML81647182,N,Y,37.2281497,-121.9840225
PAST SALE,September-29-2017,Single Family Residential,23343 Deerfield Rd,LOS GATOS,CA,95033,1110000,3,2.0,LOS GATOS,2011,46261,1974,123,552,,Sold,,,http://www.redfin.com/CA/Los-Gatos/23343-Deerfield-Rd-95033/home/2404698,MLSListings,ML81675479,N,Y,37.125504,-121.961106
PAST SALE,July-19-2017,Townhouse,114 Escobar Ct,LOS GATOS,CA,95032,900000,3,2.0,LOS GATOS,1494,1400,1972,195,602,365,Sold,,,http://www.redfin.com/CA/Los-Gatos/114-Escobar-Ct-95032/home/911407,MLSListings,ML81650668,N,Y,37.242771,-121.942766
PAST SALE,July-6-2017,Single Family Residential,194 Villa Ave,LOS GATOS,CA,95030,2025000,3,2.0,LOS GATOS,2080,6534,1915,208,974,,Sold,,,http://www.redfin.com/CA/Los-Gatos/194-Villa-Ave-95030/home/1122667,MLSListings,ML81655815,N,Y,37.2200072,-121.9743428
PAST SALE,,Single Family Residential,357 Market St,Los Gatos,CA,95032,1686500,3,2.0,,2026,3387,2017,,832,,,,,http://www.redfin.com/CA/Los-Gatos/357-Market-St-95032/home/143042118,,,N,Y,37.2626233,-121.9644593
PAST SALE,April-18-2017,Single Family Residential,1571 Hyde Dr,LOS GATOS,CA,95032,1702000,4,2.0,LOS GATOS,1854,7200,1967,287,918,,Sold,,,http://www.redfin.com/CA/Los-Gatos/1571-Hyde-Dr-95032/home/816889,MLSListings,ML81640396,N,Y,37.2660165,-121.9896351
PAST SALE,June-29-2017,Condo/Co-op,449 Alberto Way Unit C136,LOS GATOS,CA,95032,705000,3,2.0,LOS GATOS,1413,,1980,215,499,594,Sold,,,http://www.redfin.com/CA/Los-Gatos/449-Alberto-Way-95032/unit-C136/home/1241463,MLSListings,ML81654882,N,Y,37.229163,-121.972229
PAST SALE,,Single Family Residential,110 Atwood Ct,Los Gatos,CA,95032,1755000,6,2.0,,2350,11000,1970,,747,,,,,http://www.redfin.com/CA/Los-Gatos/110-Atwood-Ct-95032/home/911838,,,N,Y,37.2341659,-121.9511947
PAST SALE,,Other,620 Maymens Flat Rd,Los Gatos,CA,95033,900000,3,2.0,,1056,835742,2009,,852,,,,,http://www.redfin.com/CA/Los-Gatos/620-Maymens-Flat-Rd-95033/home/40241547,,,N,Y,37.082229,-121.831296
PAST SALE,June-30-2017,Single Family Residential,23500 Santa Cruz Hwy,LOS GATOS,CA,95033,1100000,3,2.0,LOS GATOS,1848,70785,1991,214,595,,Sold,,,http://www.redfin.com/CA/Los-Gatos/23500-Santa-Cruz-Hwy-95033/home/113854073,MLSListings,ML81649316,N,Y,37.1243781,-121.9728695
PAST SALE,March-9-2017,Single Family Residential,231 El Cajon Way,LOS GATOS,CA,95032,1325000,4,2.0,LOS GATOS,1292,9398,1959,327,1026,,Sold,,,http://www.redfin.com/CA/Los-Gatos/231-El-Cajon-Way-95032/home/1066991,MLSListings,ML81641753,N,Y,37.2488397,-121.9640193
PAST SALE,May-25-2017,Single Family Residential,14566 Old Japanese Rd,LOS GATOS,CA,95033,874000,3,2.0,LOS GATOS,1564,229910,1976,250,559,,Sold,,,http://www.redfin.com/CA/Los-Gatos/14566-Old-Japanese-Rd-95033/home/2401323,MLSListings,ML81645397,N,Y,37.1238398,-121.9942957
PAST SALE,May-15-2017,Single Family Residential,242 Mattson Ave,LOS GATOS,CA,95032,1510000,3,2.0,LOS GATOS,1456,7848,1961,260,1037,,Sold,,,http://www.redfin.com/CA/Los-Gatos/242-Mattson-Ave-95032/home/822669,MLSListings,ML81646626,N,Y,37.2607185,-121.9825364
PAST SALE,May-1-2017,Single Family Residential,19032 Oak Ct,LOS GATOS,CA,95033,920000,3,2.0,LOS GATOS,1606,6121,1992,274,573,,Sold,,,http://www.redfin.com/CA/Los-Gatos/19032-Oak-Ct-95033/home/1447350,MLSListings,ML81643196,N,Y,37.196126,-122.004271
PAST SALE,June-22-2017,Single Family Residential,17921 Saratoga Los Gatos Rd,MONTE SERENO,CA,95030,1675000,2,2.0,MONTE SERENO,1181,10272,1929,222,1418,,Sold,,,http://www.redfin.com/CA/Monte-Sereno/17921-Saratoga-Los-Gatos-Rd-95030/home/626245,MLSListings,ML81649302,N,Y,37.231508,-121.984158
PAST SALE,July-10-2017,Single Family Residential,120 Calle Marguerita,LOS GATOS,CA,95032,1300000,3,2.0,LOS GATOS,1189,8925,1962,204,1093,,Sold,,,http://www.redfin.com/CA/Los-Gatos/120-Calle-Marguerita-95032/home/1552897,MLSListings,ML81655734,N,Y,37.2618178,-121.9806679
PAST SALE,June-21-2017,Single Family Residential,17800 Navajo Trl,LOS GATOS,CA,95033,648888,4,2.0,LOS GATOS,1418,5000,1949,223,458,260,Sold,,,http://www.redfin.com/CA/Los-Gatos/17800-Navajo-Trl-95033/home/1217622,MLSListings,ML81647789,N,Y,37.1616774,-121.9818544
PAST SALE,May-26-2017,Mobile/Manufactured Home,16460 Soda Springs Rd,LOS GATOS,CA,95033,530000,2,2.0,LOS GATOS,1440,115391,1976,249,368,,Sold,,,http://www.redfin.com/CA/Los-Gatos/16460-Soda-Springs-Rd-95033/home/95456149,MLSListings,ML81645515,N,Y,37.172478,-121.93862
PAST SALE,April-17-2017,Single Family Residential,19 Alpine Ave,LOS GATOS,CA,95030,2685000,4,2.0,LOS GATOS,2715,43847,1950,288,989,,Sold,,,http://www.redfin.com/CA/Los-Gatos/19-Alpine-Ave-95030/home/1490265,MLSListings,ML81643188,N,Y,37.2202756,-121.9733475
PAST SALE,September-29-2017,Condo/Co-op,102 Cherry Wood Ct,LOS GATOS,CA,95032,865000,2,2.0,LOS GATOS,1461,2040,1972,123,592,358,Sold,,,http://www.redfin.com/CA/Los-Gatos/102-Cherry-Wood-Ct-95032/home/1494567,MLSListings,ML81674934,N,Y,37.2630865,-121.9737474
PAST SALE,May-23-2017,Single Family Residential,21570 Madrone Dr,LOS GATOS,CA,95033,860000,3,2.0,LOS GATOS,1848,18600,1925,252,465,,Sold,,,http://www.redfin.com/CA/Los-Gatos/21570-Madrone-Dr-95033/home/916921,MLSListings,ML81644677,N,Y,37.154343,-121.981979
PAST SALE,July-18-2017,Single Family Residential,1360 Juanita Way,CAMPBELL,CA,95008,1370000,3,2.0,CAMPBELL,1206,10500,1948,196,1136,,Sold,,,http://www.redfin.com/CA/Campbell/1360-Juanita-Way-95008/home/1535958,MLSListings,ML81655648,N,Y,37.267076,-121.974565
PAST SALE,June-8-2017,Single Family Residential,17863 Ogallala Warpath Rd,LOS GATOS,CA,95033,881801,2,2.0,LOS GATOS,1260,17168,2007,236,700,,Sold,,,http://www.redfin.com/CA/Los-Gatos/17863-Ogallala-Warpath-Rd-95033/home/1297717,MLSListings,ML81649348,N,Y,37.162494,-121.98285
PAST SALE,October-20-2017,Single Family Residential,223 Westchester Dr,LOS GATOS,CA,95032,1780000,4,2.0,LOS GATOS,2088,8667,1968,102,852,,Sold,,,http://www.redfin.com/CA/Los-Gatos/223-Westchester-Dr-95032/home/1454633,MLSListings,ML81677525,N,Y,37.2422579,-121.9409572
PAST SALE,October-12-2017,Single Family Residential,260 Garden Hill Dr,LOS GATOS,CA,95032,1575000,2,2.0,LOS GATOS,1272,7000,1959,110,1238,,Sold,,,http://www.redfin.com/CA/Los-Gatos/260-Garden-Hill-Dr-95032/home/1295320,MLSListings,ML81673890,N,Y,37.246776,-121.9631743
PAST SALE,November-1-2017,Condo/Co-op,71 Roberts Rd #5,LOS GATOS,CA,95032,811000,2,2.0,LOS GATOS,1154,,1985,90,703,460,Sold,,,http://www.redfin.com/CA/Los-Gatos/71-Roberts-Rd-95032/unit-5/home/1712478,MLSListings,ML81674976,N,Y,37.2329719,-121.976665
PAST SALE,,Single Family Residential,391 School Ct,Los Gatos,CA,95032,447000,3,2.0,,2026,2772,2017,,221,,,,,http://www.redfin.com/CA/Los-Gatos/391-School-Ct-95032/home/143042126,,,N,Y,37.2621148,-121.9650649
PAST SALE,October-27-2017,Townhouse,424 Clearview Dr,LOS GATOS,CA,95032,1121000,3,2.0,LOS GATOS,1409,3404,1977,95,796,523,Sold,,,http://www.redfin.com/CA/Los-Gatos/424-Clearview-Dr-95032/home/1127599,MLSListings,ML81675525,N,Y,37.257208,-121.969085
PAST SALE,,Single Family Residential,17800 Tourney Rd,Los Gatos,CA,95030,1310000,4,2.0,,2302,26000,1940,,569,,,,,http://www.redfin.com/CA/Los-Gatos/17800-Tourney-Rd-95030/home/1704058,,,N,Y,37.2110266,-121.9675722
PAST SALE,,Single Family Residential,30 Oak Grove Ave,Los Gatos,CA,95030,1800000,3,2.0,,1854,11440,1946,,971,,,,,http://www.redfin.com/CA/Los-Gatos/30-Oak-Grove-Ave-95030/home/1130131,,,N,Y,37.2167165,-121.98708
PAST SALE,June-7-2017,Townhouse,15580 Camino Del Cerro,LOS GATOS,CA,95032,1020000,3,2.0,LOS GATOS,1218,2666,1972,237,837,365,Sold,,,http://www.redfin.com/CA/Los-Gatos/15580-Camino-Del-Cerro-95032/home/749386,MLSListings,ML81649629,N,Y,37.2425999,-121.945567
PAST SALE,November-30-2017,Townhouse,100 Walnut Hill Ct,LOS GATOS,CA,95032,950000,2,2.0,LOS GATOS,1004,3024,1973,61,946,453,Sold,,,http://www.redfin.com/CA/Los-Gatos/100-Walnut-Hill-Ct-95032/home/1444986,MLSListings,ML81683116,N,Y,37.2539981,-121.9637136
PAST SALE,June-7-2017,Single Family Residential,16450 Los Gatos Almaden Rd,LOS GATOS,CA,95032,1825000,3,2.0,LOS GATOS,2028,10875,1950,237,900,,Sold,,,http://www.redfin.com/CA/Los-Gatos/16450-Los-Gatos-Almaden-Rd-95032/home/1598168,MLSListings,ML81649481,N,Y,37.2413133,-121.9574477
PAST SALE,September-5-2017,Single Family Residential,15330 Francis Oaks Way,LOS GATOS,CA,95032,1790000,3,2.0,LOS GATOS,2182,41382,1949,147,820,,Sold,,,http://www.redfin.com/CA/Los-Gatos/15330-Francis-Oaks-Way-95032/home/1039166,MLSListings,ML81669449,N,Y,37.2349288,-121.9369634
PAST SALE,July-11-2017,Condo/Co-op,55 Church St #1304,LOS GATOS,CA,95030,1300000,3,2.0,LOS GATOS,1696,2100,1981,203,767,787,Sold,,,http://www.redfin.com/CA/Los-Gatos/55-Church-St-95030/unit-1304/home/1069089,MLSListings,ML81669470,N,Y,37.2216476,-121.9792981
PAST SALE,June-21-2017,Single Family Residential,20470 Santa Cruz Hwy,LOS GATOS,CA,95033,973000,2,2.0,LOS GATOS,1486,56628,1957,223,655,,Sold,,,http://www.redfin.com/CA/Los-Gatos/20470-Santa-Cruz-Hwy-95033/home/864185,MLSListings,ML81651640,N,Y,37.1726061,-121.9903069
PAST SALE,,Single Family Residential,18201 Overlook Rd,Los Gatos,CA,95030,1655000,3,2.0,,1876,7000,1971,,882,,,,,http://www.redfin.com/CA/Los-Gatos/18201-Overlook-Rd-95030/home/1373611,,,N,Y,37.2276264,-121.993217
PAST SALE,,Single Family Residential,1550 Elwood Dr,Los Gatos,CA,95032,1630000,4,2.0,,1854,6000,1967,,879,,,,,http://www.redfin.com/CA/Los-Gatos/1550-Elwood-Dr-95032/home/1234891,,,N,Y,37.2664124,-121.9890277
PAST SALE,February-10-2017,Single Family Residential,16666 Topping Way,LOS GATOS,CA,95032,1975000,5,2.0,LOS GATOS,2100,14526,1948,354,940,,Sold,,,http://www.redfin.com/CA/Los-Gatos/Topping-Way-95032/home/915977,MLSListings,ML81633275,N,Y,37.2285076,-121.9614801
PAST SALE,May-18-2017,Single Family Residential,17790 Kiowa Trl,LOS GATOS,CA,95033,868000,4,2.0,LOS GATOS,1636,6688,1935,257,531,,Sold,,,http://www.redfin.com/CA/Los-Gatos/17790-Kiowa-Trl-95033/home/1231286,MLSListings,ML81640934,N,Y,37.163494,-121.981699
PAST SALE,May-8-2017,Single Family Residential,108 Las Astas Dr,LOS GATOS,CA,95032,1300000,4,2.0,LOS GATOS,1292,8320,1958,267,1006,,Sold,,,http://www.redfin.com/CA/Los-Gatos/108-Las-Astas-Dr-95032/home/839149,MLSListings,ML81646102,N,Y,37.2514103,-121.9641134
PAST SALE,,Single Family Residential,259 More Ave,Los Gatos,CA,95032,1335000,4,2.0,,1788,8892,1964,,747,,,,,http://www.redfin.com/CA/Los-Gatos/259-More-Ave-95032/home/1616450,,,N,Y,37.2597215,-121.9848289
PAST SALE,February-17-2017,Single Family Residential,16050 Overlook Dr,LOS GATOS,CA,95030,1698880,2,2.0,LOS GATOS,1466,63061,1962,347,1159,,Sold,,,http://www.redfin.com/CA/Los-Gatos/16050-Overlook-Dr-95030/home/703109,MLSListings,ML81614739,N,Y,37.2344562,-122.0190787
PAST SALE,June-13-2017,Single Family Residential,17265 Clara St,Monte Sereno,CA,95030,1800000,3,2.0,699 - Not Defined,1672,10080,1950,231,1077,,Sold,,,http://www.redfin.com/CA/Monte-Sereno/17265-Clara-St-95030/home/1251557,CRMLS,SB17080228,N,Y,37.2508566,-121.9722559
PAST SALE,September-15-2017,Single Family Residential,16152 Azalea Way,LOS GATOS,CA,95032,2400000,4,2.0,LOS GATOS,1950,8000,1955,137,1231,,Sold,,,http://www.redfin.com/CA/Los-Gatos/16152-Azalea-Way-95032/home/999368,MLSListings,ML81674956,N,Y,37.2402544,-121.9523719
PAST SALE,September-5-2017,Single Family Residential,5299 Kentfield Dr,SAN JOSE,CA,95124,1305000,3,2.0,SAN JOSE,1248,6438,1960,147,1046,,Sold,,,http://www.redfin.com/CA/San-Jose/5299-Kentfield-Dr-95124/home/912641,MLSListings,ML81672608,N,Y,37.2415522,-121.925871
PAST SALE,March-23-2017,Townhouse,101 Vasona Oaks Dr,LOS GATOS,CA,95032,1345000,3,2.0,LOS GATOS,1850,2578,1977,313,727,225,Sold,,,http://www.redfin.com/CA/Los-Gatos/101-Vasona-Oaks-Dr-95032/home/1536392,MLSListings,ML81626986,N,Y,37.2430504,-121.9723057
PAST SALE,February-28-2017,Single Family Residential,5659 Begonia Dr,SAN JOSE,CA,95124,1261000,4,2.0,SAN JOSE,1400,6175,1959,336,901,,Sold,,,http://www.redfin.com/CA/San-Jose/5659-Begonia-Dr-95124/home/1017086,MLSListings,ML81637054,N,Y,37.2346238,-121.9110616
PAST SALE,,Single Family Residential,160 Calle Marguerita,Los Gatos,CA,95032,850000,3,2.0,,1076,8875,1962,,790,,,,,http://www.redfin.com/CA/Los-Gatos/160-Calle-Marguerita-95032/home/1036610,,,N,Y,37.2614926,-121.9799579
PAST SALE,January-16-2018,Condo/Co-op,215 Altura Vis,LOS GATOS,CA,95032,1150000,2,2.0,LOS GATOS,1440,2401,1977,14,799,790,Sold,,,http://www.redfin.com/CA/Los-Gatos/215-Altura-Vis-95032/home/1472761,MLSListings,ML81689183,N,Y,37.2562349,-121.988136
PAST SALE,March-7-2017,Single Family Residential,132 Hillbrook Dr,LOS GATOS,CA,95032,2100000,4,2.0,LOS GATOS,2255,9940,1962,329,931,,Sold,,,http://www.redfin.com/CA/Los-Gatos/132-Hillbrook-Dr-95032/home/949031,MLSListings,ML81636538,N,Y,37.2332078,-121.9526161
PAST SALE,January-9-2018,Single Family Residential,25495 Firhaven Ln,LOS GATOS,CA,95033,890000,4,2.0,LOS GATOS,1427,57761,1963,21,624,,Sold,,,http://www.redfin.com/CA/Los-Gatos/25495-Firhaven-Ln-95033/home/2407254,MLSListings,ML81651415,N,Y,37.101894,-121.901427
PAST SALE,September-28-2017,Single Family Residential,100 Smith Ranch Ct,LOS GATOS,CA,95032,1200000,2,2.0,LOS GATOS,1351,4625,2005,124,888,85,Sold,,,http://www.redfin.com/CA/Los-Gatos/100-Smith-Ranch-Ct-95032/home/559938,MLSListings,ML81673753,N,Y,37.2570953,-121.9654725
PAST SALE,,Single Family Residential,375 Knowles Dr,Los Gatos,CA,95032,1754000,3,2.0,,2224,3321,2017,,789,,,,,http://www.redfin.com/CA/Los-Gatos/375-Knowles-Dr-95032/home/142955400,,,N,Y,37.262272,-121.964153
PAST SALE,,Single Family Residential,185 La Canada Ct,Los Gatos,CA,95032,1240000,3,2.0,,1150,6136,1958,,1078,,,,,http://www.redfin.com/CA/Los-Gatos/185-La-Canada-Ct-95032/home/840381,,,N,Y,37.2499892,-121.9619547
PAST SALE,March-21-2017,Single Family Residential,16364 E La Chiquita Ave,LOS GATOS,CA,95032,2150000,4,2.0,LOS GATOS,1989,10725,1950,315,1081,,Sold,,,http://www.redfin.com/CA/Los-Gatos/16364-E-La-Chiquita-Ave-95032/home/914693,MLSListings,ML81638012,N,Y,37.230682,-121.958253
PAST SALE,April-14-2017,Single Family Residential,21631 Hicks Rd,LOS GATOS,CA,95032,850000,3,2.0,LOS GATOS,1704,900583,1973,291,499,,Sold,,,http://www.redfin.com/CA/Los-Gatos/21631-Hicks-Rd-95032/home/1497203,MLSListings,ML81584203,N,Y,37.192941,-121.877565
PAST SALE,,Single Family Residential,100 Bacigalupi Dr,Los Gatos,CA,95032,1345000,3,2.0,,1400,7100,1968,,961,,,,,http://www.redfin.com/CA/Los-Gatos/100-Bacigalupi-Dr-95032/home/912287,,,N,Y,37.2339134,-121.9131952
PAST SALE,June-20-2017,Single Family Residential,139 Old Orchard Dr,LOS GATOS,CA,95032,1970000,4,2.0,LOS GATOS,2257,10940,1963,224,873,,Sold,,,http://www.redfin.com/CA/Los-Gatos/139-Old-Orchard-Dr-95032/home/667867,MLSListings,ML81651115,N,Y,37.2349865,-121.9226274
PAST SALE,February-21-2017,Single Family Residential,175 Kimble Ave,LOS GATOS,CA,95030,2450000,4,2.0,LOS GATOS,1758,40000,1954,343,1394,,Sold,,,http://www.redfin.com/CA/Los-Gatos/175-Kimble-Ave-95030/home/1756452,MLSListings,ML81635798,N,Y,37.2165597,-121.9787269
PAST SALE,January-9-2018,Single Family Residential,5505 Copeland Ct,SAN JOSE,CA,95124,1621000,3,2.0,SAN JOSE,1612,6084,1968,21,1006,,Sold,,,http://www.redfin.com/CA/San-Jose/5505-Copeland-Ct-95124/home/912942,MLSListings,ML81686246,N,Y,37.237492,-121.9193959
PAST SALE,,Townhouse,129 El Pinar,Los Gatos,CA,95032,1120000,3,2.0,,1440,2500,1974,,778,,,,,http://www.redfin.com/CA/Los-Gatos/129-El-Pinar-95032/home/1697589,,,N,Y,37.260738,-121.988139
PAST SALE,December-15-2017,Single Family Residential,1709 Canna Ln,SAN JOSE,CA,95124,1399999,3,2.0,SAN JOSE,1210,6060,1961,46,1157,,Sold,,,http://www.redfin.com/CA/San-Jose/1709-Canna-Ln-95124/home/919691,MLSListings,ML81684848,N,Y,37.2314887,-121.909904
PAST SALE,March-20-2017,Single Family Residential,4872 Kinghurst Dr,SAN JOSE,CA,95124,1352000,3,2.0,SAN JOSE,1560,6262,1959,316,867,,Sold,,,http://www.redfin.com/CA/San-Jose/4872-Kinghurst-Dr-95124/home/1473219,MLSListings,ML81635282,N,Y,37.2485521,-121.948245
PAST SALE,March-31-2017,Single Family Residential,2413 De Soto Dr,SAN JOSE,CA,95124,1296000,3,2.0,SAN JOSE,1380,7000,1959,305,939,,Sold,,,http://www.redfin.com/CA/San-Jose/2413-De-Soto-Dr-95124/home/836798,MLSListings,ML81639482,N,Y,37.2454713,-121.9461526
PAST SALE,April-28-2017,Townhouse,129 Escobar Ave,LOS GATOS,CA,95032,960000,3,2.0,LOS GATOS,1218,2666,1972,277,788,365,Sold,,,http://www.redfin.com/CA/Los-Gatos/129-Escobar-Ave-95032/home/1387503,MLSListings,ML81645183,N,Y,37.242146,-121.943336
PAST SALE,,Single Family Residential,139 Lester Ln,Los Gatos,CA,95032,298500,3,2.0,,1666,7000,1958,,179,,,,,http://www.redfin.com/CA/Los-Gatos/139-Lester-Ln-95032/home/840329,,,N,Y,37.2443447,-121.9531282
PAST SALE,May-12-2017,Single Family Residential,15921 Rochin Ter,LOS GATOS,CA,95032,1600000,3,2.0,LOS GATOS,1700,8560,1964,263,941,,Sold,,,http://www.redfin.com/CA/Los-Gatos/15921-Rochin-Ter-95032/home/1556384,MLSListings,ML81644013,N,Y,37.2375038,-121.9477934
PAST SALE,May-3-2017,Single Family Residential,15911 Camino Del Cerro,LOS GATOS,CA,95032,1865000,4,2.0,LOS GATOS,2004,9750,1946,272,931,,Sold,,,http://www.redfin.com/CA/Los-Gatos/15911-Camino-Del-Cerro-95032/home/1770320,MLSListings,ML81642622,N,Y,37.2373908,-121.9448044
PAST SALE,June-16-2017,Single Family Residential,137 Amanda Ln,LOS GATOS,CA,95032,1740000,3,2.0,LOS GATOS,1372,8625,1958,228,1268,,Sold,,,http://www.redfin.com/CA/Los-Gatos/137-Amanda-Ln-95032/home/1582690,MLSListings,ML81651652,N,Y,37.232676,-121.9513167
PAST SALE,,Single Family Residential,17571 Wedgewood Ave,Los Gatos,CA,95032,1680000,3,2.0,,1880,10100,1947,,894,,,,,http://www.redfin.com/CA/Los-Gatos/17571-Wedgewood-Ave-95032/home/1119801,,,N,Y,37.2606548,-121.9771437
PAST SALE,August-22-2017,Single Family Residential,1707 Zinnia Ln,SAN JOSE,CA,95124,1212000,4,2.0,SAN JOSE,1364,7020,1960,161,889,,Sold,,,http://www.redfin.com/CA/San-Jose/1707-Zinnia-Ln-95124/home/851151,MLSListings,ML81669710,N,Y,37.2321836,-121.9096663
PAST SALE,February-16-2017,Single Family Residential,147 Arroyo Grande Way,LOS GATOS,CA,95032,1460000,3,2.0,LOS GATOS,1153,8434,1958,348,1266,,Sold,,,http://www.redfin.com/CA/Los-Gatos/147-Arroyo-Grande-Way-95032/home/839156,MLSListings,ML81636909,N,Y,37.2500986,-121.9628944
PAST SALE,June-26-2017,Single Family Residential,15665 El Gato Ln,LOS GATOS,CA,95032,1250000,3,2.0,LOS GATOS,1600,8046,1954,218,781,,Sold,,,http://www.redfin.com/CA/Los-Gatos/15665-El-Gato-Ln-95032/home/1507153,MLSListings,ML81648216,N,Y,37.241152,-121.9483865
PAST SALE,October-13-2017,Single Family Residential,17970 Helen Way,LOS GATOS,CA,95033,1020000,2,2.0,LOS GATOS,1257,11200,1967,109,811,89,Sold,,,http://www.redfin.com/CA/Los-Gatos/17970-Helen-Way-95033/home/1158988,MLSListings,ML81678502,N,Y,37.1555535,-121.9861552
PAST SALE,October-24-2017,Single Family Residential,23380 Morrill Rd,LOS GATOS,CA,95033,1449000,4,2.0,LOS GATOS,2820,145308,1964,98,514,,Sold,,,http://www.redfin.com/CA/Los-Gatos/23380-Morrill-Rd-95033/home/1217628,MLSListings,ML81670075,N,Y,37.1258408,-121.9372052
PAST SALE,,Single Family Residential,360 Bella Vista Ave,Los Gatos,CA,95032,1550000,3,2.0,,1939,23700,1940,,799,,,,,http://www.redfin.com/CA/Los-Gatos/360-Bella-Vista-Ave-95032/home/1758475,,,N,Y,37.227722,-121.970174
PAST SALE,,Single Family Residential,23416 Sunset Dr,Los Gatos,CA,95033,715000,3,2.0,,1823,25439,1973,,392,,,,,http://www.redfin.com/CA/Los-Gatos/23416-Sunset-Dr-95033/home/2405578,,,N,Y,37.1292238,-121.958176
PAST SALE,July-19-2017,Single Family Residential,5511 Begonia Dr,SAN JOSE,CA,95124,1225000,3,2.0,SAN JOSE,1220,7200,1959,195,1004,,Sold,,,http://www.redfin.com/CA/San-Jose/5511-Begonia-Dr-95124/home/1841384,MLSListings,ML81655266,N,Y,37.2378028,-121.9112117
PAST SALE,June-9-2017,Single Family Residential,223 Massol Ave,LOS GATOS,CA,95030,1780000,3,2.0,LOS GATOS,1940,8730,1908,235,918,,Sold,,,http://www.redfin.com/CA/Los-Gatos/223-Massol-Ave-95030/home/614286,MLSListings,ML81648335,N,Y,37.2284852,-121.9855375
PAST SALE,March-16-2017,Single Family Residential,1715 Zinnia Ln,SAN JOSE,CA,95124,1165000,3,2.0,SAN JOSE,1210,6426,1961,320,963,,Sold,,,http://www.redfin.com/CA/San-Jose/1715-Zinnia-Ln-95124/home/1808195,MLSListings,ML81638234,N,Y,37.2321981,-121.9100751
PAST SALE,November-14-2017,Single Family Residential,124 YOSEMITE Way,LOS GATOS,CA,95030,1340000,3,2.0,LOS GATOS,947,4600,1952,77,1415,,Sold,,,http://www.redfin.com/CA/Los-Gatos/124-Yosemite-Way-95030/home/1241523,MLSListings,ML81678413,N,Y,37.2246172,-121.9675014
PAST SALE,July-28-2017,Single Family Residential,222 Thomas Dr,LOS GATOS,CA,95032,1550000,3,2.0,LOS GATOS,1430,6000,1964,186,1084,,Sold,,,http://www.redfin.com/CA/Los-Gatos/222-Thomas-Dr-95032/home/912458,MLSListings,ML81667889,N,Y,37.2403673,-121.9299622
PAST SALE,August-7-2017,Single Family Residential,600 Starview Ter,LOS GATOS,CA,95033,1060000,3,2.0,LOS GATOS,1650,50747,1985,176,642,,Sold,,,http://www.redfin.com/CA/Los-Gatos/600-Starview-Ter-95033/home/2406160,MLSListings,ML81653550,N,Y,37.0926761,-121.949794
PAST SALE,,Single Family Residential,386 School Ct,Los Gatos,CA,95032,447000,3,2.0,,2026,2688,2017,,221,,,,,http://www.redfin.com/CA/Los-Gatos/386-School-Ct-95032/home/143042122,,,N,Y,37.2621148,-121.9650649
PAST SALE,July-12-2017,Single Family Residential,17593 Comanche Trl,LOS GATOS,CA,95033,830000,2,2.0,LOS GATOS,1481,7808,1926,202,560,,Sold,,,http://www.redfin.com/CA/Los-Gatos/17593-Comanche-Trl-95033/home/1584843,MLSListings,ML81650563,N,Y,37.160749,-121.977724
PAST SALE,December-22-2017,Townhouse,205 Escobar Ave,LOS GATOS,CA,95032,1180000,3,2.0,LOS GATOS,1218,2361,1972,39,969,365,Sold,,,http://www.redfin.com/CA/Los-Gatos/205-Escobar-Ave-95032/home/1373743,MLSListings,ML81685795,N,Y,37.240255,-121.9446448
PAST SALE,March-8-2017,Other,14685 Oka Rd #56,LOS GATOS,CA,95032,385000,3,2.0,LOS GATOS,1950,2500,2000,328,197,830,Sold,,,http://www.redfin.com/CA/Los-Gatos/14685-Oka-Rd-95032/unit-56/home/1040461,MLSListings,ML81632331,N,Y,37.255659,-121.960259
PAST SALE,January-11-2018,Single Family Residential,227 Nob Hill Way,LOS GATOS,CA,95032,1861200,4,2.0,LOS GATOS,1400,9915,1957,19,1329,,Sold,,,http://www.redfin.com/CA/Los-Gatos/227-Nob-Hill-Way-95032/home/1194273,MLSListings,ML81685932,N,Y,37.2466082,-121.9618701
PAST SALE,May-26-2017,Single Family Residential,19735 Oakmont Dr,LOS GATOS,CA,95033,1395000,3,2.0,LOS GATOS,1953,5580,1930,249,714,,Sold,,,http://www.redfin.com/CA/Los-Gatos/19735-Oakmont-Dr-95033/home/1617375,MLSListings,ML81653486,N,Y,37.1756203,-121.9876417
PAST SALE,April-11-2017,Single Family Residential,155 Euclid Ave,LOS GATOS,CA,95030,2100000,3,2.0,LOS GATOS,2010,8468,1951,294,1045,,Sold,,,http://www.redfin.com/CA/Los-Gatos/155-Euclid-Ave-95030/home/930028,MLSListings,ML81642230,N,Y,37.215668,-121.9855092
PAST SALE,,Single Family Residential,107 Vista Del Monte,Los Gatos,CA,95030,437000,3,2.0,,1953,8690,1957,,224,,,,,http://www.redfin.com/CA/Los-Gatos/107-Vista-Del-Monte-95030/home/1434890,,,N,Y,37.2257955,-121.9632121
PAST SALE,January-25-2018,Single Family Residential,106 Calle Estoria,LOS GATOS,CA,95032,1694000,3,2.0,LOS GATOS,1577,9228,1962,5,1074,,Sold,,,http://www.redfin.com/CA/Los-Gatos/106-Calle-Estoria-95032/home/820509,MLSListings,ML81687191,N,Y,37.2624651,-121.9796088
PAST SALE,November-28-2017,Single Family Residential,15011 Winchester Blvd,MONTE SERENO,CA,95030,1675000,3,2.0,MONTE SERENO,1862,12220,1968,63,900,,Sold,,,http://www.redfin.com/CA/Los-Gatos/15011-Winchester-Blvd-95030/home/822452,MLSListings,ML81678489,N,Y,37.250257,-121.970128
PAST SALE,,Single Family Residential,14410 Blossom Hill Rd,Los Gatos,CA,95032,1000500,4,2.0,,1960,9877,1965,,510,,,,,http://www.redfin.com/CA/Los-Gatos/14410-Blossom-Hill-Rd-95032/home/1317353,,,N,Y,37.235934,-121.918697
PAST SALE,October-10-2017,Single Family Residential,1924 Adelaide Way,SAN JOSE,CA,95124,1240000,3,2.0,SAN JOSE,1740,6400,1959,112,713,,Sold,,,http://www.redfin.com/CA/San-Jose/1924-Adelaide-Way-95124/home/1637176,MLSListings,ML81676282,N,Y,37.2440115,-121.9253775
PAST SALE,July-10-2017,Single Family Residential,26769 Havenhill Ln,LOS GATOS,CA,95033,785000,3,2.0,LOS GATOS,1328,36678,1971,204,591,,Sold,,,http://www.redfin.com/CA/Los-Gatos/26769-Havenhill-Ln-95033/home/2406708,MLSListings,ML81652748,N,Y,37.106561,-121.897969
PAST SALE,December-1-2017,Single Family Residential,50 Clifton Ave,LOS GATOS,CA,95030,1800000,3,2.0,LOS GATOS,1718,28800,1975,60,1048,,Sold,,,http://www.redfin.com/CA/Los-Gatos/50-Clifton-Ave-95030/home/1534769,MLSListings,ML81678440,N,Y,37.2221383,-121.9881692
PAST SALE,,Single Family Residential,102 Calle Estoria,Los Gatos,CA,95032,950000,4,2.0,,1883,10000,1962,,505,,,,,http://www.redfin.com/CA/Los-Gatos/102-Calle-Estoria-95032/home/946410,,,N,Y,37.2621859,-121.9793241
PAST SALE,June-6-2017,Single Family Residential,209 Arroyo Grande Way,LOS GATOS,CA,95032,2025000,4,2.0,LOS GATOS,1929,7800,1958,238,1050,,Sold,,,http://www.redfin.com/CA/Los-Gatos/209-Arroyo-Grande-Way-95032/home/1384483,MLSListings,ML81650622,N,Y,37.2490063,-121.9620847
PAST SALE,May-1-2017,Single Family Residential,500 San Benito Ave,LOS GATOS,CA,95030,1725000,3,2.0,LOS GATOS,1742,9000,1922,274,990,,Sold,,,http://www.redfin.com/CA/Los-Gatos/500-San-Benito-Ave-95030/home/1663921,MLSListings,ML81642246,N,Y,37.2327251,-121.9814235
PAST SALE,,Single Family Residential,15839 Orange Blossom Ln,Los Gatos,CA,95032,1300000,3,2.0,,1675,8000,1955,,776,,,,,http://www.redfin.com/CA/Los-Gatos/15839-Orange-Blossom-Ln-95032/home/1544243,,,N,Y,37.2383198,-121.9566028
PAST SALE,October-19-2017,Townhouse,179 Escobar Ave,LOS GATOS,CA,95032,1038000,3,2.0,LOS GATOS,1218,2666,1972,103,852,365,Sold,,,http://www.redfin.com/CA/Los-Gatos/179-Escobar-Ave-95032/home/1553052,MLSListings,ML81675222,N,Y,37.2407827,-121.9438294
PAST SALE,,Single Family Residential,18380 Laurel Dr,Los Gatos,CA,95030,2060000,3,2.0,,2186,35000,1955,,942,,,,,http://www.redfin.com/CA/Los-Gatos/18380-Laurel-Dr-95030/home/824247,,,N,Y,37.2415348,-121.9946222
PAST SALE,,Single Family Residential,14452 Evans Ln,Saratoga,CA,95070,2375000,2,1.0,,1446,49930,1950,,1642,,,,,http://www.redfin.com/CA/Saratoga/14452-Evans-Ln-95070/home/1727068,,,N,Y,37.2590763,-121.9940672
PAST SALE,November-9-2017,Single Family Residential,181 Ivy Hill Way,LOS GATOS,CA,95032,1395000,3,2.0,LOS GATOS,1488,7440,1957,82,938,,Sold,,,http://www.redfin.com/CA/Los-Gatos/181-Ivy-Hill-Way-95032/home/1357504,MLSListings,ML81675024,N,Y,37.2472785,-121.9614141
PAST SALE,March-13-2017,Single Family Residential,21455 Oneda Ct,LOS GATOS,CA,95033,803000,3,2.0,LOS GATOS,2340,11534,1949,323,343,89,Sold,,,http://www.redfin.com/CA/Los-Gatos/21455-Oneda-Ct-95033/home/1369801,MLSListings,ML81636742,N,Y,37.157576,-121.9812
PAST SALE,December-15-2017,Condo/Co-op,451 Alberto Way #147,LOS GATOS,CA,95032,700000,2,2.0,LOS GATOS,1136,436,1978,46,616,475,Sold,,,http://www.redfin.com/CA/Los-Gatos/451-Alberto-Way-95032/unit-147/home/914526,MLSListings,ML81682656,N,Y,37.22864,-121.97199
PAST SALE,August-15-2017,Single Family Residential,229 Gregg Ct,LOS GATOS,CA,95032,1597000,3,2.0,LOS GATOS,1732,7500,1965,168,922,,Sold,,,http://www.redfin.com/CA/Los-Gatos/229-Gregg-Ct-95032/home/1635497,MLSListings,ML81646868,N,Y,37.2413716,-121.9241924
PAST SALE,December-28-2017,Single Family Residential,17936 Francis Ct,LOS GATOS,CA,95033,1000000,3,2.0,LOS GATOS,2400,51836,1965,33,417,,Sold,,,http://www.redfin.com/CA/Los-Gatos/17936-Francis-Ct-95030/home/916405,MLSListings,ML81683883,N,Y,37.1564297,-121.9830567
PAST SALE,August-15-2017,Single Family Residential,5604 Begonia Dr,SAN JOSE,CA,95124,950000,3,2.0,SAN JOSE,1253,6500,1961,168,758,,Sold,,,http://www.redfin.com/CA/San-Jose/5604-Begonia-Dr-95124/home/890383,MLSListings,ML81652574,N,Y,37.2360691,-121.9105208
PAST SALE,,Single Family Residential,4838 Kinghurst Dr,San Jose,CA,95124,1339000,3,2.0,,1300,6386,1959,,1030,,,,,http://www.redfin.com/CA/San-Jose/4838-Kinghurst-Dr-95124/home/1417221,,,N,Y,37.2493954,-121.9482689
PAST SALE,October-17-2017,Single Family Residential,118 Lansberry Ct,LOS GATOS,CA,95032,2165000,4,2.0,LOS GATOS,2176,8000,1970,105,995,,Sold,,,http://www.redfin.com/CA/Los-Gatos/118-Lansberry-Ct-95032/home/1544225,MLSListings,ML81676529,N,Y,37.2320067,-121.9521384
PAST SALE,September-12-2017,Condo/Co-op,14225 Lora Dr #64,LOS GATOS,CA,95032,555000,2,2.0,LOS GATOS,1050,2242,1963,140,529,398,Sold,,,http://www.redfin.com/CA/Los-Gatos/14225-Lora-Dr-95032/unit-64/home/984451,MLSListings,ML81672792,N,Y,37.262377,-121.976824
PAST SALE,June-23-2017,Single Family Residential,1545 Theresa Ave,CAMPBELL,CA,95008,1060000,2,2.0,CAMPBELL,1088,9450,1953,221,974,,Sold,,,http://www.redfin.com/CA/Campbell/1545-Theresa-Ave-95008/home/820379,MLSListings,ML81654449,N,Y,37.264673,-121.9639379
PAST SALE,July-31-2017,Single Family Residential,109 Bond Ct,LOS GATOS,CA,95030,1975000,3,2.0,LOS GATOS,2118,20720,1959,183,932,,Sold,,,http://www.redfin.com/CA/Los-Gatos/109-Bond-Ct-95030/home/987226,MLSListings,ML81667224,N,Y,37.2227177,-121.9602748
PAST SALE,September-26-2017,Single Family Residential,18404 Main Blvd,LOS GATOS,CA,95033,768000,3,2.0,LOS GATOS,1590,48675,1975,126,483,118,Sold,,,http://www.redfin.com/CA/Los-Gatos/18404-Main-Blvd-95033/home/2400449,MLSListings,ML81673829,N,Y,37.115969,-121.985373
PAST SALE,,Single Family Residential,234 Harding Ave,Los Gatos,CA,95030,1600000,3,2.0,,1858,13068,2002,,861,,,,,http://www.redfin.com/CA/Los-Gatos/234-Harding-Ave-95030/home/572990,,,N,Y,37.2247183,-121.9662446
PAST SALE,,Single Family Residential,266 Kennedy Rd,Los Gatos,CA,95032,1950000,3,2.0,,1593,11625,1956,,1224,,,,,http://www.redfin.com/CA/Los-Gatos/266-Kennedy-Rd-95032/home/775157,,,N,Y,37.226249,-121.963823
PAST SALE,October-2-2017,Townhouse,164 Milmar Way,LOS GATOS,CA,95032,980000,3,2.0,LOS GATOS,1494,1400,1972,120,656,365,Sold,,,http://www.redfin.com/CA/Los-Gatos/164-Milmar-Way-95032/home/929947,MLSListings,ML81675352,N,Y,37.24209,-121.945548
PAST SALE,,Single Family Residential,5228 Union Ave,San Jose,CA,95124,1367000,4,2.0,,1742,3484,2000,,785,,,,,http://www.redfin.com/CA/San-Jose/5228-Union-Ave-95124/home/1721275,,,N,Y,37.2427628,-121.9309184
PAST SALE,September-22-2017,Single Family Residential,288 Carlton Ave,LOS GATOS,CA,95032,1400000,3,2.0,LOS GATOS,1094,6420,1958,130,1280,,Sold,,,http://www.redfin.com/CA/Los-Gatos/288-Carlton-Ave-95032/home/1266982,MLSListings,ML81675324,N,Y,37.2465961,-121.9541441
PAST SALE,August-14-2017,Single Family Residential,5319 Leigh Ave,SAN JOSE,CA,95124,1300000,3,2.0,SAN JOSE,1740,6820,1958,169,747,,Sold,,,http://www.redfin.com/CA/San-Jose/5319-Leigh-Ave-95124/home/1639109,MLSListings,ML81667802,N,Y,37.2416077,-121.9229933
PAST SALE,May-11-2017,Single Family Residential,5562 Harwood Rd,SAN JOSE,CA,95124,1310000,4,2.0,SAN JOSE,1598,7854,1959,264,820,,Sold,,,http://www.redfin.com/CA/San-Jose/5562-Harwood-Rd-95124/home/890360,MLSListings,ML81644828,N,Y,37.2369868,-121.9127213
PAST SALE,January-10-2018,Single Family Residential,350 Bella Vista Ave,LOS GATOS,CA,95032,2271500,3,2.0,LOS GATOS,2023,7752,1930,20,1123,,Sold,,,http://www.redfin.com/CA/Los-Gatos/350-Bella-Vista-Ave-95032/home/913401,MLSListings,ML81681844,N,Y,37.2272831,-121.9702881
PAST SALE,October-12-2017,Single Family Residential,16759 Frank Ave,LOS GATOS,CA,95032,1537500,3,2.0,LOS GATOS,1372,8970,1946,110,1121,,Sold,,,http://www.redfin.com/CA/Los-Gatos/16759-Frank-Ave-95032/home/1168636,MLSListings,ML81678356,N,Y,37.2390051,-121.962888
PAST SALE,August-16-2017,Single Family Residential,231 Arroyo Grande Way,LOS GATOS,CA,95032,1850000,3,2.0,LOS GATOS,1823,13900,1959,167,1015,,Sold,,,http://www.redfin.com/CA/Los-Gatos/231-Arroyo-Grande-Way-95032/home/1685574,MLSListings,ML81669402,N,Y,37.247904,-121.9626918
PAST SALE,July-25-2017,Single Family Residential,189 Mary Alice Dr,LOS GATOS,CA,95032,1480000,3,2.0,LOS GATOS,1344,5220,1961,189,1101,,Sold,,,http://www.redfin.com/CA/Los-Gatos/189-Mary-Alice-Dr-95032/home/626642,MLSListings,ML81656789,N,Y,37.2442966,-121.9522515
PAST SALE,August-29-2017,Townhouse,16345 Los Gatos Blvd #27,LOS GATOS,CA,95032,1052000,2,2.0,LOS GATOS,1130,1600,1973,154,931,385,Sold,,,http://www.redfin.com/CA/Los-Gatos/16345-Los-Gatos-Blvd-95032/unit-27/home/914451,MLSListings,ML81669076,N,Y,37.2315902,-121.9668942
PAST SALE,March-10-2017,Single Family Residential,263 Longridge Rd,LOS GATOS,CA,95032,1643000,3,2.0,LOS GATOS,1910,6510,1958,326,860,,Sold,,,http://www.redfin.com/CA/Los-Gatos/263-Longridge-Rd-95032/home/1675208,MLSListings,ML81638525,N,Y,37.2446593,-121.9541362
PAST SALE,,Single Family Residential,104 Albert Ct,Los Gatos,CA,95032,2020000,5,2.0,,2259,8050,1966,,894,,,,,http://www.redfin.com/CA/Los-Gatos/104-Albert-Ct-95032/home/1490255,,,N,Y,37.2313919,-121.9700085
PAST SALE,September-15-2017,Single Family Residential,105 Belvue Dr,LOS GATOS,CA,95032,1710000,3,2.0,LOS GATOS,1744,10720,1965,137,981,46,Sold,,,http://www.redfin.com/CA/Los-Gatos/105-Belvue-Dr-95032/home/1503368,MLSListings,ML81674565,N,Y,37.2319354,-121.9134655
PAST SALE,March-16-2017,Single Family Residential,16320 Alexander Ct,MONTE SERENO,CA,95030,2300000,3,2.0,MONTE SERENO,2006,16988,1957,320,1147,,Sold,,,http://www.redfin.com/CA/Monte-Sereno/16320-Alexander-Ave-95030/home/1317143,MLSListings,ML81629894,N,Y,37.2311936,-121.9867998
PAST SALE,April-17-2017,Single Family Residential,252 Edelen Ave,LOS GATOS,CA,95030,1764000,3,2.0,LOS GATOS,1622,4800,1921,288,1088,,Sold,,,http://www.redfin.com/CA/Los-Gatos/252-Edelen-Ave-95030/home/1650135,MLSListings,ML81637650,N,Y,37.2261082,-121.9793554
PAST SALE,,Single Family Residential,200 Highland Oaks Dr,Los Gatos,CA,95032,1250000,4,2.0,,1232,11500,1957,,1015,,,,,http://www.redfin.com/CA/Los-Gatos/200-Highland-Oaks-Dr-95032/home/1089034,,,N,Y,37.2469139,-121.9602826
PAST SALE,September-8-2017,Single Family Residential,116 Arroyo Grande Way,LOS GATOS,CA,95032,1525000,3,2.0,LOS GATOS,1230,7000,1958,144,1240,,Sold,,,http://www.redfin.com/CA/Los-Gatos/116-Arroyo-Grande-Way-95032/home/1403038,MLSListings,ML81672743,N,Y,37.2504525,-121.963912
PAST SALE,,Single Family Residential,20940 Comanche Trl,Los Gatos,CA,95033,675000,2,2.0,,1262,6912,1936,,535,,,,,http://www.redfin.com/CA/Los-Gatos/20940-Comanche-Trl-95033/home/1756507,,,N,Y,37.161383,-121.977503
PAST SALE,,Single Family Residential,Francis Ct,Los Gatos,CA,95033,1000000,2,2.0,,1844,51836,1965,,542,,,,,http://www.redfin.com/CA/Los-Gatos/Francis-Ct-95033/home/95955513,,,N,Y,37.1565671,-121.9833255
PAST SALE,June-8-2017,Single Family Residential,51 College Ave,LOS GATOS,CA,95030,2250000,3,2.0,LOS GATOS,2680,37900,1939,236,840,,Sold,,,http://www.redfin.com/CA/Los-Gatos/51-College-Ave-95030/home/1206549,MLSListings,ML81645116,N,Y,37.2197893,-121.981807
PAST SALE,September-15-2017,Single Family Residential,29 Mariposa Ave,LOS GATOS,CA,95030,1825000,3,2.0,LOS GATOS,1501,8154,1948,137,1216,,Sold,,,http://www.redfin.com/CA/Los-Gatos/29-Mariposa-Ave-95030/home/824084,MLSListings,ML81673481,N,Y,37.2360193,-121.9794167
PAST SALE,July-26-2017,Single Family Residential,327-B Skyline,CUPERTINO,CA,95014,1097000,3,2.0,CUPERTINO,1442,111949,1978,188,761,,Sold,,,http://www.redfin.com/CA/Cupertino/327B-Skyline-Blvd-95014/home/780923,MLSListings,ML81647384,N,Y,37.284965,-122.150297
PAST SALE,,Single Family Residential,21435 Madrone Dr,Los Gatos,CA,95033,556500,2,1.0,,924,15300,1940,,602,,,,,http://www.redfin.com/CA/Los-Gatos/21435-Madrone-Dr-95033/home/1091130,,,N,Y,37.1581076,-121.9859905
PAST SALE,October-10-2017,Single Family Residential,16580 Topping Way,LOS GATOS,CA,95032,2180000,4,2.0,LOS GATOS,2233,10275,1949,112,976,,Sold,,,http://www.redfin.com/CA/Los-Gatos/16580-Topping-Way-95032/home/1503420,MLSListings,ML81677015,N,Y,37.2282706,-121.9599201
PAST SALE,July-7-2017,Single Family Residential,19640 Redberry Dr,LOS GATOS,CA,95030,2425000,4,2.0,LOS GATOS,2408,97138,1956,207,1007,,Sold,,,http://www.redfin.com/CA/Los-Gatos/19640-Redberry-Dr-95030/home/1419048,MLSListings,ML81640403,N,Y,37.2380854,-122.0164987
PAST SALE,,Single Family Residential,392 School Ct,Los Gatos,CA,95032,1617500,3,2.0,,2026,2735,2017,,798,,,,,http://www.redfin.com/CA/Los-Gatos/392-School-Ct-95032/home/113656537,,,N,Y,37.2621148,-121.9650649
PAST SALE,,Single Family Residential,1422 Theresa Ave,Campbell,CA,95008,130909,3,2.0,,1835,9450,2009,,71,,,,,http://www.redfin.com/CA/Campbell/1422-Theresa-Ave-95008/home/1838980,,,N,Y,37.266046,-121.963057
PAST SALE,August-10-2017,Single Family Residential,18525 Vina Dr,LOS GATOS,CA,95033,570000,3,2.0,LOS GATOS,954,10557,1932,173,597,,Sold,,,http://www.redfin.com/CA/Los-Gatos/18525-Vina-Dr-95033/home/1780864,MLSListings,ML81652982,N,Y,37.2001407,-121.9949795
PAST SALE,June-23-2017,Single Family Residential,17225 Clearview Dr,LOS GATOS,CA,95032,2052000,4,2.0,LOS GATOS,2297,12750,1977,221,893,,Sold,,,http://www.redfin.com/CA/Los-Gatos/17225-Clearview-Dr-95032/home/1444477,MLSListings,ML81650599,N,Y,37.2578576,-121.9705204
PAST SALE,October-31-2017,Single Family Residential,1875 Blossom Hill Rd,SAN JOSE,CA,95124,1360000,3,2.0,SAN JOSE,2104,10500,1965,91,646,,Sold,,,http://www.redfin.com/CA/San-Jose/1875-Blossom-Hill-Rd-95124/home/1767266,MLSListings,ML81675513,N,Y,37.236476,-121.923213
PAST SALE,December-6-2017,Single Family Residential,166 Spreckles Ave,LOS GATOS,CA,95030,2015000,3,2.0,LOS GATOS,1466,22925,1949,55,1374,,Sold,,,http://www.redfin.com/CA/Los-Gatos/166-Spreckles-Ave-95030/home/1310776,MLSListings,ML81677021,N,Y,37.2184481,-121.9655556
PAST SALE,November-3-2017,Single Family Residential,209 Mary Alice Dr,LOS GATOS,CA,95032,1330000,3,2.0,LOS GATOS,1160,6000,1961,88,1147,,Sold,,,http://www.redfin.com/CA/Los-Gatos/209-Mary-Alice-Dr-95032/home/1477178,MLSListings,ML81680591,N,Y,37.245286,-121.9525195
PAST SALE,November-13-2017,Condo/Co-op,95 Church St #2208,LOS GATOS,CA,95030,1228000,2,2.0,LOS GATOS,1545,2100,1981,78,795,750,Sold,,,http://www.redfin.com/CA/Los-Gatos/95-Church-St-95030/unit-2208/home/1016974,MLSListings,ML81682943,N,Y,37.2223445,-121.9792825
PAST SALE,August-16-2017,Townhouse,115 Strathmore,LOS GATOS,CA,95032,1141000,3,2.0,LOS GATOS,1420,3500,1977,167,804,530,Sold,,,http://www.redfin.com/CA/Los-Gatos/115-Strathmore-Pl-95032/home/1384522,MLSListings,ML81647307,N,Y,37.2570363,-121.9699153
PAST SALE,September-11-2017,Condo/Co-op,443 Alberto Way Unit B215,LOS GATOS,CA,95032,600000,2,2.0,LOS GATOS,1076,,1978,141,558,475,Sold,,,http://www.redfin.com/CA/Los-Gatos/443-Alberto-Way-95032/unit-B215/home/586935,MLSListings,ML81674828,N,Y,37.228447,-121.972814
PAST SALE,December-14-2017,Single Family Residential,1693 Canna Ln,SAN JOSE,CA,95124,1585000,4,2.0,SAN JOSE,1364,6039,1962,47,1162,,Sold,,,http://www.redfin.com/CA/San-Jose/1693-Canna-Ln-95124/home/1247564,MLSListings,ML81684764,N,Y,37.231502,-121.9090507
PAST SALE,October-12-2017,Single Family Residential,226 Caldwell Ave,LOS GATOS,CA,95032,2096000,4,2.0,LOS GATOS,1908,7700,1928,110,1099,,Sold,,,http://www.redfin.com/CA/Los-Gatos/226-Caldwell-Ave-95032/home/913395,MLSListings,ML81677329,N,Y,37.2276191,-121.9681037
PAST SALE,March-7-2017,Single Family Residential,16450 Cypress Way,LOS GATOS,CA,95030,1575000,2,2.0,LOS GATOS,1871,48186,1968,329,842,,Sold,,,http://www.redfin.com/CA/Los-Gatos/16450-Cypress-Way-95030/home/1144885,MLSListings,ML81631201,N,Y,37.2146841,-121.9609157
PAST SALE,,Single Family Residential,227 Belgatos Rd,Los Gatos,CA,95032,1530000,4,2.0,,1970,10000,1965,,777,,,,,http://www.redfin.com/CA/Los-Gatos/227-Belgatos-Rd-95032/home/1220072,,,N,Y,37.2330305,-121.919798
PAST SALE,March-30-2017,Single Family Residential,60 Old Orchard Rd,LOS GATOS,CA,95033,975000,4,2.0,LOS GATOS,1830,67344,1970,306,533,,Sold,,,http://www.redfin.com/CA/Los-Gatos/60-Old-Orchard-Rd-95033/home/2405481,MLSListings,ML81637621,N,Y,37.1115492,-121.9352529
PAST SALE,November-13-2017,Condo/Co-op,420 Alberto Way #8,LOS GATOS,CA,95032,770000,2,2.5,LOS GATOS,1120,1120,1970,78,688,468,Sold,,,http://www.redfin.com/CA/Los-Gatos/420-Alberto-Way-95032/unit-8/home/914121,MLSListings,ML81679597,N,Y,37.2272959,-121.9718705
PAST SALE,September-14-2017,Townhouse,660 W Parr Ave,CAMPBELL,CA,95008,1028800,3,2.5,CAMPBELL,1813,1984,1989,138,567,120,Sold,,,http://www.redfin.com/CA/Campbell/660-W-Parr-Ave-95008/home/785406,MLSListings,ML81672349,N,Y,37.2639325,-121.9618635
PAST SALE,June-23-2017,Single Family Residential,1425 Burrows Rd,CAMPBELL,CA,95008,1320000,2,2.5,CAMPBELL,1665,10500,1953,221,793,,Sold,,,http://www.redfin.com/CA/Campbell/1425-Burrows-Rd-95008/home/1488056,MLSListings,ML81652153,N,Y,37.2664911,-121.9731625
PAST SALE,April-20-2017,Townhouse,125 El Pinar,LOS GATOS,CA,95032,1350000,3,2.5,LOS GATOS,2220,2700,1974,285,608,732,Sold,,,http://www.redfin.com/CA/Los-Gatos/125-El-Pinar-95032/home/1444464,MLSListings,ML81641783,N,Y,37.260821,-121.988544
PAST SALE,September-15-2017,Single Family Residential,130 Westhill Dr,LOS GATOS,CA,95032,1886000,3,2.5,LOS GATOS,2057,10375,1964,137,917,,Sold,,,http://www.redfin.com/CA/Los-Gatos/130-Westhill-Dr-95032/home/717123,MLSListings,ML81670667,N,Y,37.2340205,-121.9242674
PAST SALE,May-18-2017,Townhouse,105 Charter Oaks Cir,LOS GATOS,CA,95032,1100000,4,2.5,LOS GATOS,1691,2016,1973,257,651,453,Sold,,,http://www.redfin.com/CA/Los-Gatos/105-Charter-Oaks-Cir-95032/home/838089,MLSListings,ML81643185,N,Y,37.253438,-121.965308
PAST SALE,March-28-2017,Single Family Residential,15820 Bruce Ct,MONTE SERENO,CA,95030,2530000,4,2.5,MONTE SERENO,2800,9583,1987,308,904,,Sold,,,http://www.redfin.com/CA/Monte-Sereno/15820-Bruce-Ct-95030/home/823670,MLSListings,ML81638872,N,Y,37.2387254,-121.9829079
PAST SALE,November-14-2017,Single Family Residential,26183 Loma Prieta Way,LOS GATOS,CA,95033,1565000,4,2.5,LOS GATOS,2468,230476,1992,77,634,,Sold,,,http://www.redfin.com/CA/Los-Gatos/26183-Loma-Prieta-Way-95033/home/2407751,MLSListings,ML81678088,N,Y,37.1051069,-121.892537
PAST SALE,,Single Family Residential,18298 Montevina Rd,Los Gatos,CA,95033,238000,3,2.0,,2200,6694,1951,,108,,,,,http://www.redfin.com/CA/Los-Gatos/18298-Montevina-Rd-95033/home/1490385,,,N,Y,37.1977682,-121.9951416
PAST SALE,April-14-2017,Single Family Residential,107 Naramore Ln,LOS GATOS,CA,95032,1425000,3,2.5,LOS GATOS,1992,2764,2003,291,715,164,Sold,,,http://www.redfin.com/CA/Los-Gatos/107-Naramore-Ln-95032/home/1038091,MLSListings,ML81638365,N,Y,37.2645123,-121.9779671
PAST SALE,April-28-2017,Single Family Residential,100 Worcester Loop,LOS GATOS,CA,95030,2200000,4,2.5,LOS GATOS,2514,12000,1979,277,875,,Sold,,,http://www.redfin.com/CA/Los-Gatos/100-Worcester-Loop-95030/home/775155,MLSListings,ML81643191,N,Y,37.2227423,-121.9643962
PAST SALE,,Single Family Residential,967 Cherrystone Dr,Los Gatos,CA,95032,2140000,4,2.0,,2018,8000,1971,,1060,,,,,http://www.redfin.com/CA/Los-Gatos/967-Cherrystone-Dr-95032/home/717092,,,N,Y,37.2360524,-121.953544
PAST SALE,December-12-2017,Single Family Residential,105 Via Santa Maria,LOS GATOS,CA,95030,1850000,4,2.5,LOS GATOS,2160,12309,1965,49,856,,Sold,,,http://www.redfin.com/CA/Los-Gatos/105-Via-Santa-Maria-95030/home/1238525,MLSListings,ML81686913,N,Y,37.224574,-121.9598412
PAST SALE,May-12-2017,Townhouse,115 Greenfield Pl,LOS GATOS,CA,95032,1375000,3,2.5,LOS GATOS,2302,2220,1977,263,597,523,Sold,,,http://www.redfin.com/CA/Los-Gatos/115-Greenfield-Pl-95032/home/1402444,MLSListings,ML81645737,N,Y,37.256914,-121.967578
PAST SALE,December-6-2017,Townhouse,356 Bean Ave,LOS GATOS,CA,95030,1875000,3,2.5,LOS GATOS,2283,1917,1985,55,821,925,Sold,,,http://www.redfin.com/CA/Los-Gatos/356-Bean-Ave-95030/home/907772,MLSListings,ML81683195,N,Y,37.2267579,-121.986922
PAST SALE,May-18-2017,Single Family Residential,122 Whitney Ave,LOS GATOS,CA,95030,1499000,3,2.5,LOS GATOS,1900,15000,1925,257,789,,Sold,,,http://www.redfin.com/CA/Los-Gatos/122-Whitney-Ave-95030/home/1238520,MLSListings,ML81644100,N,Y,37.2229683,-121.9698906
PAST SALE,May-4-2017,Condo/Co-op,16126 Loretta Ln,LOS GATOS,CA,95032,790000,2,2.5,LOS GATOS,1334,529,1980,271,592,412,Sold,,,http://www.redfin.com/CA/Los-Gatos/16126-Loretta-Ln-95032/home/902288,MLSListings,ML81644029,N,Y,37.257401,-121.950337
PAST SALE,November-29-2017,Single Family Residential,16901 Sheldon Rd,LOS GATOS,CA,95030,1550000,2,2.5,LOS GATOS,1059,15840,1993,62,1464,,Sold,,,http://www.redfin.com/CA/Los-Gatos/16901-Sheldon-Rd-95030/home/1373610,MLSListings,ML81680809,N,Y,37.2231995,-122.0007626
PAST SALE,May-12-2017,Single Family Residential,106 Mill Rd,LOS GATOS,CA,95032,1475000,3,2.5,LOS GATOS,1994,435,1999,263,740,270,Sold,,,http://www.redfin.com/CA/Los-Gatos/106-Mill-Rd-95032/home/1477302,MLSListings,ML81646259,N,Y,37.2518484,-121.9628569
PAST SALE,September-26-2017,Single Family Residential,15963 Cherry Blossom Ln,LOS GATOS,CA,95032,2687000,4,2.5,LOS GATOS,3000,11790,1951,126,896,,Sold,,,http://www.redfin.com/CA/Los-Gatos/15963-Cherry-Blossom-Ln-95032/home/909635,MLSListings,ML81672998,N,Y,37.2366466,-121.9577163
PAST SALE,August-11-2017,Single Family Residential,108 Towne Ter,LOS GATOS,CA,95032,1785000,3,2.5,LOS GATOS,1657,3192,2012,172,1077,,Sold,,,http://www.redfin.com/CA/Los-Gatos/108-Towne-Ter-95032/home/40402181,MLSListings,ML81669748,N,Y,37.2305974,-121.9779758
PAST SALE,January-4-2018,Single Family Residential,14560 Blossom Hill Rd,LOS GATOS,CA,95032,1625000,4,2.5,LOS GATOS,2135,11415,1964,26,761,,Sold,,,http://www.redfin.com/CA/Los-Gatos/14560-Blossom-Hill-Rd-95032/home/1060202,MLSListings,ML81685982,N,Y,37.235881,-121.923134
PAST SALE,August-11-2017,Single Family Residential,16265 Greenridge Ter,LOS GATOS,CA,95032,2250000,3,2.5,LOS GATOS,2362,78426,1953,172,953,,Sold,,,http://www.redfin.com/CA/Los-Gatos/16265-Greenridge-Ter-95032/home/1780820,MLSListings,ML81652855,N,Y,37.2344767,-121.9352603
PAST SALE,,Townhouse,147 El Altillo,Los Gatos,CA,95032,1315000,3,2.0,,2175,2700,1969,,605,,,,,http://www.redfin.com/CA/Los-Gatos/147-El-Altillo-95032/home/822367,,,N,Y,37.259262,-121.986576
PAST SALE,May-2-2017,Townhouse,417 Clearview Dr,LOS GATOS,CA,95032,1190000,4,2.5,LOS GATOS,2302,2220,1977,273,517,523,Sold,,,http://www.redfin.com/CA/Los-Gatos/417-Clearview-Dr-95032/home/1674809,MLSListings,ML81645816,N,Y,37.257653,-121.969432
PAST SALE,June-27-2017,Single Family Residential,273 Marchmont Dr,LOS GATOS,CA,95032,2685000,3,2.5,LOS GATOS,2349,10000,1965,217,1143,,Sold,,,http://www.redfin.com/CA/Los-Gatos/273-Marchmont-Dr-95032/home/915176,MLSListings,ML81653572,N,Y,37.2280004,-121.9551366
PAST SALE,February-8-2017,Single Family Residential,16861 Sheldon Rd,LOS GATOS,CA,95030,1100000,3,2.5,LOS GATOS,2629,250905,1979,356,418,,Sold,,,http://www.redfin.com/CA/Los-Gatos/Undisclosed-address-95030/home/1608981,MLSListings,ML81590234,N,Y,37.223616,-121.999667
PAST SALE,July-31-2017,Single Family Residential,14500 Quito Rd,LOS GATOS,CA,95032,1825000,4,2.5,LOS GATOS,2255,17500,1959,183,809,,Sold,,,http://www.redfin.com/CA/LOS-GATOS/14500-Quito-Rd-95032/home/113974746,MLSListings,ML81652084,N,Y,37.2260616,-121.9302449
PAST SALE,January-4-2018,Single Family Residential,18382 Knuth Rd,LOS GATOS,CA,95033,1286750,3,2.5,LOS GATOS,2375,37374,1988,26,542,240,Sold,,,http://www.redfin.com/CA/Los-Gatos/18382-Knuth-Rd-95033/home/2394870,MLSListings,ML81680461,N,Y,37.20862,-122.064701
PAST SALE,July-17-2017,Single Family Residential,16559 Shady View Ln,LOS GATOS,CA,95032,2100000,4,2.5,LOS GATOS,2184,10560,1967,197,962,,Sold,,,http://www.redfin.com/CA/Los-Gatos/16559-Shady-View-Ln-95032/home/915591,MLSListings,ML81655694,N,Y,37.2287627,-121.9551295
PAST SALE,January-4-2018,Townhouse,17574 Bruce Ave,LOS GATOS,CA,95030,1350000,3,2.5,LOS GATOS,1668,817,1978,26,809,440,Sold,,,http://www.redfin.com/CA/Los-Gatos/17574-Bruce-Ave-95030/home/1129332,MLSListings,ML81686272,N,Y,37.237025,-121.977627
PAST SALE,June-28-2017,Townhouse,16159 Loretta Ln,CAMPBELL,CA,95008,780000,2,2.5,CAMPBELL,1334,529,1980,216,585,412,Sold,,,http://www.redfin.com/CA/CAMPBELL/16159-LORETTA-LN-95008/home/838358,MLSListings,ML81653585,N,Y,37.257117,-121.950878
PAST SALE,July-7-2017,Single Family Residential,278 Belvue Dr,LOS GATOS,CA,95032,1510001,3,2.5,LOS GATOS,1730,10125,1966,207,873,,Sold,,,http://www.redfin.com/CA/Los-Gatos/278-Belvue-Dr-95032/home/913068,MLSListings,ML81654179,N,Y,37.2343421,-121.9202492
PAST SALE,June-14-2017,Single Family Residential,129 Forest Hill Dr,LOS GATOS,CA,95032,1633000,3,2.5,LOS GATOS,1676,8030,1965,230,974,33,Sold,,,http://www.redfin.com/CA/Los-Gatos/129-Forest-Hill-Dr-95032/home/637784,MLSListings,ML81650649,N,Y,37.2377019,-121.9268161
PAST SALE,November-3-2017,Single Family Residential,115 Old Adobe Rd,LOS GATOS,CA,95032,1840000,4,2.5,LOS GATOS,2331,21000,1960,88,789,,Sold,,,http://www.redfin.com/CA/Los-Gatos/115-Old-Adobe-Rd-95032/home/946402,MLSListings,ML81669723,N,Y,37.258079,-121.9919492
PAST SALE,August-23-2017,Townhouse,107 Summerwood Dr,LOS GATOS,CA,95032,1150000,3,2.5,LOS GATOS,1520,1800,1971,160,757,358,Sold,,,http://www.redfin.com/CA/Los-Gatos/107-Summerwood-Dr-95032/home/1098210,MLSListings,ML81669707,N,Y,37.264785,-121.9751434
PAST SALE,,Other,17265 Debbie Rd,Los Gatos,CA,95033,885000,4,2.5,,2275,167662,1980,,389,,,,,http://www.redfin.com/CA/Los-Gatos/17265-Debbie-Rd-95033/home/2401463,,,N,Y,37.1297762,-122.0077077
PAST SALE,November-1-2017,Single Family Residential,119 Millrich Dr,LOS GATOS,CA,95030,2210000,4,2.5,LOS GATOS,2074,8610,1976,90,1066,,Sold,,,http://www.redfin.com/CA/Los-Gatos/119-Millrich-Dr-95030/home/1201596,MLSListings,ML81679283,N,Y,37.246857,-121.974243
PAST SALE,January-31-2017,Condo/Co-op,134 Pine Wood Ln,LOS GATOS,CA,95032,980000,3,2.5,LOS GATOS,1525,1799,1971,364,643,348,Sold,,,http://www.redfin.com/CA/Los-Gatos/134-Pine-Wood-Ln-95032/home/1805958,MLSListings,ML81632875,N,Y,37.26379,-121.976142
PAST SALE,March-27-2017,Single Family Residential,119 Bersano Ln,LOS GATOS,CA,95030,2200000,3,2.5,LOS GATOS,2400,5435,2007,309,917,227,Sold,,,http://www.redfin.com/CA/Los-Gatos/119-Bersano-Ln-95030/home/17292614,MLSListings,ML81634861,N,Y,37.2452242,-121.9728558
PAST SALE,,Other,23900 Hutchinson Rd,Los Gatos,CA,95033,500000,3,2.0,,1616,134165,1978,,309,,,,,http://www.redfin.com/CA/Los-Gatos/23900-Hutchinson-Rd-95033/home/2401741,,,N,Y,37.125556,-122.005346
PAST SALE,September-8-2017,Townhouse,14587 S Bascom Ave,LOS GATOS,CA,95032,815000,2,2.5,LOS GATOS,1334,529,1980,144,611,412,Sold,,,http://www.redfin.com/CA/Los-Gatos/14587-S-Bascom-Ave-95032/home/1596087,MLSListings,ML81669602,N,Y,37.256526,-121.950054
PAST SALE,,Townhouse,159 Altura Vis,Los Gatos,CA,95032,1450000,3,2.0,,2230,1512,1977,,650,,,,,http://www.redfin.com/CA/Los-Gatos/159-Altura-Vis-95032/home/1141936,,,N,Y,37.2582669,-121.990477
PAST SALE,January-31-2017,Single Family Residential,14355 Quito Rd,SARATOGA,CA,95070,2300000,4,2.5,SARATOGA,2828,44574,1978,364,813,,Sold,,,http://www.redfin.com/CA/Saratoga/14355-Quito-Rd-95070/home/1444309,MLSListings,ML81601234,N,Y,37.2602729,-121.992599
PAST SALE,October-23-2017,Single Family Residential,254 University Ave,LOS GATOS,CA,95030,2515000,3,2.5,LOS GATOS,1758,4360,1900,99,1431,,Sold,,,http://www.redfin.com/CA/Los-Gatos/254-University-Ave-95030/home/1544260,MLSListings,ML81679157,N,Y,37.2261724,-121.9802017
PAST SALE,,Townhouse,101 Puesta Del Sol,Los Gatos,CA,95032,1625000,3,2.5,,2160,2700,1974,,752,,,,,http://www.redfin.com/CA/Los-Gatos/101-Puesta-Del-Sol-95032/home/552475,,,N,Y,37.2587081,-121.9865247
PAST SALE,December-4-2017,Single Family Residential,17190 Laurel Rd,LOS GATOS,CA,95033,806000,3,2.5,LOS GATOS,1800,88078,2004,57,448,,Sold,,,http://www.redfin.com/CA/Los-Gatos/17190-Laurel-Rd-95033/home/2403148,MLSListings,ML81682477,N,Y,37.11094,-121.972471
PAST SALE,November-14-2017,Single Family Residential,364 Market St,LOS GATOS,CA,95032,1780721,3,2.5,LOS GATOS,2224,3059,2017,77,801,180,Sold,,,http://www.redfin.com/CA/Los-Gatos/364-Market-St-95032/home/113618845,MLSListings,ML81644824,N,Y,37.2623258,-121.964536
PAST SALE,December-18-2017,Single Family Residential,219 Casitas Bulevar,LOS GATOS,CA,95032,1550000,3,2.5,LOS GATOS,2175,2312,1969,43,713,,Sold,,,http://www.redfin.com/CA/Los-Gatos/219-Casitas-Bulevar-95032/home/830792,MLSListings,ML81687329,N,Y,37.262046,-121.986374
PAST SALE,December-15-2017,Single Family Residential,105 Hepplewhite Ct,LOS GATOS,CA,95032,2360000,4,2.5,LOS GATOS,2898,12975,1975,46,814,21,Sold,,,http://www.redfin.com/CA/Los-Gatos/105-Hepplewhite-Ct-95032/home/819961,MLSListings,ML81681031,N,Y,37.2535786,-121.9858297
PAST SALE,December-12-2017,Condo/Co-op,14577 S Bascom Ave,LOS GATOS,CA,95032,900000,3,2.5,LOS GATOS,1318,529,1980,49,683,412,Sold,,,http://www.redfin.com/CA/Los-Gatos/14577-S-Bascom-Ave-95032/home/1675267,MLSListings,ML81682134,N,Y,37.256718,-121.95008
PAST SALE,December-4-2017,Single Family Residential,369 Market St,LOS GATOS,CA,95032,1685000,3,2.5,LOS GATOS,2026,3386,2017,57,832,176,Sold,,,http://www.redfin.com/CA/Los-Gatos/369-Market-St-95032/home/143042119,MLSListings,ML81681807,N,Y,37.2623657,-121.9647398
PAST SALE,,Townhouse,119 Cherry Wood Ct,Los Gatos,CA,95032,950000,3,2.0,,1533,1680,1972,,620,,,,,http://www.redfin.com/CA/Los-Gatos/119-Cherry-Wood-Ct-95032/home/1472769,,,N,Y,37.263592,-121.974042
PAST SALE,October-17-2017,Single Family Residential,16508 Farvue Ln,LOS GATOS,CA,95030,1930000,2,2.5,LOS GATOS,2464,44100,1972,105,783,,Sold,,,http://www.redfin.com/CA/Los-Gatos/16508-Farvue-Ln-95030/home/908197,MLSListings,ML81672139,N,Y,37.2282007,-122.0021706
PAST SALE,,Other,18704 Favre Ridge Rd,Los Gatos,CA,95033,1600000,3,2.5,,3536,46304,1988,,452,,,,,http://www.redfin.com/CA/Los-Gatos/18704-Favre-Ridge-Rd-95033/home/2395289,,,N,Y,37.193505,-122.062979
PAST SALE,November-28-2017,Townhouse,105 EL ALTILLO,LOS GATOS,CA,95032,1365000,3,2.5,LOS GATOS,2318,2400,1969,63,589,739,Sold,,,http://www.redfin.com/CA/Los-Gatos/105-El-Altillo-95032/home/1582283,MLSListings,ML81679799,N,Y,37.259713,-121.986522
