SALE TYPE,SOLD DATE,PROPERTY TYPE,ADDRESS,CITY,STATE,ZIP,PRICE,BEDS,BATHS,LOCATION,SQUARE FEET,LOT SIZE,YEAR BUILT,DAYS ON MARKET,$/SQUARE FEET,HOA/MONTH,STATUS,NEXT OPEN HOUSE START TIME,NEXT OPEN HOUSE END TIME,URL (SEE http://www.redfin.com/buy-a-home/comparative-market-analysis FOR INFO ON PRICING),SOURCE,MLS#,FAVORITE,INTERESTED,LATITUDE,LONGITUDE
PAST SALE,June-6-2017,Single Family Residential,450 Marshall Ave,SAN JOSE,CA,95125,920000,2,0.5,SAN JOSE,900,5400,1910,238,1022,,Sold,,,http://www.redfin.com/CA/San-Jose/450-Marshall-Ave-95125/home/1603499,MLSListings,ML81654764,N,Y,37.3141448,-121.8944712
PAST SALE,,Single Family Residential,764 Willis Ave,San Jose,CA,95125,630000,2,1.0,,1232,6670,1912,,511,,,,,http://www.redfin.com/CA/San-Jose/764-Willis-Ave-95125/home/1279679,,,N,Y,37.3207403,-121.8950072
PAST SALE,,Single Family Residential,143 Pleasant Ridge Ave,San Jose,CA,95127,650000,3,1.0,,1277,8100,1948,,509,,,,,http://www.redfin.com/CA/San-Jose/143-Pleasant-Ridge-Ave-95127/home/1373006,,,N,Y,37.3676991,-121.8360768
PAST SALE,September-18-2017,Condo/Co-op,5543 Judith St #4,San Jose,CA,95123,385000,2,1.0,San Jose,798,,1970,134,482,249,Sold,,,http://www.redfin.com/CA/San-Jose/5543-Judith-St-95123/unit-4/home/1147277,San Francisco MLS,461863,N,Y,37.2527209,-121.826161
PAST SALE,June-28-2017,Condo/Co-op,2881 Meridian Ave #168,SAN JOSE,CA,95124,525000,1,1.0,SAN JOSE,971,1234,2007,216,541,427,Sold,,,http://www.redfin.com/CA/San-Jose/2881-Meridian-Ave-95124/unit-168/home/12422591,MLSListings,ML81645414,N,Y,37.2718464,-121.9077394
PAST SALE,,Condo/Co-op,1390 Saddle Rack St Apt 138,San Jose,CA,95126,550000,1,1.0,,917,,2004,,600,,,,,http://www.redfin.com/CA/San-Jose/1390-Saddle-Rack-St-95126/unit-138/home/687046,,,N,Y,37.3201952,-121.9130958
PAST SALE,,Single Family Residential,2682 Aida Ave,San Jose,CA,95122,145000,3,1.0,,1043,5000,1960,,139,,,,,http://www.redfin.com/CA/San-Jose/2682-Aida-Ave-95122/home/1312371,,,N,Y,37.3175076,-121.819757
PAST SALE,,Condo/Co-op,85 Rancho Dr,San Jose,CA,95111,425000,2,1.0,,822,,1983,,517,,,,,http://www.redfin.com/CA/San-Jose/85-Rancho-Dr-95111/home/1239861,,,N,Y,37.2828851,-121.8376503
PAST SALE,January-16-2018,Mobile/Manufactured Home,900 Golden Wheel Park Dr #42,SAN JOSE,CA,95112,130000,1,1.0,SAN JOSE,720,,1965,14,181,,Sold,,,http://www.redfin.com/CA/San-Jose/900-Golden-Wheel-Park-Dr-95112/unit-42/home/144189076,MLSListings,ML81683089,N,Y,37.3745175,-121.8918448
PAST SALE,April-28-2017,Condo/Co-op,279 Tradewinds Dr #5,SAN JOSE,CA,95123,409000,2,1.0,SAN JOSE,959,2809,1970,277,426,394,Sold,,,http://www.redfin.com/CA/San-Jose/279-Tradewinds-Dr-95123/unit-5/home/1627777,MLSListings,ML81643139,N,Y,37.25485,-121.827134
PAST SALE,October-20-2017,Condo/Co-op,259 N Capitol Ave #163,SAN JOSE,CA,95127,415000,2,1.0,SAN JOSE,828,1742,1977,102,501,266,Sold,,,http://www.redfin.com/CA/San-Jose/259-N-Capitol-Ave-95127/unit-163/home/1216736,MLSListings,ML81675888,N,Y,37.3686787,-121.8422041
PAST SALE,July-5-2017,Condo/Co-op,411 Park Ave #238,SAN JOSE,CA,95110,508000,1,1.0,SAN JOSE,876,,1987,209,580,400,Sold,,,http://www.redfin.com/CA/San-Jose/411-Park-Ave-95110/unit-238/home/1813773,MLSListings,ML81667151,N,Y,37.3286844,-121.8970633
PAST SALE,April-26-2017,Single Family Residential,1472 Martin Ave,SAN JOSE,CA,95126,860000,2,1.0,SAN JOSE,1250,6750,1912,279,688,,Sold,,,http://www.redfin.com/CA/San-Jose/1472-Martin-Ave-95126/home/823594,MLSListings,ML81634643,N,Y,37.3268643,-121.9175369
PAST SALE,September-25-2017,Condo/Co-op,38 N Almaden Blvd #1803,SAN JOSE,CA,95110,670000,1,1.0,SAN JOSE,868,164,2008,127,772,500,Sold,,,http://www.redfin.com/CA/San-Jose/38-N-Almaden-Blvd-95110/unit-1803/home/17291297,MLSListings,ML81668931,N,Y,37.3348273,-121.8957794
PAST SALE,May-11-2017,Condo/Co-op,28 Castlecrest Dr,SAN JOSE,CA,95116,309000,1,1.0,SAN JOSE,560,1875,1983,264,552,308,Sold,,,http://www.redfin.com/CA/San-Jose/28-Castlecrest-Dr-95116/home/885050,MLSListings,ML81645772,N,Y,37.355941,-121.850152
PAST SALE,June-27-2017,Single Family Residential,1542 Maxine Ave,SAN JOSE,CA,95125,965000,2,1.0,SAN JOSE,891,6100,1951,217,1083,,Sold,,,http://www.redfin.com/CA/San-Jose/1542-Maxine-Ave-95125/home/1728404,MLSListings,ML81648526,N,Y,37.2827645,-121.8986749
PAST SALE,September-1-2017,Condo/Co-op,120 Kenbrook Cir,SAN JOSE,CA,95111,410101,1,1.0,SAN JOSE,950,1272,1987,151,432,300,Sold,,,http://www.redfin.com/CA/San-Jose/120-Kenbrook-Cir-95111/home/842161,MLSListings,ML81672497,N,Y,37.288193,-121.841317
PAST SALE,November-3-2017,Condo/Co-op,5461 Tradewinds Walkway,San Jose,CA,95123,385000,2,1.0,San Jose,798,,1970,88,482,309,Sold,,,http://www.redfin.com/CA/San-Jose/5461-Tradewinds-Walkway-95123/unit-3/home/876898,San Francisco MLS,463840,N,Y,37.2548593,-121.825022
PAST SALE,January-19-2018,Townhouse,3442 Pisces Dr,SAN JOSE,CA,95111,500000,2,1.0,SAN JOSE,921,1460,1971,11,543,353,Sold,,,http://www.redfin.com/CA/San-Jose/3442-Pisces-Dr-95111/home/1699569,MLSListings,ML81687385,N,Y,37.2894073,-121.8305084
PAST SALE,,Condo/Co-op,247 N Capitol Ave Unit 130,San Jose,CA,95127,350000,1,1.0,,777,,1977,,450,,,,,http://www.redfin.com/CA/San-Jose/247-N-Capitol-Ave-95127/unit-130/home/886850,,,N,Y,37.3682271,-121.8417657
PAST SALE,January-26-2018,Mobile/Manufactured Home,2151 Oakland Rd #517,SAN JOSE,CA,95131,125000,2,1.0,SAN JOSE,768,,1973,4,163,,Sold,,,http://www.redfin.com/CA/San-Jose/2151-Oakland-Rd-95131/unit-517/home/63740808,MLSListings,ML81687188,N,Y,37.3962328,-121.9053495
PAST SALE,July-6-2017,Condo/Co-op,3243 Rocky Water Ln #25,SAN JOSE,CA,95148,515000,2,1.0,SAN JOSE,1200,,1984,208,429,288,Sold,,,http://www.redfin.com/CA/San-Jose/3243-Rocky-Water-Ln-95148/unit-25/home/968869,MLSListings,ML81653358,N,Y,37.313312,-121.807284
PAST SALE,September-22-2017,Condo/Co-op,1550 Technology Dr #3098,SAN JOSE,CA,95110,550000,1,1.0,SAN JOSE,875,875,2005,130,629,425,Sold,,,http://www.redfin.com/CA/San-Jose/1550-Technology-Dr-95110/unit-3098/home/2125856,MLSListings,ML81673534,N,Y,37.3635149,-121.9139854
PAST SALE,,Single Family Residential,10529 Mcvay Ave,San Jose,CA,95127,430000,2,1.0,,1118,9000,1950,,385,,,,,http://www.redfin.com/CA/San-Jose/10529-Mcvay-Ave-95127/home/718265,,,N,Y,37.371631,-121.8135565
PAST SALE,,Single Family Residential,1660 E San Antonio St,San Jose,CA,95116,630000,2,1.0,,991,23775,1950,,636,,,,,http://www.redfin.com/CA/San-Jose/1660-E-San-Antonio-St-95116/home/929272,,,N,Y,37.3490975,-121.8536461
PAST SALE,June-20-2017,Condo/Co-op,3346 Kimber Ct #14,SAN JOSE,CA,95124,445000,1,1.0,SAN JOSE,815,1066,1977,224,546,304,Sold,,,http://www.redfin.com/CA/San-Jose/3346-Kimber-Ct-95124/unit-14/home/1647882,MLSListings,ML81651989,N,Y,37.264057,-121.921765
PAST SALE,,Multi-Family (2-4 Unit),2456 Summer St,San Jose,CA,95116,750000,1,1.0,,1200,4000,1925,,625,,,,,http://www.redfin.com/CA/San-Jose/2456-Summer-St-95116/home/1757806,,,N,Y,37.355003,-121.835756
PAST SALE,April-10-2017,Single Family Residential,1384 Mariposa Ave,SAN JOSE,CA,95126,907612,2,1.0,SAN JOSE,1360,7400,1924,295,667,,Sold,,,http://www.redfin.com/CA/San-Jose/1384-Mariposa-Ave-95126/home/1311838,MLSListings,ML81640407,N,Y,37.3261653,-121.914106
PAST SALE,September-18-2017,Single Family Residential,2380 Cherry Ave,SAN JOSE,CA,95125,1025000,3,1.0,SAN JOSE,1161,6250,1951,134,883,,Sold,,,http://www.redfin.com/CA/San-Jose/2380-Cherry-Ave-95125/home/1551426,MLSListings,ML81674232,N,Y,37.2833279,-121.8956053
PAST SALE,September-26-2017,Single Family Residential,14568 Wyrick Ave,SAN JOSE,CA,95124,1150000,3,1.0,SAN JOSE,1074,9875,1950,126,1071,,Sold,,,http://www.redfin.com/CA/San-Jose/14568-Wyrick-Ave-95124/home/1266803,MLSListings,ML81675329,N,Y,37.2554675,-121.9236634
PAST SALE,January-9-2018,Condo/Co-op,3226 Kimber Ct #106,SAN JOSE,CA,95124,620000,2,1.0,SAN JOSE,886,844,1977,21,700,331,Sold,,,http://www.redfin.com/CA/San-Jose/3226-Kimber-Ct-95124/unit-106/home/626496,MLSListings,ML81687201,N,Y,37.265206,-121.920512
PAST SALE,,Condo/Co-op,5641 Calmor Ave Apt 1,San Jose,CA,95123,450000,2,1.0,,810,,1970,,556,,,,,http://www.redfin.com/CA/San-Jose/5641-Calmor-Ave-95123/unit-1/home/1365093,,,N,Y,37.2480197,-121.8522491
PAST SALE,,Single Family Residential,249 Mahoney Dr,San Jose,CA,95127,700000,3,1.0,,1160,24300,1920,,603,,,,,http://www.redfin.com/CA/San-Jose/249-Mahoney-Dr-95127/home/750330,,,N,Y,37.372334,-121.815294
PAST SALE,June-7-2017,Single Family Residential,533 Auzerais Ave,SAN JOSE,CA,95126,587000,3,1.0,SAN JOSE,947,5000,1950,237,620,,Sold,,,http://www.redfin.com/CA/San-Jose/533-Auzerais-Ave-95126/home/1563237,MLSListings,ML81646761,N,Y,37.3242592,-121.8980395
PAST SALE,,Single Family Residential,10321 Singleton Rd,San Jose,CA,95111,113000,3,1.0,,1662,9375,1951,,68,,,,,http://www.redfin.com/CA/San-Jose/10321-Singleton-Rd-95111/home/1616968,,,N,Y,37.2878001,-121.8380331
PAST SALE,,Condo/Co-op,5521 Spinnaker Dr Apt 3,San Jose,CA,95123,433000,2,1.0,,903,,1970,,480,,,,,http://www.redfin.com/CA/San-Jose/5521-Spinnaker-Dr-95123/unit-3/home/719502,,,N,Y,37.2529514,-121.8231607
PAST SALE,September-19-2017,Townhouse,763 Warring Dr #1,SAN JOSE,CA,95123,425000,2,1.0,SAN JOSE,810,8128,1970,133,525,350,Sold,,,http://www.redfin.com/CA/San-Jose/763-Warring-Dr-95123/unit-1/home/1521276,MLSListings,ML81671538,N,Y,37.2485473,-121.8530559
PAST SALE,October-10-2017,Condo/Co-op,1109 La Terrace Cir,SAN JOSE,CA,95123,445000,1,1.0,SAN JOSE,650,,1985,112,685,433,Sold,,,http://www.redfin.com/CA/San-Jose/1109-La-Terrace-Cir-95123/home/1256134,MLSListings,ML81675990,N,Y,37.240839,-121.868013
PAST SALE,November-30-2017,Condo/Co-op,5475 Eagles Ln #4,SAN JOSE,CA,95123,440000,2,1.0,SAN JOSE,798,1750,1970,61,551,308,Sold,,,http://www.redfin.com/CA/San-Jose/5475-Eagles-Ln-95123/unit-4/home/994427,MLSListings,ML81679370,N,Y,37.2542683,-121.822175
PAST SALE,January-8-2018,Condo/Co-op,5719 Makati Cir Unit A,SAN JOSE,CA,95123,470000,1,1.0,SAN JOSE,765,,1982,22,614,390,Sold,,,http://www.redfin.com/CA/San-Jose/5719-Makati-Cir-95123/unit-A/home/798203,MLSListings,ML81685601,N,Y,37.2487385,-121.8054983
PAST SALE,October-2-2017,Condo/Co-op,2769 Somerset Park Cir,SAN JOSE,CA,95132,443000,1,1.0,SAN JOSE,677,1711,1988,120,654,330,Sold,,,http://www.redfin.com/CA/San-Jose/2769-Somerset-Park-Cir-95132/home/2125681,MLSListings,ML81676255,N,Y,37.395454,-121.860833
PAST SALE,,Single Family Residential,1707 Ringwood Ave,San Jose,CA,95131,1800000,2,1.0,,1144,12998,1946,,1573,,,,,http://www.redfin.com/CA/San-Jose/1707-Ringwood-Ave-95131/home/690839,,,N,Y,37.3867542,-121.8924963
PAST SALE,,Single Family Residential,311 Monticello Ave,San Jose,CA,95125,77000,2,1.0,,1098,9147,1953,,70,,,,,http://www.redfin.com/CA/San-Jose/311-Monticello-Ave-95125/home/1085530,,,N,Y,37.3002893,-121.8681735
PAST SALE,June-14-2017,Single Family Residential,2153 Cheryl Way,SAN JOSE,CA,95125,1055000,3,1.0,SAN JOSE,1159,6344,1952,230,910,,Sold,,,http://www.redfin.com/CA/San-Jose/2153-Cheryl-Way-95125/home/1569004,MLSListings,ML81651935,N,Y,37.2867234,-121.9018154
PAST SALE,May-5-2017,Mobile/Manufactured Home,2600 Senter Rd #83,SAN JOSE,CA,95111,165000,2,1.0,SAN JOSE,728,,1984,270,227,,Sold,,,http://www.redfin.com/CA/San-Jose/2600-Senter-Rd-95111/unit-83/home/39910025,MLSListings,ML81634722,N,Y,37.3052149,-121.841491
PAST SALE,July-20-2017,Condo/Co-op,5622 Calmor Ave #4,SAN JOSE,CA,95123,410000,2,1.0,SAN JOSE,798,8073,1970,194,514,350,Sold,,,http://www.redfin.com/CA/San-Jose/5622-Calmor-Ave-95123/unit-4/home/999225,MLSListings,ML81667452,N,Y,37.2487273,-121.8513319
PAST SALE,September-28-2017,Condo/Co-op,1175 Foxchase Dr,SAN JOSE,CA,95123,521500,1,1.0,SAN JOSE,1021,,1984,124,511,458,Sold,,,http://www.redfin.com/CA/San-Jose/1175-Foxchase-Dr-95123/home/1478020,MLSListings,ML81674943,N,Y,37.253502,-121.873313
PAST SALE,May-31-2017,Condo/Co-op,181 Kenbrook Cir,SAN JOSE,CA,95111,373000,1,1.0,SAN JOSE,950,1272,1987,244,393,300,Sold,,,http://www.redfin.com/CA/San-Jose/181-Kenbrook-Cir-95111/home/1369105,MLSListings,ML81645384,N,Y,37.287582,-121.83984
PAST SALE,November-8-2017,Condo/Co-op,3220 Shadow Springs Pl,San Jose,CA,95121,425000,2,1.0,Santa Clara County,911,,1988,83,467,340,Sold,,,http://www.redfin.com/CA/San-Jose/3220-Shadow-Springs-Pl-95121/home/967574,BAREIS,21718132,N,Y,37.305332,-121.817772
PAST SALE,October-18-2017,Condo/Co-op,5252 Makati Cir,SAN JOSE,CA,95123,430000,1,1.0,SAN JOSE,744,1150,1985,104,578,389,Sold,,,http://www.redfin.com/CA/San-Jose/5252-Makati-Cir-95123/home/1219936,MLSListings,ML81677917,N,Y,37.249687,-121.806363
PAST SALE,October-31-2017,Single Family Residential,282 S Cragmont Ave,SAN JOSE,CA,95127,704000,2,1.0,SAN JOSE,872,8000,1948,91,807,,Sold,,,http://www.redfin.com/CA/San-Jose/282-S-Cragmont-Ave-95127/home/1539260,MLSListings,ML81679434,N,Y,37.3686324,-121.8165979
PAST SALE,,Single Family Residential,815 W San Carlos St,San Jose,CA,95126,537000,2,1.0,,816,3680,1920,,658,,,,,http://www.redfin.com/CA/San-Jose/815-W-San-Carlos-St-95126/home/707985,,,N,Y,37.3239883,-121.9055235
PAST SALE,September-21-2017,Single Family Residential,1322 San Juan Ave,SAN JOSE,CA,95110,803000,3,1.0,SAN JOSE,1113,5400,1948,131,721,,Sold,,,http://www.redfin.com/CA/San-Jose/1322-San-Juan-Ave-95110/home/765237,MLSListings,ML81674094,N,Y,37.3584005,-121.9129703
PAST SALE,,Condo/Co-op,1485 De Rose Way Apt 123,San Jose,CA,95126,300000,1,1.0,,826,,1977,,363,,,,,http://www.redfin.com/CA/San-Jose/1485-De-Rose-Way-95126/unit-123/home/729401,,,N,Y,37.305706,-121.920352
PAST SALE,,Single Family Residential,1354 Fremont St,San Jose,CA,95126,395000,2,1.0,,1124,5565,1910,,351,,,,,http://www.redfin.com/CA/San-Jose/1354-Fremont-St-95126/home/647589,,,N,Y,37.3320673,-121.92048
PAST SALE,November-10-2017,Single Family Residential,180 E Empire St,SAN JOSE,CA,95112,685000,2,1.0,SAN JOSE,780,3312,1915,81,878,,Sold,,,http://www.redfin.com/CA/San-Jose/180-E-Empire-St-95112/home/697644,MLSListings,ML81671900,N,Y,37.3464016,-121.8931134
PAST SALE,December-8-2017,Condo/Co-op,171 Monte Verano Ct,SAN JOSE,CA,95116,325000,1,1.0,SAN JOSE,597,1810,1988,53,544,333,Sold,,,http://www.redfin.com/CA/San-Jose/171-Monte-Verano-Ct-95116/home/2124692,MLSListings,ML81682882,N,Y,37.361712,-121.840305
PAST SALE,May-31-2017,Single Family Residential,982 Myrtle St,SAN JOSE,CA,95126,860000,2,1.0,SAN JOSE,881,5000,1940,244,976,,Sold,,,http://www.redfin.com/CA/San-Jose/982-Myrtle-St-95126/home/769933,MLSListings,ML81649980,N,Y,37.3436693,-121.9230107
PAST SALE,August-30-2017,Single Family Residential,14508 Nelson Way,SAN JOSE,CA,95124,1160000,3,1.0,SAN JOSE,1322,9875,1952,153,877,,Sold,,,http://www.redfin.com/CA/San-Jose/14508-Nelson-Way-95124/home/1235390,MLSListings,ML81674152,N,Y,37.2572452,-121.9224389
PAST SALE,September-22-2017,Single Family Residential,3376 Kirk Rd,SAN JOSE,CA,95124,920000,3,1.0,SAN JOSE,1280,6500,1962,130,719,,Sold,,,http://www.redfin.com/CA/San-Jose/3376-Kirk-Rd-95124/home/1428212,MLSListings,ML81671563,N,Y,37.265624,-121.9075137
PAST SALE,September-1-2017,Condo/Co-op,4619 Capay Dr #3,SAN JOSE,CA,95118,475000,2,1.0,SAN JOSE,903,7080,1970,151,526,319,Sold,,,http://www.redfin.com/CA/San-Jose/4619-Capay-Dr-95118/unit-3/home/1700467,MLSListings,ML81674100,N,Y,37.25918,-121.8895105
PAST SALE,August-16-2017,Single Family Residential,1703 Hogar Dr,SAN JOSE,CA,95124,835000,3,1.0,SAN JOSE,1060,5000,1954,167,788,,Sold,,,http://www.redfin.com/CA/San-Jose/1703-Hogar-Dr-95124/home/854181,MLSListings,ML81669132,N,Y,37.2691481,-121.9096412
PAST SALE,December-15-2017,Condo/Co-op,5520 Sean Cir #85,SAN JOSE,CA,95123,526000,2,1.0,SAN JOSE,997,3600,1979,46,528,395,Sold,,,http://www.redfin.com/CA/San-Jose/5520-Sean-Cir-95123/unit-85/home/961036,MLSListings,ML81683536,N,Y,37.253662,-121.829581
PAST SALE,September-12-2017,Condo/Co-op,2988 Grassina St #320,SAN JOSE,CA,95136,515000,1,1.0,SAN JOSE,888,2300,2006,140,580,367,Sold,,,http://www.redfin.com/CA/San-Jose/2988-Grassina-St-95136/unit-320/home/12180613,MLSListings,ML81673429,N,Y,37.286058,-121.860882
PAST SALE,August-31-2017,Multi-Family (2-4 Unit),649 S 10th St,SAN JOSE,CA,95112,1025000,6,,SAN JOSE,1344,6072,1915,152,763,,Sold,,,http://www.redfin.com/CA/San-Jose/649-S-10th-St-95112/home/1769287,MLSListings,ML81673859,N,Y,37.3307138,-121.8739838
PAST SALE,December-11-2017,Single Family Residential,19820 Graystone Ln,SAN JOSE,CA,95120,1336000,2,1.0,SAN JOSE,1032,65923,1945,50,1295,,Sold,,,http://www.redfin.com/CA/San-Jose/19820-Graystone-Ln-95120/home/1003258,MLSListings,ML81686831,N,Y,37.2225195,-121.8355636
PAST SALE,December-29-2017,Single Family Residential,1526 Primm Ave,SAN JOSE,CA,95122,565000,3,1.0,SAN JOSE,960,5555,1959,32,589,,Sold,,,http://www.redfin.com/CA/San-Jose/1526-Primm-Ave-95122/home/1458875,MLSListings,ML81682978,N,Y,37.3332262,-121.8410307
PAST SALE,July-3-2017,Single Family Residential,148 N Claremont Ave,SAN JOSE,CA,95127,675000,3,1.0,SAN JOSE,1208,6102,1947,211,559,,Sold,,,http://www.redfin.com/CA/San-Jose/148-N-Claremont-Ave-95127/home/1570277,MLSListings,ML81654623,N,Y,37.374588,-121.8262442
PAST SALE,,Single Family Residential,1016 Spencer Ave,San Jose,CA,95125,225000,2,1.0,,805,5760,1948,,280,,,,,http://www.redfin.com/CA/San-Jose/1016-Spencer-Ave-95125/home/1764889,,,N,Y,37.3143072,-121.8919016
PAST SALE,April-3-2017,Single Family Residential,995 California Ave,SAN JOSE,CA,95125,950000,3,1.0,SAN JOSE,1452,6000,1930,302,654,,Sold,,,http://www.redfin.com/CA/San-Jose/995-California-Ave-95125/home/1596304,MLSListings,ML81645052,N,Y,37.3034605,-121.8937902
PAST SALE,May-18-2017,Condo/Co-op,951 S 12th St #117,SAN JOSE,CA,95112,417000,1,1.0,SAN JOSE,871,,1996,257,479,403,Sold,,,http://www.redfin.com/CA/San-Jose/951-S-12th-St-95112/unit-117/home/1478465,MLSListings,ML81645876,N,Y,37.327056,-121.868349
PAST SALE,March-30-2017,Condo/Co-op,5659 Playa Del Rey #2,SAN JOSE,CA,95123,400000,2,1.0,SAN JOSE,903,9375,1970,306,443,350,Sold,,,http://www.redfin.com/CA/San-Jose/5659-Playa-Del-Rey-95123/unit-2/home/1640128,MLSListings,ML81641626,N,Y,37.2487935,-121.854152
PAST SALE,June-28-2017,Single Family Residential,1401 Chiplay Dr,SAN JOSE,CA,95122,620000,4,1.0,SAN JOSE,1428,5400,1959,216,434,,Sold,,,http://www.redfin.com/CA/San-Jose/1401-Chiplay-Dr-95122/home/637400,MLSListings,ML81645139,N,Y,37.3362756,-121.8375421
PAST SALE,September-14-2017,Condo/Co-op,5506 Sean Cir #112,SAN JOSE,CA,95123,481500,2,1.0,SAN JOSE,997,3600,1979,138,483,393,Sold,,,http://www.redfin.com/CA/San-Jose/5506-Sean-Cir-95123/unit-112/home/143393634,MLSListings,ML81674323,N,Y,37.252952,-121.828969
PAST SALE,April-6-2017,Condo/Co-op,1042 Summermist Ct #107,SAN JOSE,CA,95122,407000,2,1.0,SAN JOSE,953,871,1985,299,427,372,Sold,,,http://www.redfin.com/CA/San-Jose/1042-Summermist-Ct-95122/unit-107/home/571760,MLSListings,ML81638712,N,Y,37.3191119,-121.842083
PAST SALE,September-15-2017,Mobile/Manufactured Home,3300 Narvaez Ave #43,SAN JOSE,CA,95136,112000,2,1.0,SAN JOSE,840,,1968,137,133,,Sold,,,http://www.redfin.com/CA/San-Jose/3300-Narvaez-Ave-95136/unit-43/home/143725732,MLSListings,ML81671226,N,Y,37.2771707,-121.8608194
PAST SALE,September-27-2017,Townhouse,533 Cinnamon Dr,SAN JOSE,CA,95111,350000,2,1.0,SAN JOSE,801,1564,1969,125,437,288,Sold,,,http://www.redfin.com/CA/San-Jose/533-Cinnamon-Dr-95111/home/1204211,MLSListings,ML81674442,N,Y,37.288028,-121.830556
PAST SALE,October-10-2017,Condo/Co-op,2904 La Terrace Cir,San Jose,CA,95123-5313,580000,2,1.0,Lakeview,904,435,1985,112,642,433,Sold,,,http://www.redfin.com/CA/San-Jose/2904-La-Terrace-Cir-95123/home/1437205,EBRD/CCAR/Bay East,40796435,N,Y,37.242163,-121.867023
PAST SALE,September-1-2017,Single Family Residential,96 Pala Ave,SAN JOSE,CA,95127,625000,3,1.0,SAN JOSE,1044,6000,1948,151,599,,Sold,,,http://www.redfin.com/CA/San-Jose/96-Pala-Ave-95127/home/1717734,MLSListings,ML81671768,N,Y,37.3660896,-121.8370934
PAST SALE,November-3-2017,Condo/Co-op,5461 Tradewinds Ww #4,SAN JOSE,CA,95123,385000,2,1.0,SAN JOSE,798,1750,1970,88,482,309,Sold,,,http://www.redfin.com/CA/SAN-JOSE/5461-TRADEWINDS-WW-95123/unit-4/home/991210,MLSListings,ML81681117,N,Y,37.2374847,-121.8277925
PAST SALE,December-6-2017,Condo/Co-op,5485 Judith St #2,SAN JOSE,CA,95123,475000,2,1.0,SAN JOSE,903,1750,1970,55,526,309,Sold,,,http://www.redfin.com/CA/San-Jose/5485-Judith-St-95123/unit-2/home/1484270,MLSListings,ML81684112,N,Y,37.2550366,-121.8262031
PAST SALE,December-29-2017,Condo/Co-op,5568 Spinnaker Dr #4,San Jose,CA,95123,415000,2,1.0,San Jose,798,1750,1970,32,520,62,Sold,,,http://www.redfin.com/CA/San-Jose/5568-Spinnaker-Dr-95123/unit-4/home/1484137,CRMLS,FR17244564,N,Y,37.2521048,-121.8239004
PAST SALE,October-20-2017,Single Family Residential,109 Decker Way,SAN JOSE,CA,95127,695000,3,1.0,SAN JOSE,1235,6768,1953,102,563,,Sold,,,http://www.redfin.com/CA/San-Jose/109-Decker-Way-95127/home/1298580,MLSListings,ML81673264,N,Y,37.3745149,-121.8252545
PAST SALE,September-21-2017,Condo/Co-op,869 GILCHRIST Walk #4,SAN JOSE,CA,95133,420000,2,1.0,SAN JOSE,798,1500,1971,131,526,301,Sold,,,http://www.redfin.com/CA/San-Jose/869-GILCHRIST-WW-95133/unit-00004/home/113797952,MLSListings,ML81674627,N,Y,37.3716914,-121.8619539
PAST SALE,December-5-2017,Single Family Residential,36 Marian Ln,SAN JOSE,CA,95127,675000,3,1.0,SAN JOSE,1357,7192,1947,56,497,,Sold,,,http://www.redfin.com/CA/San-Jose/36-Marian-Ln-95127/home/1447916,MLSListings,ML81673666,N,Y,37.3707396,-121.8255621
PAST SALE,November-27-2017,Condo/Co-op,1492 Four Oaks Cir,SAN JOSE,CA,95131,400000,1,1.0,SAN JOSE,676,,1986,64,592,421,Sold,,,http://www.redfin.com/CA/San-Jose/1492-4-Oaks-Cir-95131/home/1591920,MLSListings,ML81681888,N,Y,37.39192,-121.872202
PAST SALE,October-17-2017,Condo/Co-op,5235 Cribari Hls,SAN JOSE,CA,95135,450000,2,1.0,SAN JOSE,947,1326,1970,105,475,569,Sold,,,http://www.redfin.com/CA/San-Jose/5235-Cribari-Hills-95135/home/1648984,MLSListings,ML81672911,N,Y,37.297287,-121.754583
PAST SALE,,Single Family Residential,1878 Jonathan Ave,San Jose,CA,95125,1250000,3,1.0,,1378,6528,1948,,907,,,,,http://www.redfin.com/CA/San-Jose/1878-Jonathan-Ave-95125/home/1185226,,,N,Y,37.2985645,-121.8865188
PAST SALE,,Single Family Residential,927 Meridian Ave,San Jose,CA,95126,950000,2,1.0,,860,7050,1925,,1105,,,,,http://www.redfin.com/CA/San-Jose/927-Meridian-Ave-95126/home/710998,,,N,Y,37.3095477,-121.913948
PAST SALE,,Single Family Residential,923 Meridian Ave,San Jose,CA,95126,1900000,2,1.0,,1333,14000,1925,,1425,,,,,http://www.redfin.com/CA/San-Jose/923-Meridian-Ave-95126/home/21840244,,,N,Y,37.3097,-121.9142941
PAST SALE,December-27-2017,Condo/Co-op,1534 Alma Ter,SAN JOSE,CA,95125,551000,1,1.0,SAN JOSE,784,617,1984,34,703,320,Sold,,,http://www.redfin.com/CA/San-Jose/1534-Alma-Ter-95125/home/845137,MLSListings,ML81686771,N,Y,37.307922,-121.885131
PAST SALE,May-10-2017,Condo/Co-op,850 Bucks Lake Ct,SAN JOSE,CA,95123,492000,1,1.0,SAN JOSE,734,870,1995,265,670,315,Sold,,,http://www.redfin.com/CA/San-Jose/850-Buck-Lake-Ct-95123/home/1492320,MLSListings,ML81645180,N,Y,37.242933,-121.865473
PAST SALE,January-19-2018,Single Family Residential,1034 Spencer Ave,SAN JOSE,CA,95125,1020000,3,1.0,SAN JOSE,1284,4620,1933,11,794,,Sold,,,http://www.redfin.com/CA/San-Jose/1034-Spencer-Ave-95125/home/1634492,MLSListings,ML81685268,N,Y,37.3137388,-121.8919193
PAST SALE,January-24-2018,Condo/Co-op,3327 Shadow Park Pl,SAN JOSE,CA,95121,425000,2,1.0,SAN JOSE,888,435,1988,6,479,340,Sold,,,http://www.redfin.com/CA/San-Jose/3327-Shadow-Park-Pl-95121/home/1080048,MLSListings,ML81683675,N,Y,37.304981,-121.816579
PAST SALE,November-28-2017,Single Family Residential,941 Jansen Ave,SAN JOSE,CA,95125,1327000,2,1.0,SAN JOSE,1233,5712,1931,63,1076,,Sold,,,http://www.redfin.com/CA/San-Jose/941-Jansen-Ave-95125/home/1357562,MLSListings,ML81682876,N,Y,37.3035285,-121.8925382
PAST SALE,September-20-2017,Condo/Co-op,5961 Lake Hennessy Ct,SAN JOSE,CA,95123,497000,1,1.0,SAN JOSE,734,870,1995,132,677,324,Sold,,,http://www.redfin.com/CA/San-Jose/5961-Lake-Hennessy-Ct-95123/home/1002223,MLSListings,ML81676443,N,Y,37.243209,-121.864937
PAST SALE,,Single Family Residential,1708 Hogar Dr,San Jose,CA,95124,830000,3,1.0,,1060,5000,1954,,783,,,,,http://www.redfin.com/CA/San-Jose/1708-Hogar-Dr-95124/home/1505496,,,N,Y,37.2686788,-121.9098156
PAST SALE,October-24-2017,Condo/Co-op,3503 La Terrace Cir,SAN JOSE,CA,95123,400000,1,1.0,SAN JOSE,543,,1985,98,737,433,Sold,,,http://www.redfin.com/CA/San-Jose/3503-La-Terrace-Cir-95123/home/1157250,MLSListings,ML81675875,N,Y,37.24129,-121.867961
PAST SALE,December-5-2017,Single Family Residential,1469 Hillsdale Ave,SAN JOSE,CA,95118,900000,3,1.0,SAN JOSE,1088,5322,1957,56,827,,Sold,,,http://www.redfin.com/CA/San-Jose/1469-Hillsdale-Ave-95118/home/1267563,MLSListings,ML81686388,N,Y,37.2718115,-121.8932531
PAST SALE,December-15-2017,Single Family Residential,1671 York St,SAN JOSE,CA,95124,1115000,3,1.0,SAN JOSE,1280,5400,1962,46,871,,Sold,,,http://www.redfin.com/CA/San-Jose/1671-York-St-95124/home/1660866,MLSListings,ML81685041,N,Y,37.2656665,-121.9071932
PAST SALE,November-20-2017,Single Family Residential,1603 Hillsdale Ave,SAN JOSE,CA,95118,870000,4,1.0,SAN JOSE,1140,5890,1953,71,763,,Sold,,,http://www.redfin.com/CA/San-Jose/1603-Hillsdale-Ave-95118/home/985154,MLSListings,ML81682327,N,Y,37.268703,-121.9027797
PAST SALE,January-15-2018,Condo/Co-op,3242 Kimber Ct #46,SAN JOSE,CA,95124,615000,2,1.0,SAN JOSE,886,972,1977,15,694,331,Sold,,,http://www.redfin.com/CA/San-Jose/3242-Kimber-Ct-95124/unit-46/home/1419200,MLSListings,ML81686521,N,Y,37.264988,-121.921774
PAST SALE,July-3-2017,Condo/Co-op,45 Hobson St Unit 6B,SAN JOSE,CA,95110,520000,2,1.0,SAN JOSE,907,1224,1986,211,573,314,Sold,,,http://www.redfin.com/CA/San-Jose/45-Hobson-St-95110/unit-6B/home/1176457,MLSListings,ML81650418,N,Y,37.3466043,-121.8996073
PAST SALE,September-18-2017,Single Family Residential,144 Martha St,SAN JOSE,CA,95112,700000,2,1.0,SAN JOSE,768,6345,1918,134,911,,Sold,,,http://www.redfin.com/CA/San-Jose/144-Martha-St-95112/home/1267936,MLSListings,ML81674639,N,Y,37.3237974,-121.8774828
PAST SALE,May-16-2017,Condo/Co-op,1550 Technology Dr #2089,SAN JOSE,CA,95110,498800,1,1.0,SAN JOSE,831,831,2005,259,600,419,Sold,,,http://www.redfin.com/CA/San-Jose/1550-Technology-Dr-95110/unit-2089/home/2123299,MLSListings,ML81648320,N,Y,37.3635149,-121.9139854
PAST SALE,May-12-2017,Condo/Co-op,1 E Julian St #113,SAN JOSE,CA,95112,425500,1,1.0,SAN JOSE,547,,2008,263,778,372,Sold,,,http://www.redfin.com/CA/San-Jose/1-E-Julian-St-95112/unit-113/home/17138564,MLSListings,ML81644736,N,Y,37.3410524,-121.8938034
PAST SALE,August-18-2017,Single Family Residential,895 Myrtle St,SAN JOSE,CA,95126,765000,2,1.0,SAN JOSE,983,4650,1935,165,778,,Sold,,,http://www.redfin.com/CA/San-Jose/895-Myrtle-St-95126/home/1200077,MLSListings,ML81674596,N,Y,37.3416225,-121.9214291
PAST SALE,August-18-2017,Single Family Residential,183 Acacia St,SAN JOSE,CA,95110,702000,2,1.0,SAN JOSE,1024,3645,1918,165,686,,Sold,,,http://www.redfin.com/CA/San-Jose/183-Acacia-St-95110/home/623215,MLSListings,ML81670608,N,Y,37.3458507,-121.9022634
PAST SALE,August-25-2017,Single Family Residential,324 N 18th St,SAN JOSE,CA,95112,740000,2,1.0,SAN JOSE,864,6250,1920,158,856,,Sold,,,http://www.redfin.com/CA/San-Jose/324-N-18th-St-95112/home/1424408,MLSListings,ML81672142,N,Y,37.3494458,-121.8770186
PAST SALE,,Single Family Residential,215 N 11th St,San Jose,CA,95112,635000,2,1.0,,1056,8832,1949,,601,,,,,http://www.redfin.com/CA/San-Jose/215-N-11th-St-95112/home/1597210,,,N,Y,37.3444751,-121.8827459
PAST SALE,September-26-2017,Condo/Co-op,411 Park Ave #213,SAN JOSE,CA,95110,525000,1,1.0,SAN JOSE,816,,1987,126,643,395,Sold,,,http://www.redfin.com/CA/San-Jose/411-Park-Ave-95110/unit-213/home/1548641,MLSListings,ML81674465,N,Y,37.3286844,-121.8970633
PAST SALE,,Single Family Residential,1369 Shortridge Ave,San Jose,CA,95116,628000,3,1.0,,884,5480,1930,,710,,,,,http://www.redfin.com/CA/San-Jose/1369-Shortridge-Ave-95116/home/695009,,,N,Y,37.3481615,-121.8634086
PAST SALE,October-17-2017,Condo/Co-op,38 N Almaden Blvd #1508,SAN JOSE,CA,95110,665000,1,1.0,SAN JOSE,791,164,2008,105,841,495,Sold,,,http://www.redfin.com/CA/San-Jose/38-N-Almaden-Blvd-95110/unit-1508/home/17291314,MLSListings,ML81670591,N,Y,37.3348273,-121.8957794
PAST SALE,,Single Family Residential,271 S 24th St,San Jose,CA,95116,212500,2,1.0,,832,4810,1926,,255,,,,,http://www.redfin.com/CA/San-Jose/271-S-24th-St-95116/home/1806921,,,N,Y,37.342684,-121.8637961
PAST SALE,January-2-2018,Condo/Co-op,38 N Almaden Blvd #309,SAN JOSE,CA,95110,715000,1,1.0,SAN JOSE,925,21192,2008,28,773,504,Sold,,,http://www.redfin.com/CA/San-Jose/38-N-Almaden-Blvd-95110/unit-309/home/17289272,MLSListings,ML81686691,N,Y,37.3348273,-121.8957794
PAST SALE,November-20-2017,Single Family Residential,1011 E Empire St,SAN JOSE,CA,95112,610000,1,1.0,SAN JOSE,440,5250,1928,71,1386,,Sold,,,http://www.redfin.com/CA/San-Jose/1011-E-Empire-St-95112/home/1104123,MLSListings,ML81683544,N,Y,37.3546826,-121.8766649
PAST SALE,December-15-2017,Single Family Residential,1568 Minnesota Ave,SAN JOSE,CA,95125,1270000,2,1.0,SAN JOSE,864,7644,1945,46,1470,,Sold,,,http://www.redfin.com/CA/San-Jose/1568-Minnesota-Ave-95125/home/1596307,MLSListings,ML81677387,N,Y,37.3008393,-121.9124153
PAST SALE,November-14-2017,Single Family Residential,3761 Meridian Ave,SAN JOSE,CA,95124,885014,2,1.0,SAN JOSE,1105,6000,1963,77,801,,Sold,,,http://www.redfin.com/CA/San-Jose/3761-Meridian-Ave-95124/home/1831955,MLSListings,ML81680379,N,Y,37.2637589,-121.9030327
PAST SALE,,Single Family Residential,2311 Pleasant Acres Dr,San Jose,CA,95148,53000,2,1.0,,480,93572,1949,,110,,,,,http://www.redfin.com/CA/San-Jose/2311-Pleasant-Acres-Dr-95148/home/1311806,,,N,Y,37.344612,-121.787505
PAST SALE,,Single Family Residential,2020 James Pl,San Jose,CA,95125,1287500,3,1.0,,1473,9875,1953,,874,,,,,http://www.redfin.com/CA/San-Jose/2020-James-Pl-95125/home/1123781,,,N,Y,37.2866299,-121.9069079
PAST SALE,,Single Family Residential,7019 Heaton Moor Dr,San Jose,CA,95119,610000,2,1.0,,816,6000,1972,,748,,,,,http://www.redfin.com/CA/San-Jose/7019-Heaton-Moor-Dr-95119/home/1320314,,,N,Y,37.22134,-121.784906
PAST SALE,September-8-2017,Condo/Co-op,38 N Almaden Blvd #505,SAN JOSE,CA,95110,635000,1,1.0,SAN JOSE,956,164,2008,144,664,516,Sold,,,http://www.redfin.com/CA/San-Jose/38-N-Almaden-Blvd-95110/unit-505/home/17288130,MLSListings,ML81642497,N,Y,37.3348273,-121.8957794
PAST SALE,March-17-2017,Single Family Residential,3161 Quinto Way,SAN JOSE,CA,95124,808000,3,1.0,SAN JOSE,1060,5300,1954,319,762,,Sold,,,http://www.redfin.com/CA/San-Jose/3161-Quinto-Way-95124/home/1067336,MLSListings,ML81640029,N,Y,37.26683,-121.9141371
PAST SALE,,Single Family Residential,1876 Pandora Dr,San Jose,CA,95124,780000,3,1.0,,930,5700,1952,,839,,,,,http://www.redfin.com/CA/San-Jose/1876-Pandora-Dr-95124/home/1445442,,,N,Y,37.2701773,-121.9227458
PAST SALE,June-23-2017,Single Family Residential,3521 Blossomview Dr,SAN JOSE,CA,95118,895000,3,1.0,SAN JOSE,960,6630,1958,221,932,,Sold,,,http://www.redfin.com/CA/San-Jose/3521-Blossomview-Dr-95118/home/627001,MLSListings,ML81652747,N,Y,37.267368,-121.894739
PAST SALE,August-14-2017,Condo/Co-op,3198 Kimber Ct #94,SAN JOSE,CA,95124,530000,2,1.0,SAN JOSE,886,1148,1977,169,598,331,Sold,,,http://www.redfin.com/CA/San-Jose/3198-Kimber-Ct-95124/unit-94/home/834920,MLSListings,ML81669680,N,Y,37.265636,-121.920441
PAST SALE,July-5-2017,Condo/Co-op,1292 Bouret Dr #4,SAN JOSE,CA,95118,420000,2,1.0,SAN JOSE,798,7080,1970,209,526,319,Sold,,,http://www.redfin.com/CA/San-Jose/1292-Bouret-Dr-95118/unit-4/home/999801,MLSListings,ML81653450,N,Y,37.2572899,-121.8858649
PAST SALE,January-3-2018,Single Family Residential,1260 Capitol Ct,SAN JOSE,CA,95127,675000,3,1.0,SAN JOSE,1365,7652,1955,27,495,,Sold,,,http://www.redfin.com/CA/San-Jose/1260-Capitol-Ct-95127/home/893399,MLSListings,ML81686077,N,Y,37.3486692,-121.8249189
PAST SALE,,Single Family Residential,2211 Barlow Ave,San Jose,CA,95122,310000,3,1.0,,910,5000,1962,,341,,,,,http://www.redfin.com/CA/San-Jose/2211-Barlow-Ave-95122/home/892490,,,N,Y,37.3425037,-121.8302701
PAST SALE,August-31-2017,Mobile/Manufactured Home,661 Bonita Ave,SAN JOSE,CA,95116,147000,2,1.0,SAN JOSE,672,,1974,152,219,,Sold,,,http://www.redfin.com/CA/San-Jose/661-Bonita-Ave-95116/home/874037,MLSListings,ML81649794,N,Y,37.3410904,-121.8555352
PAST SALE,August-9-2017,Condo/Co-op,1058 Tekman Dr #1058,SAN JOSE,CA,95122,335000,1,1.0,SAN JOSE,648,648,1984,174,517,300,Sold,,,http://www.redfin.com/CA/San-Jose/1058-Tekman-Dr-95122/unit-1058/home/142168121,MLSListings,ML81669597,N,Y,37.315665,-121.8384
PAST SALE,September-25-2017,Single Family Residential,3336 Mount Wilson Dr,SAN JOSE,CA,95127,640000,2,1.0,SAN JOSE,800,5000,1960,127,800,,Sold,,,http://www.redfin.com/CA/San-Jose/3336-Mount-Wilson-Dr-95127/home/950495,MLSListings,ML81674240,N,Y,37.3543709,-121.8072388
PAST SALE,October-10-2017,Condo/Co-op,2261 Summerton Dr #32,SAN JOSE,CA,95122,410500,1,1.0,SAN JOSE,746,871,1985,112,550,389,Sold,,,http://www.redfin.com/CA/San-Jose/2261-Summerton-Dr-95122/unit-32/home/1479834,MLSListings,ML81677215,N,Y,37.319239,-121.841136
PAST SALE,February-28-2017,Single Family Residential,739 Toyon Ave,SAN JOSE,CA,95127,648000,3,1.0,SAN JOSE,1027,5978,1952,336,631,,Sold,,,http://www.redfin.com/CA/San-Jose/739-Toyon-Ave-95127/home/1570229,MLSListings,ML81636176,N,Y,37.3882408,-121.8315177
PAST SALE,October-23-2017,Single Family Residential,10081 Bedford St,SAN JOSE,CA,95127,610000,3,1.0,SAN JOSE,1024,4992,1953,99,596,,Sold,,,http://www.redfin.com/CA/San-Jose/10081-Bedford-St-95127/home/947637,MLSListings,ML81676396,N,Y,37.3584848,-121.8178209
PAST SALE,,Single Family Residential,2715 Sussex Dr,San Jose,CA,95127,50000,3,1.0,,960,5160,1955,,52,,,,,http://www.redfin.com/CA/San-Jose/2715-Sussex-Dr-95127/home/1219481,,,N,Y,37.3499049,-121.8255041
PAST SALE,November-6-2017,Condo/Co-op,1370 Crucero Dr Unit D,SAN JOSE,CA,95122,415000,2,1.0,SAN JOSE,876,1200,1980,85,474,331,Sold,,,http://www.redfin.com/CA/San-Jose/1370-Crucero-Dr-95122/unit-D/home/880242,MLSListings,ML81679420,N,Y,37.331528,-121.845144
PAST SALE,December-22-2017,Condo/Co-op,5940 Bridgeport Lake Way,SAN JOSE,CA,95123,505000,1,1.0,SAN JOSE,716,646,1988,39,705,315,Sold,,,http://www.redfin.com/CA/San-Jose/5940-Bridgeport-Lake-Way-95123/home/1287960,MLSListings,ML81686158,N,Y,37.243725,-121.868113
PAST SALE,,Single Family Residential,1866 S Capitol Ave,San Jose,CA,95127,126682,3,1.0,,1088,5500,1972,,116,,,,,http://www.redfin.com/CA/San-Jose/1866-S-Capitol-Ave-95127/home/850358,,,N,Y,37.3425665,-121.8175699
PAST SALE,,Single Family Residential,2104 Quimby Rd,San Jose,CA,95122,300000,4,1.0,,1392,9400,1961,,216,,,,,http://www.redfin.com/CA/San-Jose/2104-Quimby-Rd-95122/home/1640175,,,N,Y,37.3223191,-121.8157803
PAST SALE,,Single Family Residential,10044 Clayton Rd,San Jose,CA,95127,223000,3,1.0,,2028,12500,1954,,110,,,,,http://www.redfin.com/CA/San-Jose/10044-Clayton-Rd-95127/home/1824491,,,N,Y,37.3606141,-121.8113317
PAST SALE,,Single Family Residential,710 McLaughlin Ave,San Jose,CA,95116,75000,3,1.0,,1083,7500,1954,,69,,,,,http://www.redfin.com/CA/San-Jose/710-McLaughlin-Ave-95116/home/1428721,,,N,Y,37.3385065,-121.8589848
PAST SALE,January-29-2018,Single Family Residential,10314 Chrisland Ct,SAN JOSE,CA,95127,650000,3,1.0,SAN JOSE,992,9906,1951,1,655,,Sold,,,http://www.redfin.com/CA/San-Jose/10314-Chrisland-Ct-95127/home/1286228,MLSListings,ML81687370,N,Y,37.3634248,-121.8173531
PAST SALE,,Single Family Residential,10270 Ashdale Dr,San Jose,CA,95127,280000,2,1.0,,797,5600,1952,,351,,,,,http://www.redfin.com/CA/San-Jose/10270-Ashdale-Dr-95127/home/1583665,,,N,Y,37.3648546,-121.8140237
PAST SALE,June-28-2017,Condo/Co-op,5394 Colony Park Cir,SAN JOSE,CA,95123,555000,2,1.0,SAN JOSE,942,435,1984,216,589,346,Sold,,,http://www.redfin.com/CA/San-Jose/5394-Colony-Park-Cir-95123/home/870716,MLSListings,ML81653743,N,Y,37.25733,-121.842323
PAST SALE,September-15-2017,Single Family Residential,11835 Redmond Ave,SAN JOSE,CA,95120,1183750,3,1.0,SAN JOSE,1447,13213,1940,137,818,,Sold,,,http://www.redfin.com/CA/San-Jose/11835-Redmond-Ave-95120/home/928759,MLSListings,ML81669403,N,Y,37.2295969,-121.8740878
PAST SALE,March-15-2017,Condo/Co-op,761 Warring Dr #1,San Jose,CA,95123,395000,2,1.0,Santa Clara County,810,8385,1970,321,488,350,Sold,,,http://www.redfin.com/CA/San-Jose/761-Warring-Dr-95123/unit-1/home/1362500,BAREIS,21702137,N,Y,37.2486645,-121.8529296
PAST SALE,June-5-2017,Condo/Co-op,2240 Galveston Ave Unit B,SAN JOSE,CA,95122,432000,2,1.0,SAN JOSE,885,1012,1979,239,488,321,Sold,,,http://www.redfin.com/CA/San-Jose/2240-Galveston-Ave-95122/unit-B/home/1186242,MLSListings,ML81648721,N,Y,37.312772,-121.842871
PAST SALE,August-23-2017,Condo/Co-op,5461 Tradewinds Walkway #2,SAN JOSE,CA,95123,424000,2,1.0,SAN JOSE,903,1750,1970,160,470,308,Sold,,,http://www.redfin.com/CA/San-Jose/5461-Tradewinds-Walkway-95123/unit-2/home/1796125,MLSListings,ML81668098,N,Y,37.2548593,-121.825022
PAST SALE,June-23-2017,Single Family Residential,456 Hull Ave,SAN JOSE,CA,95125,950000,2,1.0,SAN JOSE,1121,8100,1915,221,847,,Sold,,,http://www.redfin.com/CA/San-Jose/456-Hull-Ave-95125/home/1176591,MLSListings,ML81653714,N,Y,37.3167886,-121.8945348
PAST SALE,August-11-2017,Townhouse,1362 Branham Ln #3,SAN JOSE,CA,95118,440000,2,1.0,SAN JOSE,903,7080,1970,172,487,319,Sold,,,http://www.redfin.com/CA/San-Jose/1362-Branham-Ln-95118/unit-3/home/924064,MLSListings,ML81656441,N,Y,37.259884,-121.8873248
PAST SALE,November-3-2017,Condo/Co-op,1325 Joplin Dr #1,SAN JOSE,CA,95118,490000,2,1.0,SAN JOSE,810,7080,1970,88,605,319,Sold,,,http://www.redfin.com/CA/San-Jose/1325-Joplin-Dr-95118/unit-1/home/1406211,MLSListings,ML81680676,N,Y,37.2590094,-121.8858399
PAST SALE,November-1-2017,Condo/Co-op,38 N Almaden Blvd #416,SAN JOSE,CA,95110,655000,1,1.0,SAN JOSE,953,164,2008,90,687,507,Sold,,,http://www.redfin.com/CA/San-Jose/38-N-Almaden-Blvd-95110/unit-416/home/17288133,MLSListings,ML81679627,N,Y,37.3348273,-121.8957794
PAST SALE,November-1-2017,Single Family Residential,453 N 10th St,SAN JOSE,CA,95112,680000,2,1.0,SAN JOSE,880,5382,1915,90,773,,Sold,,,http://www.redfin.com/CA/San-Jose/453-N-10th-St-95112/home/881372,MLSListings,ML81682418,N,Y,37.3482466,-121.887
PAST SALE,September-29-2017,Condo/Co-op,88 Bush St #1152,SAN JOSE,CA,95126,711000,1,1.0,SAN JOSE,859,476,2008,123,828,410,Sold,,,http://www.redfin.com/CA/San-Jose/88-Bush-St-95126/unit-1152/home/17288649,MLSListings,ML81675229,N,Y,37.3300734,-121.9044474
PAST SALE,September-19-2017,Condo/Co-op,5513 Judith St #1,SAN JOSE,CA,95123,416000,2,1.0,SAN JOSE,810,1750,1970,133,514,295,Sold,,,http://www.redfin.com/CA/San-Jose/5513-Judith-St-95123/unit-1/home/1631515,MLSListings,ML81671650,N,Y,37.2533449,-121.8261913
PAST SALE,,Condo/Co-op,88 N Jackson Ave Unit 108,San Jose,CA,95116,345000,1,1.0,,720,,2006,,479,,,,,http://www.redfin.com/CA/San-Jose/88-N-Jackson-Ave-95116/unit-108/home/2124701,,,N,Y,37.3610855,-121.8457248
PAST SALE,April-7-2017,Single Family Residential,10190 Kenilworth Way,SAN JOSE,CA,95127,560000,3,1.0,SAN JOSE,1024,4992,1953,298,547,,Sold,,,http://www.redfin.com/CA/San-Jose/10190-Kenilworth-Way-95127/home/1475546,MLSListings,ML81640679,N,Y,37.3573094,-121.8221992
PAST SALE,May-15-2017,Condo/Co-op,3014 La Terrace Cir,SAN JOSE,CA,95123,410000,1,1.0,SAN JOSE,650,,1985,260,631,433,Sold,,,http://www.redfin.com/CA/San-Jose/3014-La-Terrace-Cir-95123/home/1585134,MLSListings,ML81644407,N,Y,37.242343,-121.867529
PAST SALE,May-5-2017,Condo/Co-op,403 Colony Cove Dr,SAN JOSE,CA,95123,530000,2,1.0,SAN JOSE,942,435,1984,270,563,345,Sold,,,http://www.redfin.com/CA/San-Jose/403-Colony-Cove-Dr-95123/home/871437,MLSListings,ML81644857,N,Y,37.2555183,-121.8411563
PAST SALE,April-24-2017,Single Family Residential,88 Melrose Ave,SAN JOSE,CA,95116,579500,2,1.0,SAN JOSE,840,5250,1948,281,690,,Sold,,,http://www.redfin.com/CA/San-Jose/88-Melrose-Ave-95116/home/1717534,MLSListings,ML81641834,N,Y,37.3549706,-121.8562808
PAST SALE,June-23-2017,Condo/Co-op,1343 Shawn Dr #4,SAN JOSE,CA,95118,417500,2,1.0,SAN JOSE,798,7080,1970,221,523,319,Sold,,,http://www.redfin.com/CA/San-Jose/1343-Shawn-Dr-95118/unit-4/home/1497005,MLSListings,ML81652297,N,Y,37.2596324,-121.8867944
PAST SALE,September-25-2017,Condo/Co-op,1060 S 3rd St #249,SAN JOSE,CA,95112,400000,1,1.0,SAN JOSE,667,750,2005,127,600,399,Sold,,,http://www.redfin.com/CA/San-Jose/1060-S-3rd-St-95112/unit-249/home/2124560,MLSListings,ML81674468,N,Y,37.321645,-121.8766544
PAST SALE,August-2-2017,Single Family Residential,547 MCLAUGHLIN Ave,SAN JOSE,CA,95116,625000,2,1.0,SAN JOSE,1110,9000,1953,181,563,,Sold,,,http://www.redfin.com/CA/San-Jose/McLaughlin-Ave-95116/home/875476,MLSListings,ML81644107,N,Y,37.33959,-121.8608352
PAST SALE,July-14-2017,Townhouse,333 Blossom Hill Rd #2,SAN JOSE,CA,95123,389000,2,1.0,SAN JOSE,903,76230000,1970,200,431,295,Sold,,,http://www.redfin.com/CA/San-Jose/333-Blossom-Hill-Rd-95123/unit-2/home/1749640,MLSListings,ML81653395,N,Y,37.2517383,-121.8232679
PAST SALE,,Single Family Residential,187 George St,San Jose,CA,95110,237500,2,1.0,,928,6302,1948,,256,,,,,http://www.redfin.com/CA/San-Jose/187-George-St-95110/home/782660,,,N,Y,37.3463843,-121.9028402
PAST SALE,August-25-2017,Mobile/Manufactured Home,2150 Almaden Rd #105,SAN JOSE,CA,95125,97000,2,1.0,SAN JOSE,721,,1972,158,135,,Sold,,,http://www.redfin.com/CA/San-Jose/2150-Almaden-Rd-95125/unit-105/home/21855242,MLSListings,ML81653922,N,Y,37.2948324,-121.8782353
PAST SALE,May-30-2017,Condo/Co-op,546 Chiechi Ave,SAN JOSE,CA,95126,380000,2,1.0,SAN JOSE,912,,1988,245,417,325,Sold,,,http://www.redfin.com/CA/San-Jose/Chiechi-Ave-95126/home/1279840,MLSListings,ML81638892,N,Y,37.3187799,-121.915845
PAST SALE,,Condo/Co-op,259 N Capitol Ave Unit 132,San Jose,CA,95127,326000,1,1.0,,828,,1977,,394,,,,,http://www.redfin.com/CA/San-Jose/259-N-Capitol-Ave-95127/unit-132/home/1691018,,,N,Y,37.3686787,-121.8422041
PAST SALE,September-26-2017,Single Family Residential,3435 Youngs Cir,SAN JOSE,CA,95127,630000,3,1.0,SAN JOSE,936,3710,1974,126,673,120,Sold,,,http://www.redfin.com/CA/San-Jose/3435-Youngs-Cir-95127/home/1851523,MLSListings,ML81674334,N,Y,37.3843131,-121.8302705
PAST SALE,March-3-2017,Condo/Co-op,304 Tradewinds Dr #5,SAN JOSE,CA,95123,400000,2,1.0,SAN JOSE,959,2809,1970,333,417,400,Sold,,,http://www.redfin.com/CA/San-Jose/304-Tradewinds-Dr-95123/unit-5/home/761070,MLSListings,ML81631530,N,Y,37.2535,-121.827995
PAST SALE,November-9-2017,Single Family Residential,234 Kirk Ave,SAN JOSE,CA,95127,555000,2,1.0,SAN JOSE,930,11000,1925,82,597,,Sold,,,http://www.redfin.com/CA/San-Jose/234-Kirk-Ave-95127/home/864881,MLSListings,ML81682332,N,Y,37.3793405,-121.826734
PAST SALE,November-17-2017,Townhouse,2463 Jubilee,San Jose,CA,95131,408000,1,1.0,San Jose,645,1771,1990,74,,240,Sold,,,http://www.redfin.com/CA/San-Jose/2463-Jubilee-Ln-95131/home/914803,MetroList,17046874,N,Y,37.402237,-121.885043
PAST SALE,,Condo/Co-op,2465 Jubilee Ln,San Jose,CA,95131,420000,1,1.0,,645,,1990,,651,,,,,http://www.redfin.com/CA/San-Jose/2465-Jubilee-Ln-95131/home/688945,,,N,Y,37.402237,-121.885043
PAST SALE,March-10-2017,Single Family Residential,786 Auzerais,SAN JOSE,CA,95126,550000,3,1.0,SAN JOSE,1064,4800,1916,326,517,,Sold,,,http://www.redfin.com/CA/San-Jose/786-Auzerais-Ave-95126/home/662523,MLSListings,ML81463069,N,Y,37.3215131,-121.9019598
PAST SALE,,Condo/Co-op,3124 Shadow Springs Pl,San Jose,CA,95121,108000,2,1.0,,1010,,1985,,107,,,,,http://www.redfin.com/CA/San-Jose/3124-Shadow-Springs-Pl-95121/home/1471841,,,N,Y,37.306545,-121.818572
PAST SALE,,Condo/Co-op,1375 Lick Ave Apt 926,San Jose,CA,95110,550000,1,1.0,,917,,2009,,600,,,,,http://www.redfin.com/CA/San-Jose/1375-Lick-Ave-95110/unit-926/home/17290537,,,N,Y,37.311469,-121.8823991
PAST SALE,July-19-2017,Single Family Residential,1157 Plum,SAN JOSE,CA,95110,620000,2,1.0,SAN JOSE,896,4524,1939,195,692,,Sold,,,http://www.redfin.com/CA/San-Jose/1157-Plum-St-95110/home/1648174,MLSListings,ML81647224,N,Y,37.3171059,-121.8799534
PAST SALE,,Single Family Residential,1587 Pomona Ave,San Jose,CA,95110,455000,3,1.0,,866,7840,1908,,525,,,,,http://www.redfin.com/CA/San-Jose/1587-Pomona-Ave-95110/home/843325,,,N,Y,37.3112961,-121.8742943
PAST SALE,October-16-2017,Single Family Residential,1273 Cristina Ave,SAN JOSE,CA,95125,1135000,2,1.0,SAN JOSE,1030,5000,1935,106,1102,,Sold,,,http://www.redfin.com/CA/San-Jose/1273-Cristina-Ave-95125/home/1791703,MLSListings,ML81676551,N,Y,37.3086821,-121.8942337
PAST SALE,February-14-2017,Condo/Co-op,334 Santana Row #209,SAN JOSE,CA,95128,605000,1,1.0,SAN JOSE,736,435,2002,350,822,419,Sold,,,http://www.redfin.com/CA/San-Jose/334-Santana-Row-95128/unit-209/home/17293030,MLSListings,ML81599207,N,Y,37.3222528,-121.9472191
PAST SALE,October-19-2017,Townhouse,560 Clara Filice Way,SAN JOSE,CA,95125,710000,3,1.0,SAN JOSE,895,4099,1983,103,793,230,Sold,,,http://www.redfin.com/CA/San-Jose/560-Clara-Filice-Way-95125/home/860028,MLSListings,ML81678558,N,Y,37.2968001,-121.8780154
PAST SALE,March-10-2017,Single Family Residential,1291 Turrett Dr,SAN JOSE,CA,95131,722000,2,1.0,SAN JOSE,846,6000,1970,326,853,,Sold,,,http://www.redfin.com/CA/San-Jose/1291-Turrett-Dr-95131/home/1723958,MLSListings,ML81636676,N,Y,37.3844705,-121.8700321
PAST SALE,November-2-2017,Single Family Residential,1273 Blewett Ave,SAN JOSE,CA,95125,1170000,2,1.0,SAN JOSE,1185,5616,1934,89,987,,Sold,,,http://www.redfin.com/CA/San-Jose/1273-Blewett-Ave-95125/home/1548760,MLSListings,ML81679802,N,Y,37.3058591,-121.8979716
PAST SALE,December-1-2017,Single Family Residential,1786 Bird Ave,SAN JOSE,CA,95125,970000,3,1.0,SAN JOSE,1245,5000,1950,60,779,,Sold,,,http://www.redfin.com/CA/San-Jose/1786-Bird-Ave-95125/home/1495090,MLSListings,ML81682822,N,Y,37.3011188,-121.8849185
PAST SALE,March-8-2017,Condo/Co-op,3598 Payne Ave #1,SAN JOSE,CA,95117,435000,2,1.0,SAN JOSE,910,1050,1963,328,478,285,Sold,,,http://www.redfin.com/CA/San-Jose/3598-Payne-Ave-95117/unit-1/home/753494,MLSListings,ML81636379,N,Y,37.300063,-121.962995
PAST SALE,March-6-2017,Single Family Residential,2305 Peachtree Ln,SAN JOSE,CA,95128,923000,3,1.0,SAN JOSE,1040,6042,1950,330,888,,Sold,,,http://www.redfin.com/CA/San-Jose/2305-Peachtree-Ln-95128/home/943624,MLSListings,ML81636285,N,Y,37.3343053,-121.944189
PAST SALE,January-5-2018,Single Family Residential,1208 Prevost St,SAN JOSE,CA,95125,1103900,3,1.0,SAN JOSE,1441,6655,1949,25,766,,Sold,,,http://www.redfin.com/CA/San-Jose/1208-Prevost-St-95125/home/1664340,MLSListings,ML81685988,N,Y,37.3125256,-121.8889151
PAST SALE,October-30-2017,Single Family Residential,310 S Buena Vista Ave,SAN JOSE,CA,95126,736000,2,1.0,SAN JOSE,720,4725,1920,92,1022,,Sold,,,http://www.redfin.com/CA/San-Jose/310-S-Buena-Vista-Ave-95126/home/1474424,MLSListings,ML81677700,N,Y,37.3227313,-121.918824
PAST SALE,October-13-2017,Single Family Residential,1061 Palm St,SAN JOSE,CA,95110,620000,2,1.0,SAN JOSE,840,4720,1910,109,738,,Sold,,,http://www.redfin.com/CA/San-Jose/1061-Palm-St-95110/home/1624018,MLSListings,ML81674602,N,Y,37.316462,-121.884635
PAST SALE,March-10-2017,Condo/Co-op,1060 S 3rd St #379,SAN JOSE,CA,95112,388000,1,1.0,SAN JOSE,667,750,2005,326,582,395,Sold,,,http://www.redfin.com/CA/San-Jose/1060-S-3rd-St-95112/unit-379/home/2124610,MLSListings,ML81636623,N,Y,37.321645,-121.8766544
PAST SALE,February-23-2017,Condo/Co-op,876 Gilchrist Dr #1,SAN JOSE,CA,95133,405000,2,1.0,SAN JOSE,810,1500,1971,341,500,301,Sold,,,http://www.redfin.com/CA/San-Jose/876-Gilchrist-Dr-95133/unit-1/home/1225263,MLSListings,ML81637833,N,Y,37.3798498,-121.8553589
PAST SALE,January-2-2018,Single Family Residential,355 S 16th St,SAN JOSE,CA,95112,1075000,2,1.0,SAN JOSE,1470,5760,1920,28,731,,Sold,,,http://www.redfin.com/CA/San-Jose/355-S-16th-St-95112/home/748509,MLSListings,ML81687070,N,Y,37.337784,-121.8714098
PAST SALE,March-2-2017,Condo/Co-op,425 Navaro Way #121,SAN JOSE,CA,95134,603000,1,1.0,SAN JOSE,948,2500,1991,334,636,255,Sold,,,http://www.redfin.com/CA/San-Jose/425-Navaro-Way-95134/unit-121/home/1641122,MLSListings,ML81637197,N,Y,37.4005368,-121.9225863
PAST SALE,November-9-2017,Single Family Residential,1004 Ramona Ave,SAN JOSE,CA,95125,1200000,2,1.0,SAN JOSE,1198,4995,1924,82,1002,,Sold,,,http://www.redfin.com/CA/San-Jose/1004-Ramona-Ave-95125/home/1502047,MLSListings,ML81677445,N,Y,37.3130335,-121.9024973
PAST SALE,,Single Family Residential,1602 Babero Ave,San Jose,CA,95118,650000,4,1.0,,1140,5300,1953,,570,,,,,http://www.redfin.com/CA/San-Jose/1602-Babero-Ave-95118/home/1089398,,,N,Y,37.2706785,-121.9022754
PAST SALE,October-26-2017,Condo/Co-op,1262 Bouret Dr #4,SAN JOSE,CA,95118,430000,2,1.0,SAN JOSE,798,6825,1970,96,539,319,Sold,,,http://www.redfin.com/CA/San-Jose/1262-Bouret-Dr-95118/unit-4/home/1297996,MLSListings,ML81682492,N,Y,37.258158,-121.8843659
PAST SALE,,Single Family Residential,383 S Baywood Ave,San Jose,CA,95128,1175000,3,1.0,,1187,6490,1945,,990,,,,,http://www.redfin.com/CA/San-Jose/383-S-Baywood-Ave-95128/home/17293500,,,N,Y,37.321538,-121.9460983
PAST SALE,November-2-2017,Single Family Residential,2384 Richland Ave,SAN JOSE,CA,95125,1390000,3,1.0,SAN JOSE,1185,9568,1954,89,1173,,Sold,,,http://www.redfin.com/CA/San-Jose/2384-Richland-Ave-95125/home/1702297,MLSListings,ML81683662,N,Y,37.2865381,-121.8889263
PAST SALE,November-27-2017,Single Family Residential,2311 Radio Ave,SAN JOSE,CA,95125,1300000,2,1.0,SAN JOSE,1469,6325,1947,64,885,,Sold,,,http://www.redfin.com/CA/San-Jose/2311-Radio-Ave-95125/home/1728421,MLSListings,ML81683342,N,Y,37.2874898,-121.8888364
PAST SALE,February-15-2017,Single Family Residential,19 Harriet Ave,SAN JOSE,CA,95127,380000,1,1.0,SAN JOSE,896,6250,1949,349,424,,Sold,,,http://www.redfin.com/CA/San-Jose/19-Harriet-Ave-95127/home/944947,MLSListings,ML81628617,N,Y,37.3689855,-121.8247517
PAST SALE,,Condo/Co-op,898 Goose Lake Ct,San Jose,CA,95123,150000,2,1.0,,867,,1994,,173,,,,,http://www.redfin.com/CA/San-Jose/898-Goose-Lake-Ct-95123/home/751842,,,N,Y,37.242869,-121.86703
PAST SALE,September-11-2017,Mobile/Manufactured Home,2150 Monterey Rd #6,SAN JOSE,CA,95112,199900,2,1.0,SAN JOSE,806,,2000,141,248,,Sold,,,http://www.redfin.com/CA/San-Jose/2150-Monterey-Rd-95112/unit-6/home/63745525,MLSListings,ML81652125,N,Y,37.3048896,-121.8623365
PAST SALE,January-10-2018,Single Family Residential,1667 Willowmont Ave,SAN JOSE,CA,95124,1065000,2,1.0,SAN JOSE,1172,5850,1962,20,909,,Sold,,,http://www.redfin.com/CA/San-Jose/1667-Willowmont-Ave-95124/home/854527,MLSListings,ML81686333,N,Y,37.2645353,-121.9068907
PAST SALE,March-15-2017,Single Family Residential,1087 Carolyn Ave,SAN JOSE,CA,95125,1300000,2,1.0,SAN JOSE,1200,8200,1928,321,1083,,Sold,,,http://www.redfin.com/CA/San-Jose/1087-Carolyn-Ave-95125/home/712224,MLSListings,ML81642518,N,Y,37.3072863,-121.9055059
PAST SALE,November-16-2017,Condo/Co-op,411 Park Ave #133,SAN JOSE,CA,95110,513000,1,1.0,SAN JOSE,816,,1987,75,629,398,Sold,,,http://www.redfin.com/CA/San-Jose/411-Park-Ave-95110/unit-133/home/970405,MLSListings,ML81672727,N,Y,37.3286844,-121.8970633
PAST SALE,March-30-2017,Single Family Residential,612 N 15th St,SAN JOSE,CA,95112,761500,2,1.0,SAN JOSE,1230,3895,1924,306,619,,Sold,,,http://www.redfin.com/CA/San-Jose/612-N-15th-St-95112/home/1428935,MLSListings,ML81639861,N,Y,37.354192,-121.88429
PAST SALE,June-22-2017,Condo/Co-op,110 Rancho Dr Unit C,SAN JOSE,CA,95111,363000,2,1.0,SAN JOSE,822,1742,1983,222,442,308,Sold,,,http://www.redfin.com/CA/San-Jose/110-Rancho-Dr-95111/unit-C/home/900757,MLSListings,ML81648794,N,Y,37.2824973,-121.8366283
PAST SALE,,Condo/Co-op,100 Kenbrook Cir,San Jose,CA,95111,406000,3,1.0,,1164,,1987,,349,,,,,http://www.redfin.com/CA/San-Jose/100-Kenbrook-Cir-95111/home/601442,,,N,Y,37.288393,-121.842028
PAST SALE,,Townhouse,5680 Calmor Ct Apt 3,San Jose,CA,95123,455000,2,1.0,,903,9360,1970,,504,,,,,http://www.redfin.com/CA/San-Jose/5680-Calmor-Ct-95123/unit-3/home/844730,,,N,Y,37.2462311,-121.8522104
PAST SALE,,Single Family Residential,105 Austin Ct,San Jose,CA,95110,525000,2,1.0,,702,3480,1950,,748,,,,,http://www.redfin.com/CA/San-Jose/105-Austin-Ct-95110/home/1467369,,,N,Y,37.3138788,-121.8748909
PAST SALE,March-7-2017,Single Family Residential,587 N Baywood Ave,SAN JOSE,CA,95128,890000,3,1.0,SAN JOSE,1134,5200,1950,329,785,,Sold,,,http://www.redfin.com/CA/San-Jose/587-N-Baywood-Ave-95128/home/1126906,MLSListings,ML81636752,N,Y,37.3278915,-121.9454699
PAST SALE,,Condo/Co-op,4685 Albany Cir Apt 120,San Jose,CA,95129,480000,1,1.0,,813,,1982,,590,,,,,http://www.redfin.com/CA/San-Jose/4685-Albany-Cir-95129/unit-120/home/744653,,,N,Y,37.3219343,-121.9861303
PAST SALE,December-12-2017,Single Family Residential,556 Atlanta Ave,SAN JOSE,CA,95125,1215000,3,1.0,SAN JOSE,1462,5850,1936,49,831,,Sold,,,http://www.redfin.com/CA/San-Jose/556-Atlanta-Ave-95125/home/1514871,MLSListings,ML81683221,N,Y,37.3159767,-121.8969781
PAST SALE,December-14-2017,Other,508 S Almaden Ave,SAN JOSE,CA,95110,1150000,,,SAN JOSE,1568,10355,1905,47,733,,Sold,,,http://www.redfin.com/CA/San-Jose/508-S-Almaden-Ave-95110/home/857975,MLSListings,ML81682717,N,Y,37.3270292,-121.8879452
PAST SALE,,Single Family Residential,491 N San Pedro St,San Jose,CA,95110,523000,2,1.0,,1096,4095,1915,,477,,,,,http://www.redfin.com/CA/San-Jose/491-N-San-Pedro-St-95110/home/1698637,,,N,Y,37.3437777,-121.8996032
PAST SALE,,Single Family Residential,236 N 33rd St,San Jose,CA,95116,147000,2,1.0,,985,9990,1939,,149,,,,,http://www.redfin.com/CA/San-Jose/236-N-33rd-St-95116/home/957642,,,N,Y,37.3548169,-121.862372
PAST SALE,August-11-2017,Single Family Residential,952 N 5Th St,SAN JOSE,CA,95112,680000,2,1.0,SAN JOSE,704,3425,1937,172,966,,Sold,,,http://www.redfin.com/CA/San-Jose/952-N-5th-St-95112/home/1737517,MLSListings,ML81655812,N,Y,37.3565916,-121.8996911
PAST SALE,March-7-2017,Single Family Residential,537 Brooks Ave,SAN JOSE,CA,95125,895000,3,1.0,SAN JOSE,1138,5118,1900,329,786,,Sold,,,http://www.redfin.com/CA/San-Jose/537-Brooks-Ave-95125/home/1176130,MLSListings,ML81588562,N,Y,37.3140902,-121.8964675
PAST SALE,January-6-2018,Single Family Residential,375 Jerome St,SAN JOSE,CA,95125,705063,2,1.0,SAN JOSE,1280,5448,1912,24,551,,Sold,,,http://www.redfin.com/CA/San-Jose/375-Jerome-St-95125/home/1813903,MLSListings,ML81688224,N,Y,37.318806,-121.8918366
PAST SALE,September-12-2017,Condo/Co-op,125 Patterson St #302,SAN JOSE,CA,95112,515000,1,1.0,SAN JOSE,894,728,2006,140,576,359,Sold,,,http://www.redfin.com/CA/San-Jose/125-Patterson-St-95112/unit-302/home/12180761,MLSListings,ML81674425,N,Y,37.326562,-121.879773
PAST SALE,August-30-2017,Single Family Residential,169 N 19th St,SAN JOSE,CA,95112,760000,2,1.0,SAN JOSE,816,6250,1948,153,931,,Sold,,,http://www.redfin.com/CA/San-Jose/169-N-19th-St-95112/home/1085842,MLSListings,ML81672654,N,Y,37.3468791,-121.8744746
PAST SALE,January-30-2018,Single Family Residential,129 E Younger Ave,SAN JOSE,CA,95112,800000,2,1.0,SAN JOSE,973,5090,1937,1,822,,Sold,,,http://www.redfin.com/CA/San-Jose/129-E-Younger-Ave-95112/home/1166010,MLSListings,ML81687335,N,Y,37.3565854,-121.9021579
PAST SALE,February-14-2017,Condo/Co-op,20 S 2nd St #327,SAN JOSE,CA,95113,435000,1,1.0,SAN JOSE,678,679,2007,350,642,474,Sold,,,http://www.redfin.com/CA/San-Jose/20-S-2nd-St-95113/unit-327/home/17288881,MLSListings,ML81586884,N,Y,37.3361399,-121.8888388
PAST SALE,October-6-2017,Mobile/Manufactured Home,540 Bonita Ave #406,SAN JOSE,CA,95116,110000,2,1.0,SAN JOSE,500,,1966,116,220,,Sold,,,http://www.redfin.com/CA/San-Jose/540-Bonita-Ave-95116/unit-406/home/143797448,MLSListings,ML81669899,N,Y,37.3421484,-121.8574913
PAST SALE,September-29-2017,Single Family Residential,620 N 2nd St,SAN JOSE,CA,95112,800000,2,1.0,SAN JOSE,908,5421,1924,123,881,,Sold,,,http://www.redfin.com/CA/San-Jose/620-N-2nd-St-95112/home/1305233,MLSListings,ML81675419,N,Y,37.3480177,-121.8976547
PAST SALE,October-12-2017,Condo/Co-op,97 E Saint James St #34,SAN JOSE,CA,95112,535000,1,1.0,SAN JOSE,765,435,1986,110,699,426,Sold,,,http://www.redfin.com/CA/San-Jose/97-E-Saint-James-St-95112/unit-34/home/1661402,MLSListings,ML81675927,N,Y,37.340221,-121.8910624
PAST SALE,,Single Family Residential,695 W San Carlos St,San Jose,CA,95126,1225000,3,1.0,,1260,6800,1999,,972,,,,,http://www.redfin.com/CA/San-Jose/695-W-San-Carlos-St-95126/home/707958,,,N,Y,37.3245069,-121.90139
PAST SALE,November-1-2017,Single Family Residential,443 N 12th St,SAN JOSE,CA,95112,708000,2,1.0,SAN JOSE,1200,5750,1908,90,590,,Sold,,,http://www.redfin.com/CA/San-Jose/443-N-12th-St-95112/home/1198118,MLSListings,ML81681811,N,Y,37.3489565,-121.8847579
PAST SALE,November-13-2017,Condo/Co-op,1550 Technology Dr #1050,SAN JOSE,CA,95110,520000,1,1.0,SAN JOSE,831,831,2005,78,626,419,Sold,,,http://www.redfin.com/CA/San-Jose/1550-Technology-Dr-95110/unit-1050/home/12178066,MLSListings,ML81679554,N,Y,37.3635149,-121.9139854
PAST SALE,February-2-2017,Townhouse,464 Carpentier Way,SAN JOSE,CA,95111,415000,3,1.0,SAN JOSE,921,1460,1971,362,451,319,Sold,,,http://www.redfin.com/CA/San-Jose/464-Carpentier-Way-95111/home/1090590,MLSListings,ML81634323,N,Y,37.2892618,-121.8330564
PAST SALE,February-7-2017,Single Family Residential,346 Ridge Vista Ave,SAN JOSE,CA,95127,625000,3,1.0,SAN JOSE,1148,7436,1947,357,544,,Sold,,,http://www.redfin.com/CA/San-Jose/346-Ridgevista-Ave-95127/home/1490971,MLSListings,ML81634629,N,Y,37.3776437,-121.834186
PAST SALE,January-30-2017,Single Family Residential,927 Bard St,SAN JOSE,CA,95127,690000,3,1.0,SAN JOSE,1075,5760,1955,365,642,,Sold,,,http://www.redfin.com/CA/San-Jose/927-Bard-St-95127/home/977004,MLSListings,ML81634004,N,Y,37.3897843,-121.8373583
PAST SALE,February-13-2017,Single Family Residential,1517 Santa Monica Ave,SAN JOSE,CA,95118,800000,3,1.0,SAN JOSE,1136,6000,1954,351,704,,Sold,,,http://www.redfin.com/CA/San-Jose/1517-Santa-Monica-Ave-95118/home/1050448,MLSListings,ML81635174,N,Y,37.2711569,-121.8968244
PAST SALE,December-6-2017,Single Family Residential,620 N 15th St,SAN JOSE,CA,95112,875000,2,1.0,SAN JOSE,1239,5125,1938,55,706,,Sold,,,http://www.redfin.com/CA/San-Jose/620-N-15th-St-95112/home/710138,MLSListings,ML81684082,N,Y,37.3543973,-121.8844424
PAST SALE,,Single Family Residential,49 S 20th St,San Jose,CA,95116,550000,2,1.0,,1090,5850,1901,,505,,,,,http://www.redfin.com/CA/San-Jose/49-S-20th-St-95116/home/873155,,,N,Y,37.343897,-121.870716
PAST SALE,December-14-2017,Condo/Co-op,247 N Capitol Ave #184,SAN JOSE,CA,95127,480000,2,1.0,SAN JOSE,828,800,1977,47,580,285,Sold,,,http://www.redfin.com/CA/San-Jose/247-N-Capitol-Ave-95127/unit-184/home/1617919,MLSListings,ML81686560,N,Y,37.3682271,-121.8417657
PAST SALE,December-8-2017,Single Family Residential,590 E William St,SAN JOSE,CA,95112,700000,2,1.0,SAN JOSE,1284,4840,1918,53,545,,Sold,,,http://www.redfin.com/CA/San-Jose/590-E-William-St-95112/home/1646880,MLSListings,ML81684447,N,Y,37.3342061,-121.8725597
PAST SALE,January-31-2017,Townhouse,2128 GALVESTON Unit D,SAN JOSE,CA,95122,438500,3,1.0,SAN JOSE,1125,1066,1979,364,390,342,Sold,,,http://www.redfin.com/CA/San-Jose/2128-Galveston-Ave-95122/unit-D/home/554382,MLSListings,ML81633505,N,Y,37.314329,-121.84566
PAST SALE,,Condo/Co-op,2323 Samaritan Dr Apt 3,San Jose,CA,95124,508000,2,1.0,,903,2580,1973,,563,,,,,http://www.redfin.com/CA/San-Jose/2323-Samaritan-Dr-95124/unit-3/home/946817,,,N,Y,37.2508487,-121.9421085
PAST SALE,,Single Family Residential,3607 San Felipe Rd,San Jose,CA,95135,540000,2,1.0,,720,12300,1910,,750,,,,,http://www.redfin.com/CA/San-Jose/3607-San-Felipe-Rd-95135/home/557130,,,N,Y,37.3096699,-121.785139
PAST SALE,,Single Family Residential,6798 Moselle Dr,San Jose,CA,95119,980000,4,2.0,,1791,6000,1970,,547,,,,,http://www.redfin.com/CA/San-Jose/6798-Moselle-Dr-95119/home/1536913,,,N,Y,37.227995,-121.7837612
PAST SALE,November-30-2017,Condo/Co-op,6121 Montgomery Ct,SAN JOSE,CA,95135,446000,2,1.0,SAN JOSE,913,1458,1973,61,488,636,Sold,,,http://www.redfin.com/CA/San-Jose/6121-Montgomery-Ct-95135/home/1331250,MLSListings,ML81682552,N,Y,37.287828,-121.755285
PAST SALE,November-27-2017,Single Family Residential,6945 Del Rio Dr,SAN JOSE,CA,95119,795000,2,1.0,SAN JOSE,1014,6000,1970,64,784,,Sold,,,http://www.redfin.com/CA/San-Jose/6945-Del-Rio-Dr-95119/home/1589033,MLSListings,ML81683321,N,Y,37.2258824,-121.7812907
PAST SALE,February-10-2017,Single Family Residential,518 Raymond Ave,SAN JOSE,CA,95128,735000,3,1.0,SAN JOSE,1118,5750,1941,354,657,,Sold,,,http://www.redfin.com/CA/San-Jose/518-Raymond-Ave-95128/home/744913,MLSListings,ML81633824,N,Y,37.3191284,-121.9284879
PAST SALE,,Single Family Residential,1145 Delmas Ave,San Jose,CA,95125,800000,3,1.0,,1483,8950,1900,,539,,,,,http://www.redfin.com/CA/San-Jose/1145-Delmas-Ave-95125/home/1218112,,,N,Y,37.3112521,-121.8933293
PAST SALE,January-23-2018,Condo/Co-op,25 S 3rd St #107,SAN JOSE,CA,95113,560000,1,1.0,SAN JOSE,800,4455,2007,7,700,493,Sold,,,http://www.redfin.com/CA/San-Jose/25-S-3rd-St-95113/unit-107/home/17290112,MLSListings,ML81687020,N,Y,37.3365052,-121.8883763
PAST SALE,,Single Family Residential,1473 Padres Dr,San Jose,CA,95125,511500,2,1.0,,1343,6000,1957,,381,,,,,http://www.redfin.com/CA/San-Jose/1473-Padres-Dr-95125/home/1536559,,,N,Y,37.3069728,-121.8888518
PAST SALE,April-6-2017,Single Family Residential,1521 Hillsdale Ave,SAN JOSE,CA,95118,740000,3,1.0,SAN JOSE,1071,6930,1954,299,691,,Sold,,,http://www.redfin.com/CA/San-Jose/1521-Hillsdale-Ave-95118/home/854789,MLSListings,ML81639160,N,Y,37.2703813,-121.8967709
PAST SALE,February-10-2017,Single Family Residential,298 S 16th St,SAN JOSE,CA,95112,875000,5,1.0,SAN JOSE,1856,6400,1910,354,471,,Sold,,,http://www.redfin.com/CA/San-Jose/298-S-16th-St-95112/home/872591,MLSListings,ML81632160,N,Y,37.3389801,-121.8716542
PAST SALE,January-26-2018,Single Family Residential,409 N 12th St,SAN JOSE,CA,95112,850000,2,1.0,SAN JOSE,1152,5830,1947,4,738,,Sold,,,http://www.redfin.com/CA/San-Jose/409-N-12th-St-95112/home/696986,MLSListings,ML81688337,N,Y,37.3486383,-121.8845109
PAST SALE,June-12-2017,Single Family Residential,14747 Ross Ave,SAN JOSE,CA,95124,850000,2,1.0,SAN JOSE,864,7839,1948,232,984,,Sold,,,http://www.redfin.com/CA/San-Jose/14747-Ross-Ave-95124/home/1129558,MLSListings,ML81649854,N,Y,37.2545651,-121.9107441
PAST SALE,August-10-2017,Condo/Co-op,1277 Bouret Dr #2,SAN JOSE,CA,95118,487000,2,1.0,SAN JOSE,903,9600,1970,173,539,319,Sold,,,http://www.redfin.com/CA/San-Jose/1277-Bouret-Dr-95118/unit-2/home/1469416,MLSListings,ML81667324,N,Y,37.2579889,-121.8856792
PAST SALE,August-11-2017,Single Family Residential,5486 Sharon Ln,SAN JOSE,CA,95124,1200000,3,1.0,SAN JOSE,1434,6380,1959,172,837,,Sold,,,http://www.redfin.com/CA/San-Jose/5486-Sharon-Ln-95124/home/911653,MLSListings,ML81672145,N,Y,37.2383555,-121.9243346
PAST SALE,October-20-2017,Condo/Co-op,5512 Spinnaker Dr #3,SAN JOSE,CA,95123,415000,2,1.0,SAN JOSE,903,1750,1970,102,460,295,Sold,,,http://www.redfin.com/CA/San-Jose/5512-Spinnaker-Dr-95123/unit-3/home/1787868,MLSListings,ML81676002,N,Y,37.2532518,-121.8226064
PAST SALE,,Single Family Residential,2480 Woodland Ave,San Jose,CA,95128,839000,3,1.0,,1200,7350,1950,,699,,,,,http://www.redfin.com/CA/San-Jose/2480-Woodland-Ave-95128/home/823605,,,N,Y,37.3311607,-121.9495052
PAST SALE,February-28-2017,Single Family Residential,1136 Sunny Ct,SAN JOSE,CA,95116,559000,2,1.0,SAN JOSE,938,4305,1979,336,596,,Sold,,,http://www.redfin.com/CA/San-Jose/1136-Sunny-Ct-95116/home/1779675,MLSListings,ML81633638,N,Y,37.3406786,-121.8603645
PAST SALE,June-23-2017,Condo/Co-op,1749 Braddock Ct,SAN JOSE,CA,95125,550000,1,1.0,SAN JOSE,841,1125,1984,221,654,405,Sold,,,http://www.redfin.com/CA/San-Jose/1749-Braddock-Ct-95125/home/1059904,MLSListings,ML81651151,N,Y,37.295312,-121.923114
PAST SALE,July-31-2017,Condo/Co-op,3258 Shadow Park Pl #3258,SAN JOSE,CA,95121,408000,2,1.0,SAN JOSE,911,,1988,183,448,340,Sold,,,http://www.redfin.com/CA/San-Jose/3258-Shadow-Park-Pl-95121/unit-3258/home/110222561,MLSListings,ML81632628,N,Y,37.30529,-121.81753
PAST SALE,February-24-2017,Single Family Residential,2002 Cranworth Cir,SAN JOSE,CA,95121,660000,3,1.0,SAN JOSE,1000,6930,1973,340,660,,Sold,,,http://www.redfin.com/CA/San-Jose/Cranworth-Cir-95121/home/950716,MLSListings,ML81635392,N,Y,37.3038553,-121.8005075
PAST SALE,August-23-2017,Single Family Residential,13585 Highwood Dr,SAN JOSE,CA,95127,665000,3,1.0,SAN JOSE,1380,6240,1951,160,482,,Sold,,,http://www.redfin.com/CA/San-Jose/13585-Highwood-Dr-95127/home/1552635,MLSListings,ML81670850,N,Y,37.3560077,-121.827335
PAST SALE,August-22-2017,Condo/Co-op,110 Monte Verano Ct,SAN JOSE,CA,95116,375000,2,1.0,SAN JOSE,877,1810,1988,161,428,371,Sold,,,http://www.redfin.com/CA/San-Jose/110-Monte-Verano-Ct-95116/home/12178202,MLSListings,ML81668816,N,Y,37.361763,-121.839695
PAST SALE,March-10-2017,Single Family Residential,2735 Sussex Dr,SAN JOSE,CA,95127,575000,3,1.0,SAN JOSE,960,5130,1955,326,599,,Sold,,,http://www.redfin.com/CA/San-Jose/2735-Sussex-Dr-95127/home/1335771,MLSListings,ML81636428,N,Y,37.350195,-121.8250388
PAST SALE,September-8-2017,Single Family Residential,3340 East Hills Dr,SAN JOSE,CA,95127,445000,1,1.0,SAN JOSE,646,4700,1948,144,689,,Sold,,,http://www.redfin.com/CA/San-Jose/3340-E-Hills-Dr-95127/home/615470,MLSListings,ML81673600,N,Y,37.3646546,-121.8209188
PAST SALE,,Single Family Residential,1634 Longview St,San Jose,CA,95122,590000,3,1.0,,960,5500,1959,,615,,,,,http://www.redfin.com/CA/San-Jose/1634-Longview-St-95122/home/890566,,,N,Y,37.3358611,-121.8429097
PAST SALE,September-21-2017,Single Family Residential,1418 CLIFFWOOD Dr,SAN JOSE,CA,95122,628000,3,1.0,SAN JOSE,960,5000,1959,131,654,,Sold,,,http://www.redfin.com/CA/San-Jose/1418-Cliffwood-Dr-95122/home/1059153,MLSListings,ML81674637,N,Y,37.3370563,-121.8365366
PAST SALE,October-17-2017,Single Family Residential,2069 Huran Dr,SAN JOSE,CA,95122,540000,3,1.0,SAN JOSE,912,5000,1960,105,592,,Sold,,,http://www.redfin.com/CA/San-Jose/2069-Huran-Dr-95122/home/1551435,MLSListings,ML81676158,N,Y,37.3285159,-121.828802
PAST SALE,September-26-2017,Single Family Residential,10200 Stonehedge Way,SAN JOSE,CA,95127,650000,3,1.0,SAN JOSE,1024,5684,1953,126,635,,Sold,,,http://www.redfin.com/CA/San-Jose/10200-Stonehedge-Way-95127/home/1246605,MLSListings,ML81674375,N,Y,37.3578862,-121.8217012
PAST SALE,October-9-2017,Condo/Co-op,174 Monte Verano Ct,SAN JOSE,CA,95116,335000,1,1.0,SAN JOSE,597,1810,1988,113,561,333,Sold,,,http://www.redfin.com/CA/San-Jose/174-Monte-Verano-Ct-95116/home/12178226,MLSListings,ML81674728,N,Y,37.361992,-121.84009
PAST SALE,,Condo/Co-op,1371 McQuesten Dr Apt D,San Jose,CA,95122,380000,2,1.0,,876,,1980,,434,,,,,http://www.redfin.com/CA/San-Jose/1371-McQuesten-Dr-95122/unit-D/home/1543337,,,N,Y,37.330221,-121.846589
PAST SALE,March-3-2017,Condo/Co-op,2988 Grassina St #420,SAN JOSE,CA,95136,490000,1,1.0,SAN JOSE,888,2300,2006,333,552,367,Sold,,,http://www.redfin.com/CA/San-Jose/2988-Grassina-St-95136/home/12180620,MLSListings,ML81636615,N,Y,37.286058,-121.860882
PAST SALE,February-28-2017,Single Family Residential,966 Pershing Ave,SAN JOSE,CA,95126,785000,3,1.0,SAN JOSE,844,5148,1912,336,930,,Sold,,,http://www.redfin.com/CA/San-Jose/966-Pershing-Ave-95126/home/770478,MLSListings,ML81630341,N,Y,37.3353547,-121.9131476
PAST SALE,,Single Family Residential,10180 Stonehedge Way,San Jose,CA,95127,642000,3,1.0,,1139,5096,1953,,564,,,,,http://www.redfin.com/CA/San-Jose/10180-Stonehedge-Way-95127/home/887269,,,N,Y,37.3576563,-121.8214437
PAST SALE,,Single Family Residential,56 Basch Ave,San Jose,CA,95116,192000,2,1.0,,832,5350,1951,,231,,,,,http://www.redfin.com/CA/San-Jose/56-Basch-Ave-95116/home/1649210,,,N,Y,37.3553882,-121.8531971
PAST SALE,,Single Family Residential,2667 Peridot Pl,San Jose,CA,95132,722000,3,1.0,,960,6000,1971,,752,,,,,http://www.redfin.com/CA/San-Jose/2667-Peridot-Pl-95132/home/1220753,,,N,Y,37.3923155,-121.8601859
PAST SALE,,Single Family Residential,3273 Whitesand Ct,San Jose,CA,95148,570000,3,1.0,,892,4725,1984,,639,,,,,http://www.redfin.com/CA/San-Jose/3273-Whitesand-Ct-95148/home/1795191,,,N,Y,37.316718,-121.7809241
PAST SALE,December-22-2017,Condo/Co-op,232 Coy Dr #1,SAN JOSE,CA,95123,425000,2,1.0,SAN JOSE,810,1750,1970,39,525,308,Sold,,,http://www.redfin.com/CA/San-Jose/232-Coy-Dr-95123/unit-1/home/1147322,MLSListings,ML81683755,N,Y,37.2552261,-121.8252975
PAST SALE,February-24-2017,Single Family Residential,1148 Curtner Ave,SAN JOSE,CA,95125,799500,2,1.0,SAN JOSE,1288,4752,1947,340,621,,Sold,,,http://www.redfin.com/CA/San-Jose/1148-Curtner-Ave-95125/home/1778145,MLSListings,ML81636143,N,Y,37.2889913,-121.8893575
PAST SALE,,Condo/Co-op,2182 Luz Ave,San Jose,CA,95116,111500,3,1.0,,1165,,1979,,96,,,,,http://www.redfin.com/CA/San-Jose/2182-Luz-Ave-95116/home/571900,,,N,Y,37.358377,-121.846404
PAST SALE,,Condo/Co-op,302 Heredia Ct,San Jose,CA,95116,440000,2,1.0,,881,1457,1971,,499,,,,,http://www.redfin.com/CA/San-Jose/302-Heredia-Ct-95116/home/794719,,,N,Y,37.36067,-121.852659
PAST SALE,,Single Family Residential,1288 Lucretia Ave,San Jose,CA,95122,120000,2,1.0,,967,10560,1950,,124,,,,,http://www.redfin.com/CA/San-Jose/1288-Lucretia-Ave-95122/home/1246199,,,N,Y,37.3276394,-121.8545536
PAST SALE,,Single Family Residential,14391 Victoria Ct,San Jose,CA,95127,595000,3,1.0,,960,4992,1954,,620,,,,,http://www.redfin.com/CA/San-Jose/14391-Victoria-Ct-95127/home/947515,,,N,Y,37.3605841,-121.8143119
PAST SALE,December-1-2017,Condo/Co-op,65 Monte Verano Ct,SAN JOSE,CA,95116,320000,1,1.0,SAN JOSE,597,1810,1988,60,536,333,Sold,,,http://www.redfin.com/CA/San-Jose/65-Monte-Verano-Ct-95116/home/2125662,MLSListings,ML81682154,N,Y,37.361083,-121.839999
PAST SALE,,Single Family Residential,100 El Campo Dr,San Jose,CA,95127,835500,4,1.0,,1389,8960,1952,,602,,,,,http://www.redfin.com/CA/San-Jose/100-El-Campo-Dr-95127/home/1497523,,,N,Y,37.3755171,-121.8243954
PAST SALE,December-7-2017,Single Family Residential,1344 Cliffwood Dr,SAN JOSE,CA,95122,650000,3,1.0,SAN JOSE,960,6000,1959,54,677,,Sold,,,http://www.redfin.com/CA/San-Jose/1344-Cliffwood-Dr-95122/home/891342,MLSListings,ML81683478,N,Y,37.3378526,-121.8372859
PAST SALE,February-24-2017,Single Family Residential,917 Palm St,SAN JOSE,CA,95110,685000,3,1.0,SAN JOSE,1299,5400,1910,340,527,,Sold,,,http://www.redfin.com/CA/San-Jose/917-Palm-St-95110/home/647671,MLSListings,ML81633611,N,Y,37.3187081,-121.8863972
PAST SALE,September-15-2017,Single Family Residential,1276 Prevost St,SAN JOSE,CA,95125,1000000,2,1.0,SAN JOSE,1222,7190,1949,137,818,,Sold,,,http://www.redfin.com/CA/San-Jose/1276-Prevost-St-95125/home/1014933,MLSListings,ML81675210,N,Y,37.3114018,-121.888374
PAST SALE,January-8-2018,Single Family Residential,10251 Claudia Dr,SAN JOSE,CA,95127,603000,3,1.0,SAN JOSE,997,8271,1951,22,605,,Sold,,,http://www.redfin.com/CA/San-Jose/10251-Claudia-Dr-95127/home/1557242,MLSListings,ML81686408,N,Y,37.3618974,-121.8179168
PAST SALE,January-16-2018,Townhouse,1379 Mcquesten Dr Unit A,SAN JOSE,CA,95122,440000,2,1.0,SAN JOSE,888,875,1980,14,495,331,Sold,,,http://www.redfin.com/CA/San-Jose/1379-McQuesten-Dr-95122/unit-A/home/1121222,MLSListings,ML81682333,N,Y,37.330371,-121.846746
PAST SALE,March-10-2017,Single Family Residential,1549 Keesling Ave,SAN JOSE,CA,95125,1199000,2,1.0,SAN JOSE,1228,13200,1936,326,976,,Sold,,,http://www.redfin.com/CA/San-Jose/1549-Keesling-Ave-95125/home/840655,MLSListings,ML81640711,N,Y,37.2956746,-121.9110433
PAST SALE,,Single Family Residential,1015 Lincoln Ct,San Jose,CA,95125,1000000,2,1.0,,915,6480,1926,,1093,,,,,http://www.redfin.com/CA/San-Jose/1015-Lincoln-Ct-95125/home/1806598,,,N,Y,37.2930004,-121.8859354
PAST SALE,June-2-2017,Single Family Residential,447 Serenade Way,SAN JOSE,CA,95111,575000,3,1.0,SAN JOSE,907,5000,1958,242,634,,Sold,,,http://www.redfin.com/CA/San-Jose/447-Serenade-Way-95111/home/1758240,MLSListings,ML81642997,N,Y,37.2790296,-121.821664
PAST SALE,March-3-2017,Condo/Co-op,88 N Jackson Ave #308,SAN JOSE,CA,95116,345000,1,1.0,SAN JOSE,720,720,2006,333,479,403,Sold,,,http://www.redfin.com/CA/San-Jose/88-N-Jackson-Ave-95116/unit-308/home/2124719,MLSListings,ML81637291,N,Y,37.3610855,-121.8457248
PAST SALE,June-13-2017,Condo/Co-op,5623 Playa Del Rey Ct #3,SAN JOSE,CA,95123,430000,2,1.0,SAN JOSE,903,10350,1970,231,476,350,Sold,,,http://www.redfin.com/CA/San-Jose/5623-Playa-Del-Rey-Ct-95123/unit-3/home/1749905,MLSListings,ML81650677,N,Y,37.249636,-121.8537015
PAST SALE,October-11-2017,Condo/Co-op,5688 Makati Cir Unit C,SAN JOSE,CA,95123,450000,1,1.0,SAN JOSE,690,924,1985,111,652,395,Sold,,,http://www.redfin.com/CA/San-Jose/Makati-Cir-95123/home/1233509,MLSListings,ML81677003,N,Y,37.2479444,-121.8072987
PAST SALE,September-15-2017,Single Family Residential,1050 Lincoln Ct,SAN JOSE,CA,95125,1000000,3,1.0,SAN JOSE,1497,6480,1938,137,668,,Sold,,,http://www.redfin.com/CA/San-Jose/1050-Lincoln-Ct-95125/home/1440700,MLSListings,ML81676124,N,Y,37.2921851,-121.8868569
PAST SALE,August-9-2017,Single Family Residential,389 Menker Ave,SAN JOSE,CA,95128,630000,2,1.0,SAN JOSE,794,2950,1910,174,793,,Sold,,,http://www.redfin.com/CA/San-Jose/389-Menker-Ave-95128/home/720466,MLSListings,ML81669015,N,Y,37.3217839,-121.9220377
PAST SALE,August-2-2017,Single Family Residential,1268 Prevost St,SAN JOSE,CA,95125,870000,3,1.0,SAN JOSE,1210,7480,1947,181,719,,Sold,,,http://www.redfin.com/CA/San-Jose/1268-Prevost-St-95125/home/1419449,MLSListings,ML81669120,N,Y,37.3115385,-121.8884167
PAST SALE,May-31-2017,Condo/Co-op,1375 Lick Ave #220,SAN JOSE,CA,95110,360000,1,1.0,SAN JOSE,733,1498,2009,244,491,385,Sold,,,http://www.redfin.com/CA/San-Jose/1375-Lick-Ave-95110/unit-220/home/17290571,MLSListings,ML81522287,N,Y,37.311469,-121.8823991
PAST SALE,June-27-2017,Condo/Co-op,2334 Warfield Way Unit A,SAN JOSE,CA,95122,440000,2,1.0,SAN JOSE,885,1012,1979,217,497,325,Sold,,,http://www.redfin.com/CA/San-Jose/2334-Warfield-Way-95122/unit-A/home/1568330,MLSListings,ML81651338,N,Y,37.312624,-121.841029
PAST SALE,June-12-2017,Single Family Residential,512 N 16th St,SAN JOSE,CA,95112,590000,2,1.0,SAN JOSE,1020,5750,1924,232,578,,Sold,,,http://www.redfin.com/CA/San-Jose/512-N-16th-St-95112/home/731212,MLSListings,ML81652378,N,Y,37.3524066,-121.8817583
PAST SALE,June-19-2017,Condo/Co-op,88 E San Fernando St #1509,SAN JOSE,CA,95113,637000,1,1.0,SAN JOSE,899,279,2008,225,709,669,Sold,,,http://www.redfin.com/CA/San-Jose/88-E-San-Fernando-St-95113/unit-1509/home/23048668,MLSListings,ML81645549,N,Y,37.3348194,-121.8873334
PAST SALE,,Condo/Co-op,287 Tradewinds Dr Apt 11,San Jose,CA,95123,150000,2,1.0,,959,,1970,,156,,,,,http://www.redfin.com/CA/San-Jose/287-Tradewinds-Dr-95123/unit-11/home/993730,,,N,Y,37.255485,-121.827117
PAST SALE,September-8-2017,Condo/Co-op,1421 Alma Loop,SAN JOSE,CA,95125,447000,1,1.0,SAN JOSE,784,,1984,144,570,320,Sold,,,http://www.redfin.com/CA/San-Jose/1421-Alma-Loop-95125/home/1267191,MLSListings,ML81673047,N,Y,37.308856,-121.887005
PAST SALE,June-30-2017,Condo/Co-op,175 W Saint James St #405,SAN JOSE,CA,95110,580000,1,1.0,SAN JOSE,904,285,2006,214,642,401,Sold,,,http://www.redfin.com/CA/San-Jose/175-W-Saint-James-St-95110/unit-405/home/17289327,MLSListings,ML81651258,N,Y,37.337936,-121.8955308
PAST SALE,April-27-2017,Townhouse,1343 Shawn Dr #2,SAN JOSE,CA,95118,450000,2,1.0,SAN JOSE,903,7080,1970,278,498,319,Sold,,,http://www.redfin.com/CA/San-Jose/1343-Shawn-Dr-95118/unit-2/home/1700389,MLSListings,ML81641060,N,Y,37.2596324,-121.8867944
PAST SALE,September-8-2017,Single Family Residential,1811 Everglade Ave,SAN JOSE,CA,95122,544000,3,1.0,SAN JOSE,960,5150,1959,144,567,,Sold,,,http://www.redfin.com/CA/San-Jose/1811-Everglade-Ave-95122/home/1266655,MLSListings,ML81674533,N,Y,37.3382564,-121.8377942
PAST SALE,October-20-2017,Single Family Residential,992 S 12th St,SAN JOSE,CA,95112,671000,3,1.0,SAN JOSE,1092,5043,1924,102,614,,Sold,,,http://www.redfin.com/CA/San-Jose/992-S-12th-St-95112/home/1729085,MLSListings,ML81675636,N,Y,37.3269605,-121.867766
PAST SALE,February-28-2017,Single Family Residential,2306 Peachtree Ln,SAN JOSE,CA,95128,870000,3,1.0,SAN JOSE,1040,5500,1950,336,837,,Sold,,,http://www.redfin.com/CA/San-Jose/2306-Peachtree-Ln-95128/home/1046863,MLSListings,ML81636317,N,Y,37.3339233,-121.9441803
PAST SALE,,Single Family Residential,551 McLaughlin Ave,San Jose,CA,95116,710000,2,1.0,,1172,9900,1941,,606,,,,,http://www.redfin.com/CA/San-Jose/551-McLaughlin-Ave-95116/home/1769277,,,N,Y,37.3394059,-121.860727
PAST SALE,February-17-2017,Single Family Residential,518 N Clover Ave,SAN JOSE,CA,95128,815000,3,1.0,SAN JOSE,1134,5200,1950,347,719,,Sold,,,http://www.redfin.com/CA/San-Jose/518-N-Clover-Ave-95128/home/719633,MLSListings,ML81636178,N,Y,37.3273222,-121.9439761
PAST SALE,,Single Family Residential,59 S 21st St,San Jose,CA,95116,300000,3,1.0,,1570,7800,1920,,191,,,,,http://www.redfin.com/CA/San-Jose/59-S-21st-St-95116/home/1661415,,,N,Y,37.344129,-121.8694359
PAST SALE,October-30-2017,Single Family Residential,487 Menker Ave,SAN JOSE,CA,95128,640000,3,1.0,SAN JOSE,1288,5628,1925,92,497,,Sold,,,http://www.redfin.com/CA/San-Jose/487-Menker-Ave-95128/home/549519,MLSListings,ML81673549,N,Y,37.3200342,-121.9218603
PAST SALE,September-26-2017,Single Family Residential,90 Goodyear St,SAN JOSE,CA,95110,625000,2,1.0,SAN JOSE,649,5500,1922,126,963,,Sold,,,http://www.redfin.com/CA/San-Jose/90-Goodyear-St-95110/home/1432843,MLSListings,ML81679113,N,Y,37.3185997,-121.8793752
PAST SALE,September-8-2017,Single Family Residential,1373 Curtiss Ave,SAN JOSE,CA,95125,910000,2,1.0,SAN JOSE,792,4680,1924,144,1149,,Sold,,,http://www.redfin.com/CA/San-Jose/1373-Curtiss-Ave-95125/home/694049,MLSListings,ML81654142,N,Y,37.3064561,-121.8937741
PAST SALE,October-20-2017,Single Family Residential,149 E Hedding St,SAN JOSE,CA,95112,665000,2,1.0,SAN JOSE,856,4725,1927,102,777,,Sold,,,http://www.redfin.com/CA/San-Jose/149-E-Hedding-St-95112/home/1786564,MLSListings,ML81676819,N,Y,37.3549533,-121.9005782
PAST SALE,February-27-2017,Single Family Residential,475 Autumn Ct,SAN JOSE,CA,95110,670000,2,1.0,SAN JOSE,864,4000,1925,337,775,,Sold,,,http://www.redfin.com/CA/San-Jose/475-Autumn-Ct-95110/home/1869109,MLSListings,ML81635253,N,Y,37.3356073,-121.9014208
PAST SALE,April-14-2017,Condo/Co-op,5684 PLAYA DEL REY #1,SAN JOSE,CA,95123,395000,2,1.0,SAN JOSE,810,7920,1970,291,488,328,Sold,,,http://www.redfin.com/CA/San-Jose/5684-Playa-Del-Rey-95123/unit-1/home/999298,MLSListings,ML81631170,N,Y,37.2478893,-121.8538817
PAST SALE,February-22-2017,Townhouse,5525 Judith St #3,SAN JOSE,CA,95123,385000,2,1.0,SAN JOSE,903,1750,1970,342,426,272,Sold,,,http://www.redfin.com/CA/San-Jose/5525-Judith-St-95123/unit-3/home/992866,MLSListings,ML81635303,N,Y,37.2531002,-121.8261842
PAST SALE,May-5-2017,Townhouse,1952 Tia Pl,SAN JOSE,CA,95131,553800,3,1.0,SAN JOSE,994,1960,1971,270,557,245,Sold,,,http://www.redfin.com/CA/San-Jose/1952-Tia-Pl-95131/home/1707086,MLSListings,ML81637927,N,Y,37.379219,-121.870252
PAST SALE,March-10-2017,Condo/Co-op,88 Bush St #3103,SAN JOSE,CA,95126,600000,1,1.0,SAN JOSE,835,476,2008,326,719,386,Sold,,,http://www.redfin.com/CA/San-Jose/88-Bush-St-95126/unit-3103/home/17288092,MLSListings,ML81637235,N,Y,37.3300734,-121.9044474
PAST SALE,March-14-2017,Condo/Co-op,440 Navaro Pl #103,SAN JOSE,CA,95134,535000,1,1.0,SAN JOSE,870,3920,1991,322,615,256,Sold,,,http://www.redfin.com/CA/San-Jose/440-Navaro-Pl-95134/unit-103/home/577676,MLSListings,ML81636540,N,Y,37.400793,-121.923633
PAST SALE,May-18-2017,Condo/Co-op,275 Tradewinds Dr #8,SAN JOSE,CA,95123,347000,1,1.0,SAN JOSE,722,2809,1970,257,481,358,Sold,,,http://www.redfin.com/CA/San-Jose/275-Tradewinds-Dr-95123/unit-8/home/993654,MLSListings,ML81646606,N,Y,37.25414,-121.826991
PAST SALE,February-17-2017,Single Family Residential,18631 Runo Ct,CUPERTINO,CA,95014,1320000,3,1.0,CUPERTINO,1147,5000,1954,347,1151,,Sold,,,http://www.redfin.com/CA/Cupertino/18631-Runo-Ct-95014/home/1815848,MLSListings,ML81635248,N,Y,37.3191209,-121.9976832
PAST SALE,March-21-2017,Condo/Co-op,1765 Braddock Ct,SAN JOSE,CA,95125,579000,2,1.0,SAN JOSE,841,1056,1981,315,688,405,Sold,,,http://www.redfin.com/CA/San-Jose/1765-Braddock-Ct-95125/home/549834,MLSListings,ML81639812,N,Y,37.295705,-121.923444
PAST SALE,May-15-2017,Condo/Co-op,3408 La Terrace Cir,SAN JOSE,CA,95123,520000,2,1.0,SAN JOSE,904,435,1985,260,575,433,Sold,,,http://www.redfin.com/CA/San-Jose/3408-La-Terrace-Cir-95123/home/1571664,MLSListings,ML81647199,N,Y,37.242028,-121.868538
PAST SALE,September-1-2017,Condo/Co-op,813 Wyman Way #2,SAN JOSE,CA,95133,447888,2,1.0,SAN JOSE,903,1500,1971,151,496,301,Sold,,,http://www.redfin.com/CA/San-Jose/813-Wyman-Way-95133/unit-2/home/1176416,MLSListings,ML81669427,N,Y,37.3783936,-121.8548943
PAST SALE,October-4-2017,Single Family Residential,435 Coe Ave,SAN JOSE,CA,95125,960000,2,1.0,SAN JOSE,1085,5314,1900,118,885,,Sold,,,http://www.redfin.com/CA/San-Jose/435-Coe-Ave-95125/home/1510283,MLSListings,ML81679552,N,Y,37.3153787,-121.8941141
PAST SALE,,Single Family Residential,2398 Summer St,San Jose,CA,95116,109500,3,1.0,,1324,4000,1925,,83,,,,,http://www.redfin.com/CA/San-Jose/2398-Summer-St-95116/home/1266647,,,N,Y,37.3544506,-121.8366214
PAST SALE,September-1-2017,Condo/Co-op,2515 Dillion Ct #4,SAN JOSE,CA,95133,413000,2,1.0,SAN JOSE,798,1500,1971,151,518,301,Sold,,,http://www.redfin.com/CA/San-Jose/2515-Dillion-Ct-95133/unit-4/home/700190,MLSListings,ML81646452,N,Y,37.3808682,-121.8567264
PAST SALE,September-14-2017,Single Family Residential,213 N Claremont Ave,SAN JOSE,CA,95127,650000,3,1.0,SAN JOSE,1169,7050,1947,138,556,,Sold,,,http://www.redfin.com/CA/San-Jose/213-N-Claremont-Ave-95127/home/1159969,MLSListings,ML81675801,N,Y,37.3753469,-121.8283063
PAST SALE,September-22-2017,Condo/Co-op,1060 S 3rd St #359,SAN JOSE,CA,95112,405000,1,1.0,SAN JOSE,667,750,2005,130,607,399,Sold,,,http://www.redfin.com/CA/San-Jose/1060-S-3rd-St-95112/unit-359/home/2124604,MLSListings,ML81674673,N,Y,37.321645,-121.8766544
PAST SALE,,Single Family Residential,1537 Forrestal Ave,San Jose,CA,95110,650000,3,1.0,,980,5400,1955,,663,,,,,http://www.redfin.com/CA/San-Jose/1537-Forrestal-Ave-95110/home/1433592,,,N,Y,37.3621122,-121.9143362
PAST SALE,July-31-2017,Condo/Co-op,88 E San Fernando St #1307,SAN JOSE,CA,95113,640000,1,1.0,SAN JOSE,830,279,2008,183,771,657,Sold,,,http://www.redfin.com/CA/San-Jose/88-E-San-Fernando-St-95113/unit-1307/home/23048627,MLSListings,ML81650009,N,Y,37.3348194,-121.8873334
PAST SALE,October-11-2017,Single Family Residential,1830 Bird Ave,SAN JOSE,CA,95125,860000,2,1.0,SAN JOSE,891,5600,1950,111,965,,Sold,,,http://www.redfin.com/CA/San-Jose/1830-Bird-Ave-95125/home/848945,MLSListings,ML81677089,N,Y,37.300535,-121.8844551
PAST SALE,October-5-2017,Single Family Residential,1196 Malone Rd,SAN JOSE,CA,95125,1200000,3,1.0,SAN JOSE,1502,8280,1950,117,799,,Sold,,,http://www.redfin.com/CA/San-Jose/1196-Malone-Rd-95125/home/701850,MLSListings,ML81677911,N,Y,37.2919182,-121.8929444
PAST SALE,February-8-2017,Condo/Co-op,3429 Wine Cork Way,SAN JOSE,CA,95124,499000,2,1.0,SAN JOSE,868,840,1985,356,575,276,Sold,,,http://www.redfin.com/CA/San-Jose/3429-Wine-Cork-Way-95124/home/1265061,MLSListings,ML81638334,N,Y,37.2640137,-121.9418053
PAST SALE,August-18-2017,Condo/Co-op,1735 Braddock Ct,SAN JOSE,CA,95125,567000,1,1.0,SAN JOSE,841,1125,1984,165,674,405,Sold,,,http://www.redfin.com/CA/San-Jose/1735-Braddock-Ct-95125/unit-79/home/1474922,MLSListings,ML81667885,N,Y,37.294789,-121.923406
PAST SALE,June-23-2017,Single Family Residential,192 Clareview Ave,SAN JOSE,CA,95127,705000,3,1.0,SAN JOSE,1050,8640,1947,221,671,,Sold,,,http://www.redfin.com/CA/San-Jose/192-Clareview-Ave-95127/home/1066697,MLSListings,ML81651835,N,Y,37.3724005,-121.8181525
PAST SALE,February-17-2017,Single Family Residential,893 Nevada Ave,SAN JOSE,CA,95125,975000,2,1.0,SAN JOSE,1096,5670,1930,347,890,,Sold,,,http://www.redfin.com/CA/San-Jose/893-Nevada-Ave-95125/home/1710624,MLSListings,ML81639283,N,Y,37.3035583,-121.8906196
PAST SALE,September-4-2017,Condo/Co-op,3403 Youngs Cir,SAN JOSE,CA,95127,529000,3,1.0,SAN JOSE,936,3710,1974,148,565,120,Sold,,,http://www.redfin.com/CA/San-Jose/3403-Youngs-Cir-95127/home/1606386,MLSListings,ML81676428,N,Y,37.383619,-121.831734
PAST SALE,September-13-2017,Single Family Residential,3494 Joanne Ave,SAN JOSE,CA,95127,710000,3,1.0,SAN JOSE,1027,6076,1952,139,691,,Sold,,,http://www.redfin.com/CA/San-Jose/3494-Joanne-Ave-95127/home/1205499,MLSListings,ML81674124,N,Y,37.3891106,-121.8321337
PAST SALE,,Condo/Co-op,1595 4 Oaks Cir,San Jose,CA,95131,337000,1,1.0,,676,,1986,,499,,,,,http://www.redfin.com/CA/San-Jose/1595-4-Oaks-Cir-95131/home/981421,,,N,Y,37.391189,-121.871833
PAST SALE,March-2-2017,Single Family Residential,2426 Cory Ave,SAN JOSE,CA,95128,965000,3,1.0,SAN JOSE,1134,5720,1950,334,851,,Sold,,,http://www.redfin.com/CA/San-Jose/2426-Cory-Ave-95128/home/1514896,MLSListings,ML81637631,N,Y,37.3315663,-121.9478087
PAST SALE,February-23-2017,Single Family Residential,613 Dorothy Ave,SAN JOSE,CA,95125,715000,2,1.0,SAN JOSE,952,4784,1923,341,751,,Sold,,,http://www.redfin.com/CA/San-Jose/613-Dorothy-Ave-95125/home/1050272,MLSListings,ML81635333,N,Y,37.3109869,-121.8904608
PAST SALE,March-10-2017,Condo/Co-op,3240 Shadow Springs Pl,SAN JOSE,CA,95121,405000,2,1.0,SAN JOSE,911,,1988,326,445,340,Sold,,,http://www.redfin.com/CA/San-Jose/3240-Shadow-Springs-Pl-95121/home/1678530,MLSListings,ML81636521,N,Y,37.305941,-121.817015
PAST SALE,,Single Family Residential,35 S Autumn St,San Jose,CA,95110,1200000,2,1.0,,1033,5650,1900,,1162,,,,,http://www.redfin.com/CA/San-Jose/35-S-Autumn-St-95110/home/1394433,,,N,Y,37.3309362,-121.9004362
PAST SALE,October-17-2017,Condo/Co-op,2758 Somerset Park Cir,SAN JOSE,CA,95132,440000,1,1.0,SAN JOSE,677,1711,1988,105,650,330,Sold,,,http://www.redfin.com/CA/San-Jose/2758-Somerset-Park-Cir-95132/home/2125704,MLSListings,ML81676469,N,Y,37.3951149,-121.860949
PAST SALE,February-23-2017,Condo/Co-op,2910 La Terrace Cir,SAN JOSE,CA,95123,515000,2,1.0,SAN JOSE,995,,1985,341,518,433,Sold,,,http://www.redfin.com/CA/San-Jose/2910-La-Terrace-Cir-95123/home/1002167,MLSListings,ML81635375,N,Y,37.242163,-121.867023
PAST SALE,October-5-2017,Single Family Residential,1521 Marcia Ave,SAN JOSE,CA,95125,1015000,3,1.0,SAN JOSE,1110,5450,1951,117,914,,Sold,,,http://www.redfin.com/CA/San-Jose/1521-Marcia-Ave-95125/home/1567481,MLSListings,ML81676836,N,Y,37.2819977,-121.8973547
