SALE TYPE,SOLD DATE,PROPERTY TYPE,ADDRESS,CITY,STATE,ZIP,PRICE,BEDS,BATHS,LOCATION,SQUARE FEET,LOT SIZE,YEAR BUILT,DAYS ON MARKET,$/SQUARE FEET,HOA/MONTH,STATUS,NEXT OPEN HOUSE START TIME,NEXT OPEN HOUSE END TIME,URL (SEE http://www.redfin.com/buy-a-home/comparative-market-analysis FOR INFO ON PRICING),SOURCE,MLS#,FAVORITE,INTERESTED,LATITUDE,LONGITUDE
PAST SALE,June-1-2017,Single Family Residential,16280 Calypso Ct,San Leandro,CA,94578,665000,4,2.5,Ashland,1626,4460,1994,251,409,,Sold,,,http://www.redfin.com/CA/San-Leandro/16280-Calypso-Ct-94578/home/715353,EBRD/CCAR/Bay East,40778570,N,Y,37.6993987,-122.112391
PAST SALE,November-13-2017,Single Family Residential,963 Helen Ave,San Leandro,CA,94577,685000,3,2.0,Broadmoor/Dutton,1397,6970,1927,86,490,,Sold,,,http://www.redfin.com/CA/San-Leandro/963-Helen-Ave-94577/home/757677,EBRD/CCAR/Bay East,40796686,N,Y,37.737115,-122.146195
PAST SALE,August-4-2017,Single Family Residential,16576 Russell Ct,San Leandro,CA,94578,664980,5,3.0,San Leandro Hlls,2020,4268,1951,187,329,,Sold,,,http://www.redfin.com/CA/San-Leandro/16576-Russell-Ct-94578/home/1195944,EBRD/CCAR/Bay East,40783233,N,Y,37.698521,-122.102567
PAST SALE,June-9-2017,Single Family Residential,16659 Kildare Rd,San Leandro,CA,94578,775000,3,2.5,San Leandro,1659,5500,1966,243,467,,Sold,,,http://www.redfin.com/CA/San-Leandro/16659-Kildare-Rd-94578/home/823033,EBRD/CCAR/Bay East,40779171,N,Y,37.7011269,-122.0981779
PAST SALE,April-12-2017,Single Family Residential,15680 Elko Ct,San Leandro,CA,94579,624000,3,2.0,Washington Manor,1293,6161,1956,301,483,,Sold,,,http://www.redfin.com/CA/San-Leandro/15680-Elko-Ct-94579/home/1805423,EBRD/CCAR/Bay East,40771078,N,Y,37.6780074,-122.1507588
PAST SALE,December-19-2017,Single Family Residential,2100 109Th Ave,Oakland,CA,94603,550000,4,2.0,Durant Manor,1328,3737,1941,50,414,,Sold,,,http://www.redfin.com/CA/Oakland/2100-109th-Ave-94603/home/1458917,EBRD/CCAR/Bay East,40803330,N,Y,37.7390311,-122.1571958
PAST SALE,March-14-2017,Single Family Residential,568 Warden Ave,San Leandro,CA,94577,485000,2,1.0,San Leandro,863,5000,1948,330,562,,Sold,,,http://www.redfin.com/CA/San-Leandro/568-Warden-Ave-94577/home/1227797,EBRD/CCAR/Bay East,40764455,N,Y,37.7239054,-122.1822481
PAST SALE,February-8-2017,Single Family Residential,486 Olive St,San Leandro,CA,94578,450000,2,1.0,San Leandro,865,5022,1947,364,520,,Sold,,,http://www.redfin.com/CA/San-Leandro/486-Olive-St-94578/home/773255,EBRD/CCAR/Bay East,40766544,N,Y,37.6983856,-122.1312901
PAST SALE,March-7-2017,Single Family Residential,1716 Hubbard Ave,San Leandro,CA,94579,575000,3,1.5,Washington Manor,1149,5264,1954,337,500,,Sold,,,http://www.redfin.com/CA/San-Leandro/1716-Hubbard-Ave-94579/home/1293230,EBRD/CCAR/Bay East,40766813,N,Y,37.6915171,-122.1601587
PAST SALE,April-11-2017,Single Family Residential,505 Mitchell Ave,San Leandro,CA,94577,950000,3,2.5,Dutton Manor,1986,8125,1946,302,478,,Sold,,,http://www.redfin.com/CA/San-Leandro/505-Mitchell-Ave-94577/home/757252,EBRD/CCAR/Bay East,40772805,N,Y,37.7362782,-122.1456628
PAST SALE,May-12-2017,Single Family Residential,318 Melven Ct,San Leandro,CA,94577,705000,2,1.0,Broadmoor Area,1110,6000,1928,271,635,,Sold,,,http://www.redfin.com/CA/San-Leandro/318-Melven-Ct-94577/home/1973359,EBRD/CCAR/Bay East,40776077,N,Y,37.7397512,-122.1486417
PAST SALE,,Multi-Family (2-4 Unit),453 Fortuna Ave,San Leandro,CA,94577,682000,3,2.0,,1519,4120,1950,,449,,,,,http://www.redfin.com/CA/San-Leandro/453-Fortuna-Ave-94577/home/1845228,,,N,Y,37.7367006,-122.1414936
PAST SALE,May-25-2017,Single Family Residential,1342 Begier Ave,San Leandro,CA,94577,1010000,5,3.0,San Leandro,2350,5875,1940,258,430,,Sold,,,http://www.redfin.com/CA/San-Leandro/1342-Begier-Ave-94577/home/757489,EBRD/CCAR/Bay East,40778681,N,Y,37.7330788,-122.142176
PAST SALE,April-13-2017,Single Family Residential,503 Superior Ave,San Leandro,CA,94577,760000,3,1.5,Broadmoor/Dutton,1765,5200,1932,300,431,,Sold,,,http://www.redfin.com/CA/San-Leandro/503-Superior-Ave-94577/home/1035723,EBRD/CCAR/Bay East,40772470,N,Y,37.7362121,-122.1434927
PAST SALE,February-17-2017,Single Family Residential,923 Arguello Dr,San Leandro,CA,94578,585000,3,1.0,Floresta,1114,5700,1954,355,525,,Sold,,,http://www.redfin.com/CA/San-Leandro/923-Arguello-Dr-94578/home/714911,EBRD/CCAR/Bay East,40768854,N,Y,37.7009927,-122.1497339
PAST SALE,,Single Family Residential,15237 Central Ave,San Leandro,CA,94578,155455,3,2.0,,1486,5400,1947,,105,,,,,http://www.redfin.com/CA/San-Leandro/15237-Central-Ave-94578/home/774119,,,N,Y,37.6979391,-122.1355136
PAST SALE,July-19-2017,Single Family Residential,2635 Durant Ave,Oakland,CA,94605,550000,2,1.0,Oakland,1135,4080,1946,203,485,,Sold,,,http://www.redfin.com/CA/Oakland/2635-Durant-Ave-94605/home/1041656,EBRD/CCAR/Bay East,40785900,N,Y,37.7413316,-122.1478149
PAST SALE,October-31-2017,Single Family Residential,935 Begier Ave,San Leandro,CA,94577,800000,3,1.5,San Leandro,1738,4444,1938,99,460,,Sold,,,http://www.redfin.com/CA/San-Leandro/935-Begier-Ave-94577/home/758359,EBRD/CCAR/Bay East,40798732,N,Y,37.7325962,-122.1465818
PAST SALE,December-18-2017,Single Family Residential,669 Dowling Blvd,San Leandro,CA,94577,667000,3,1.0,Broadmoor,1458,7500,1928,51,457,,Sold,,,http://www.redfin.com/CA/San-Leandro/669-Dowling-Blvd-94577/home/755571,EBRD/CCAR/Bay East,40804119,N,Y,37.7359599,-122.1508206
PAST SALE,,Condo/Co-op,730 Fargo Ave Apt 10,San Leandro,CA,94579,395000,3,2.0,,1136,,1965,,348,,,,,http://www.redfin.com/CA/San-Leandro/730-Fargo-Ave-94579/unit-10/home/17185267,,,N,Y,37.6878271,-122.1411568
PAST SALE,April-11-2017,Condo/Co-op,15335 Washington Ave #104,San Leandro,CA,94579,375000,2,2.0,Washington Pines,1010,38943,1985,302,371,426,Sold,,,http://www.redfin.com/CA/San-Leandro/15335-Washington-Ave-94579/unit-104/home/1949173,EBRD/CCAR/Bay East,40769363,N,Y,37.6853906,-122.1392855
PAST SALE,,Condo/Co-op,690 Fargo Ave Apt 1,San Leandro,CA,94579,362000,2,1.0,,1020,,1965,,355,,,,,http://www.redfin.com/CA/San-Leandro/690-Fargo-Ave-94579/unit-1/home/17185266,,,N,Y,37.6878373,-122.1408837
PAST SALE,April-28-2017,Condo/Co-op,690 FARGO Ave #6,San Leandro,CA,94579,364900,2,1.5,Washington Manor,920,,1965,285,397,306,Sold,,,http://www.redfin.com/CA/San-Leandro/690-Fargo-Ave-94579/unit-6/home/17185621,EBRD/CCAR/Bay East,40752242,N,Y,37.6878373,-122.1408837
PAST SALE,,Condo/Co-op,670 Fargo Ave Apt 9,San Leandro,CA,94579,395000,3,2.0,,1136,,1965,,348,,,,,http://www.redfin.com/CA/San-Leandro/670-Fargo-Ave-94579/unit-9/home/17184417,,,N,Y,37.6878575,-122.1404812
PAST SALE,,Condo/Co-op,740 Fargo Ave Apt 13,San Leandro,CA,94579,357000,2,1.0,,840,,1965,,425,,,,,http://www.redfin.com/CA/San-Leandro/740-Fargo-Ave-94579/unit-13/home/17184288,,,N,Y,37.687832,-122.1412667
PAST SALE,June-30-2017,Condo/Co-op,680 Fargo Ave #5,San Leandro,CA,94579,357900,2,1.5,Washington Manor,840,,1965,222,426,306,Sold,,,http://www.redfin.com/CA/San-Leandro/680-Fargo-Ave-94579/unit-5/home/17185701,EBRD/CCAR/Bay East,40777642,N,Y,37.6875672,-122.1406499
PAST SALE,,Condo/Co-op,690 Fargo Ave Apt 4,San Leandro,CA,94579,279500,2,1.0,,1020,,1965,,274,,,,,http://www.redfin.com/CA/San-Leandro/690-Fargo-Ave-94579/unit-4/home/17184416,,,N,Y,37.6878373,-122.1408837
PAST SALE,,Condo/Co-op,680 Fargo Ave Apt 15,San Leandro,CA,94579,212000,2,1.0,,850,,1965,,249,,,,,http://www.redfin.com/CA/San-Leandro/680-Fargo-Ave-94579/unit-15/home/17185626,,,N,Y,37.6875672,-122.1406499
PAST SALE,,Condo/Co-op,720 Fargo Ave Apt 7,San Leandro,CA,94579,457000,2,1.0,,840,,1965,,544,,,,,http://www.redfin.com/CA/San-Leandro/720-Fargo-Ave-94579/unit-7/home/17184420,,,N,Y,37.687827,-122.1410652
PAST SALE,October-31-2017,Townhouse,730 Fargo Ave #6,San Leandro,CA,94579,472000,3,2.5,Washington Manor,1136,,1965,99,415,306,Sold,,,http://www.redfin.com/CA/San-Leandro/730-Fargo-Ave-94579/unit-6/home/17183849,EBRD/CCAR/Bay East,40796206,N,Y,37.6878271,-122.1411568
PAST SALE,February-24-2017,Single Family Residential,15253 Wiley St,San Leandro,CA,94579,625000,3,2.0,Manor,1793,6720,1952,348,349,,Sold,,,http://www.redfin.com/CA/San-Leandro/15253-Wiley-St-94579/home/1568758,EBRD/CCAR/Bay East,40767417,N,Y,37.6869335,-122.1560717
PAST SALE,June-14-2017,Single Family Residential,2000 Alvarado St,San Leandro,CA,94577,795000,2,1.0,Downtown San Lea,4207,8876,1943,238,189,,Sold,,,http://www.redfin.com/CA/San-Leandro/2000-Alvarado-St-94577/home/110025031,EBRD/CCAR/Bay East,40776663,N,Y,37.7158429,-122.1587155
PAST SALE,April-11-2017,Condo/Co-op,1400 Carpentier St #234,San Leandro,CA,94577,425000,2,2.0,Pacific Plaza,1187,89146,1983,302,358,508,Sold,,,http://www.redfin.com/CA/San-Leandro/1400-Carpentier-St-94577/unit-234/home/1715253,EBRD/CCAR/Bay East,40773847,N,Y,37.7223489,-122.1582042
PAST SALE,October-11-2017,Single Family Residential,640 Saint Marys Ave,San Leandro,CA,94577,575000,3,2.5,San Leandro,1844,3644,1947,119,312,,Sold,,,http://www.redfin.com/CA/San-Leandro/640-Saint-Marys-Ave-94577/home/124389850,EBRD/CCAR/Bay East,40789725,N,Y,37.7340264,-122.1403697
PAST SALE,,Single Family Residential,1396 Marybelle Ave,San Leandro,CA,94577,135500,3,1.0,,1028,6875,1944,,132,,,,,http://www.redfin.com/CA/San-Leandro/1396-Marybelle-Ave-94577/home/1449455,,,N,Y,37.7172194,-122.1765876
PAST SALE,June-9-2017,Single Family Residential,1226 Amber Ct,SAN LEANDRO,CA,94577,730000,4,2.5,SAN LEANDRO,2091,3078,1995,243,349,48,Sold,,,http://www.redfin.com/CA/San-Leandro/1226-Amber-Ct-94577/home/1345387,MLSListings,ML81650023,N,Y,37.7256055,-122.1713376
PAST SALE,,Single Family Residential,755 Billings Blvd,San Leandro,CA,94577,495000,3,1.0,,888,5000,1943,,557,,,,,http://www.redfin.com/CA/San-Leandro/755-Billings-Blvd-94577/home/1272745,,,N,Y,37.723953,-122.1770252
PAST SALE,June-8-2017,Single Family Residential,934 Arthur Ave,San Leandro,CA,94577,540000,3,1.5,Davis Area,1231,5100,1942,244,439,,Sold,,,http://www.redfin.com/CA/San-Leandro/934-Arthur-Ave-94577/home/635460,EBRD/CCAR/Bay East,40778059,N,Y,37.723149,-122.172649
PAST SALE,June-21-2017,Condo/Co-op,,San Leandro,CA,94577,475000,2,2.0,Downtown,1728,36276,1982,231,275,456,Sold,,,http://www.redfin.com/CA/San-Leandro/Undisclosed-address-94577/home/1894286,EBRD/CCAR/Bay East,40781645,N,Y,37.7251682,-122.1597614
PAST SALE,August-10-2017,Single Family Residential,1281 Pearson Ave,San Leandro,CA,94577,650000,4,2.0,Davis Tract,1496,5000,1943,181,434,,Sold,,,http://www.redfin.com/CA/San-Leandro/1281-Pearson-Ave-94577/home/1928427,EBRD/CCAR/Bay East,40784289,N,Y,37.7190949,-122.1735933
PAST SALE,August-25-2017,Single Family Residential,220 Reva Ave,San Leandro,CA,94577,568000,2,1.0,Cherry Grove Vlg,1082,5046,1946,166,525,,Sold,,,http://www.redfin.com/CA/San-Leandro/220-Reva-Ave-94577/home/1462028,EBRD/CCAR/Bay East,40789913,N,Y,37.7242758,-122.1712725
PAST SALE,September-28-2017,Condo/Co-op,1599 Hays St #102,San Leandro,CA,94577,378000,2,2.0,San Leandro,811,,1965,132,466,261,Sold,,,http://www.redfin.com/CA/San-Leandro/1599-Hays-St-94577/unit-102/home/1512354,San Francisco MLS,461579,N,Y,37.7217481,-122.1560406
PAST SALE,September-29-2017,Condo/Co-op,1400 Carpentier St #318,San Leandro,CA,94577,345000,1,1.0,Downtown San Lea,812,89146,1983,131,425,462,Sold,,,http://www.redfin.com/CA/San-Leandro/1400-Carpentier-St-94577/unit-318/home/749402,EBRD/CCAR/Bay East,40796352,N,Y,37.7223489,-122.1582042
PAST SALE,October-10-2017,Condo/Co-op,1400 Carpentier St #120,San Leandro,CA,94577,327500,1,1.0,Alameda County,815,,1983,120,402,462,Sold,,,http://www.redfin.com/CA/San-Leandro/1400-Carpentier-St-94577/unit-120/home/1499733,EBRD/CCAR/Bay East,40793539,N,Y,37.7223489,-122.1582042
PAST SALE,,Single Family Residential,1846 Sundberg Ave,San Leandro,CA,94577,537000,3,2.0,,1404,5000,1953,,382,,,,,http://www.redfin.com/CA/San-Leandro/1846-Sundberg-Ave-94577/home/635616,,,N,Y,37.713317,-122.1689458
PAST SALE,,Condo/Co-op,1132 Carpentier St Apt 106,San Leandro,CA,94577,217000,2,2.0,,1182,,1983,,184,,,,,http://www.redfin.com/CA/San-Leandro/1132-Carpentier-St-94577/unit-106/home/1894296,,,N,Y,37.7248861,-122.1602419
PAST SALE,November-21-2017,Multi-Family (2-4 Unit),1591 Orchard Ave,San Leandro,CA,94577,671700,4,2.0,San Leandro,1776,5210,1980,78,378,,Sold,,,http://www.redfin.com/CA/San-Leandro/1591-Orchard-Ave-94577/home/751217,EBRD/CCAR/Bay East,40798662,N,Y,37.718236,-122.16359
PAST SALE,November-17-2017,Condo/Co-op,1400 Carpentier St #132,San Leandro,CA,94577,332700,1,1.5,Downtown San Lea,809,89146,1983,82,411,461,Sold,,,http://www.redfin.com/CA/San-Leandro/1400-Carpentier-St-94577/unit-132/home/967228,EBRD/CCAR/Bay East,40799414,N,Y,37.7223489,-122.1582042
PAST SALE,December-15-2017,Single Family Residential,1111 Arthur Ave,San Leandro,CA,94577,546000,2,1.0,Davis East,832,5200,1942,54,656,,Sold,,,http://www.redfin.com/CA/San-Leandro/1111-Arthur-Ave-94577/home/1834333,EBRD/CCAR/Bay East,40802379,N,Y,37.7216559,-122.1719087
PAST SALE,January-11-2018,Single Family Residential,1459 Leonard Dr,San Leandro,CA,94577,725000,4,3.5,Davis Tract,2300,5000,1953,27,315,,Sold,,,http://www.redfin.com/CA/San-Leandro/1459-Leonard-Dr-94577/home/1327243,EBRD/CCAR/Bay East,40802946,N,Y,37.7169628,-122.1739303
PAST SALE,January-29-2018,Single Family Residential,1105 Davis St,San Leandro,CA,94577,645000,3,3.0,Davis Street,1539,1131,2007,9,419,180,Sold,,,http://www.redfin.com/CA/San-Leandro/1105-Davis-St-94577/home/12117080,EBRD/CCAR/Bay East,40805682,N,Y,37.7216625,-122.1674067
PAST SALE,March-1-2017,Condo/Co-op,14053 Doolittle Dr,San Leandro,CA,94577-5537,420000,3,2.0,Marina Faire,1308,,1974,343,321,372,Sold,,,http://www.redfin.com/CA/San-Leandro/14053-Doolittle-Dr-94577/home/1805461,EBRD/CCAR/Bay East,40766342,N,Y,37.697384,-122.175641
PAST SALE,,Single Family Residential,14566 Nassau Rd,San Leandro,CA,94577,278500,3,2.0,,1546,5400,1962,,180,,,,,http://www.redfin.com/CA/San-Leandro/14566-Nassau-Rd-94577/home/1779344,,,N,Y,37.6931795,-122.1772697
PAST SALE,June-9-2017,Townhouse,13170 NEPTUNE Dr #1,San Leandro,CA,94577,550000,3,3.0,San Leandro,2356,2555,1997,243,233,,Sold,,,http://www.redfin.com/CA/San-Leandro/13170-Neptune-Dr-94577/unit-1/home/106213811,MLSListings,ML81434096,N,Y,37.701685,-122.188874
PAST SALE,,Single Family Residential,2022 Juneau St,San Leandro,CA,94577,200000,3,1.0,,1141,5000,1951,,175,,,,,http://www.redfin.com/CA/San-Leandro/2022-Juneau-St-94577/home/734367,,,N,Y,37.706596,-122.1821954
PAST SALE,June-27-2017,Condo/Co-op,2514 Galleon Pl,San Leandro,CA,94577-6406,546000,3,2.5,Marina Seagate,1660,999,1986,225,329,404,Sold,,,http://www.redfin.com/CA/San-Leandro/2514-Galleon-Pl-94577/unit-120/home/1812407,EBRD/CCAR/Bay East,40778529,N,Y,37.6922129,-122.1793353
PAST SALE,,Single Family Residential,2303 West Avenue 135th,San Leandro,CA,94577,350000,2,1.0,,928,13706,1948,,377,,,,,http://www.redfin.com/CA/San-Leandro/2303-West-Avenue-135th-94577/home/1994939,,,N,Y,37.701314,-122.180052
PAST SALE,July-25-2017,Single Family Residential,13463 Aurora Dr,San Leandro,CA,94577,750000,4,3.0,Mulford Gardens,1820,9000,1947,197,412,,Sold,,,http://www.redfin.com/CA/San-Leandro/13463-Aurora-Dr-94577/home/597599,EBRD/CCAR/Bay East,40786779,N,Y,37.6996966,-122.183471
PAST SALE,,Single Family Residential,2012 Liberty Way,San Leandro,CA,94579,171000,4,2.0,,2255,4632,1999,,76,,,,,http://www.redfin.com/CA/San-Leandro/2012-Liberty-Way-94579/home/1949250,,,N,Y,37.6858745,-122.162838
PAST SALE,December-4-2017,Condo/Co-op,14159 Outrigger Dr,San Leandro,CA,94577,505000,2,1.0,Marina Seagate,962,10974,1985,65,525,316,Sold,,,http://www.redfin.com/CA/San-Leandro/14159-Outrigger-Dr-94577/unit-16/home/1500739,EBRD/CCAR/Bay East,40803733,N,Y,37.6948333,-122.1819079
PAST SALE,November-28-2017,Condo/Co-op,13517 Aurora Dr #103,San Leandro,CA,94577,525000,3,2.0,Aurora Greens,1189,,1982,71,442,220,Sold,,,http://www.redfin.com/CA/San-Leandro/13517-Aurora-Dr-94577/unit-103/home/791368,EBRD/CCAR/Bay East,40803337,N,Y,37.698908,-122.183504
PAST SALE,December-15-2017,Condo/Co-op,2500 Outrigger Dr #216,San Leandro,CA,94577,530000,2,1.0,Seagate @ Marina,1033,,1986,54,513,316,Sold,,,http://www.redfin.com/CA/San-Leandro/2500-Outrigger-Dr-94577/unit-216/home/806091,EBRD/CCAR/Bay East,40802178,N,Y,37.6915221,-122.1791269
PAST SALE,January-10-2018,Single Family Residential,1561 Plaza Dr,San Leandro,CA,94578,362000,2,1.0,San Leandro Brdr,660,3182,1992,28,548,,Sold,,,http://www.redfin.com/CA/San-Leandro/1561-Plaza-Dr-94578/home/1391384,EBRD/CCAR/Bay East,40805296,N,Y,37.7047178,-122.1233067
PAST SALE,,Single Family Residential,1481 155th Ave,San Leandro,CA,94578,445000,3,2.0,,1264,3874,1953,,352,,,,,http://www.redfin.com/CA/San-Leandro/1481-155th-Ave-94578/home/1994966,,,N,Y,37.704224,-122.1238595
PAST SALE,January-4-2018,Single Family Residential,14966 Swenson St,San Leandro,CA,94579,618000,3,1.0,Washington Manor,1073,7670,1952,34,576,,Sold,,,http://www.redfin.com/CA/San-Leandro/14966-Swenson-St-94579/home/1102363,EBRD/CCAR/Bay East,40802338,N,Y,37.6920039,-122.142068
PAST SALE,June-26-2017,Single Family Residential,1078 Broadmoor Blvd,San Leandro,CA,94577-2144,535000,2,1.0,Broadmoor Area,1073,6566,1941,226,499,,Sold,,,http://www.redfin.com/CA/San-Leandro/1078-Broadmoor-Blvd-94577/home/2002233,EBRD/CCAR/Bay East,40782001,N,Y,37.7410227,-122.1459321
PAST SALE,January-26-2018,Condo/Co-op,1410 Thrush Ave #5,San Leandro,CA,94578,320500,2,1.0,San Leandro,749,,1994,12,428,313,Sold,,,http://www.redfin.com/CA/San-Leandro/1410-Thrush-Ave-94578/unit-5/home/1824717,EBRD/CCAR/Bay East,40801097,N,Y,37.7008373,-122.121107
PAST SALE,August-11-2017,Single Family Residential,121 Chumalia St,San Leandro,CA,94577,530000,3,1.0,Old San Leandro,1271,3780,1925,180,417,,Sold,,,http://www.redfin.com/CA/San-Leandro/121-Chumalia-St-94577/home/1460882,EBRD/CCAR/Bay East,40786551,N,Y,37.726865,-122.1558022
PAST SALE,November-9-2017,Single Family Residential,1290 Alder Creek Cir,San Leandro,CA,94577,688888,3,2.5,San Leandro,1567,3468,2002,90,440,,Sold,,,http://www.redfin.com/CA/San-Leandro/1290-Alder-Creek-Cir-94577/home/1463385,San Francisco MLS,462755,N,Y,37.7273174,-122.1710874
PAST SALE,July-25-2017,Multi-Family (2-4 Unit),16875 EHLE St,San Leandro,CA,94578,611000,3,2.0,San Leandro,1482,3810,1960,197,412,,Sold,,,http://www.redfin.com/CA/San-Leandro/16875-Ehle-St-94578/home/968015,EBRD/CCAR/Bay East,40776551,N,Y,37.6951583,-122.1024983
PAST SALE,,Single Family Residential,306 105th Ave,Oakland,CA,94603,45000,1,1.0,,663,6000,1918,,68,,,,,http://www.redfin.com/CA/Oakland/306-105th-Ave-94603/home/592100,,,N,Y,37.7260459,-122.181871
PAST SALE,October-4-2017,Single Family Residential,683 Black Pine Dr,San Leandro,CA,94577,645000,3,2.5,Pinewood,1420,3986,1989,126,454,85,Sold,,,http://www.redfin.com/CA/San-Leandro/683-Black-Pine-Dr-94577/home/1994733,EBRD/CCAR/Bay East,40791366,N,Y,37.7250955,-122.1805624
PAST SALE,,Single Family Residential,812 O'Donnell Ave,San Leandro,CA,94577,570000,3,1.0,,1473,5000,1951,,387,,,,,http://www.redfin.com/CA/San-Leandro/812-O-Donnell-Ave-94577/home/696598,,,N,Y,37.7229231,-122.1789266
PAST SALE,December-17-2017,Single Family Residential,9865 Empire Rd,Oakland,CA,94603,310000,2,1.0,Oakland,996,5668,1944,52,311,,Sold,,,http://www.redfin.com/CA/Oakland/9865-Empire-Rd-94603/home/1509509,EBRD/CCAR/Bay East,40801486,N,Y,37.7293038,-122.1903126
PAST SALE,,Single Family Residential,949 Melcher St,San Leandro,CA,94577,551000,3,1.0,,1164,5000,1944,,473,,,,,http://www.redfin.com/CA/San-Leandro/949-Melcher-St-94577/home/1622406,,,N,Y,37.7208894,-122.1797736
PAST SALE,,Multi-Family (2-4 Unit),511 Bancroft Ave,San Leandro,CA,94577,1495000,6,6.0,,5134,5981,1950,,291,,,,,http://www.redfin.com/CA/San-Leandro/511-Bancroft-Ave-94577/home/1834149,,,N,Y,37.735099,-122.1524744
PAST SALE,,Single Family Residential,154 Pontiac St,San Leandro,CA,94577,250000,2,1.0,,1060,5200,1940,,236,,,,,http://www.redfin.com/CA/San-Leandro/154-Pontiac-St-94577/home/1916932,,,N,Y,37.7359772,-122.1651375
PAST SALE,May-31-2017,Single Family Residential,113 Accolade Dr,San Leandro,CA,94577,650000,4,2.5,Cherrywood,1627,1869,2000,252,400,120,Sold,,,http://www.redfin.com/CA/San-Leandro/113-Accolade-Dr-94577/home/1312308,EBRD/CCAR/Bay East,40777413,N,Y,37.731218,-122.1709778
PAST SALE,,Single Family Residential,297 Garcia Ave,San Leandro,CA,94577,215000,2,1.0,,921,3627,1946,,233,,,,,http://www.redfin.com/CA/San-Leandro/297-Garcia-Ave-94577/home/749776,,,N,Y,37.7326711,-122.1659233
PAST SALE,June-16-2017,Single Family Residential,175 Euclid Ave,San Leandro,CA,94577,630000,2,2.0,Broadmoor,1475,6000,1946,236,427,,Sold,,,http://www.redfin.com/CA/San-Leandro/175-Euclid-Ave-94577/home/1067521,EBRD/CCAR/Bay East,40779142,N,Y,37.7327501,-122.1581931
PAST SALE,March-23-2017,Single Family Residential,329 Best Ave,San Leandro,CA,94577,625000,3,2.0,Farrelly Pond,1164,5170,1941,321,537,,Sold,,,http://www.redfin.com/CA/San-Leandro/329-Best-Ave-94577/home/1246975,EBRD/CCAR/Bay East,40768000,N,Y,37.7284799,-122.1640506
PAST SALE,July-27-2017,Single Family Residential,216 California Ave,San Leandro,CA,94577,671000,2,1.0,Best Manor,1196,3840,1925,195,561,,Sold,,,http://www.redfin.com/CA/San-Leandro/216-California-Ave-94577/home/754255,EBRD/CCAR/Bay East,40786902,N,Y,37.7275281,-122.1607438
PAST SALE,August-10-2017,Multi-Family (2-4 Unit),97 Begier Ave,San Leandro,CA,94577,826000,4,2.0,San Leandro,1774,7162,1953,181,466,,Sold,,,http://www.redfin.com/CA/San-Leandro/97-Begier-Ave-94577/home/2015155,EBRD/CCAR/Bay East,40787709,N,Y,37.7295045,-122.1578135
PAST SALE,,Condo/Co-op,1589 Chandler St #117,Oakland,CA,94603,350000,2,2.0,,932,,2002,,376,,,,,http://www.redfin.com/CA/Oakland/1589-Chandler-St-94603/unit-117/home/1963067,,,N,Y,37.7384094,-122.1630595
PAST SALE,August-18-2017,Single Family Residential,338 Accolade Dr,San Leandro,CA,94577-1591,685000,3,2.5,Cherrywood,1599,2280,2002,173,428,120,Sold,,,http://www.redfin.com/CA/San-Leandro/338-Accolade-Dr-94577/home/548586,EBRD/CCAR/Bay East,40791990,N,Y,37.7303857,-122.1716341
PAST SALE,August-23-2017,Single Family Residential,1181 Alder Creek Cir,San Leandro,CA,94577,760000,3,2.5,San Leandro Brdr,1773,4744,2003,168,429,150,Sold,,,http://www.redfin.com/CA/San-Leandro/1181-Alder-Creek-Cir-94577/home/1983390,EBRD/CCAR/Bay East,40791661,N,Y,37.7275647,-122.1703073
PAST SALE,October-13-2017,Single Family Residential,221 Lorraine Blvd,San Leandro,CA,94577,730000,3,2.0,Downtown San Lea,1786,4600,1941,117,409,,Sold,,,http://www.redfin.com/CA/San-Leandro/221-Lorraine-Blvd-94577/home/1254211,EBRD/CCAR/Bay East,40795625,N,Y,37.7284072,-122.1605882
PAST SALE,October-18-2017,Single Family Residential,163 Euclid Ave,San Leandro,CA,94577,665000,3,2.0,Broadmoor,1334,7500,1945,112,499,,Sold,,,http://www.redfin.com/CA/San-Leandro/163-Euclid-Ave-94577/home/1809799,EBRD/CCAR/Bay East,40797063,N,Y,37.7326777,-122.1583184
PAST SALE,November-21-2017,Condo/Co-op,1515 Chandler St #88,Oakland,CA,94603,360000,2,2.0,Durant,932,,2002,78,386,305,Sold,,,http://www.redfin.com/CA/Oakland/1515-Chandler-St-94603/unit-88/home/1963002,EBRD/CCAR/Bay East,40800429,N,Y,37.738003,-122.163955
PAST SALE,October-5-2017,Single Family Residential,123 Farrelly Dr,SAN LEANDRO,CA,94577,525000,2,1.0,SAN LEANDRO,1310,5000,1947,125,401,,Sold,,,http://www.redfin.com/CA/San-Leandro/123-Farrelly-Dr-94577/home/1480792,MLSListings,ML81672291,N,Y,37.7350197,-122.1642187
PAST SALE,,Single Family Residential,669 Catron Dr,Oakland,CA,94603,637500,5,2.0,,2055,4240,1944,,310,,,,,http://www.redfin.com/CA/Oakland/669-Catron-Dr-94603/home/1290037,,,N,Y,37.7283987,-122.1720136
PAST SALE,November-8-2017,Townhouse,290 Chumalia St,San Leandro,CA,94577,420000,2,1.5,Assumption Parsh,1240,,1978,91,339,240,Sold,,,http://www.redfin.com/CA/San-Leandro/290-Chumalia-St-94577/unit-1/home/890531,EBRD/CCAR/Bay East,40798640,N,Y,37.727663,-122.1543092
PAST SALE,January-8-2018,Single Family Residential,1215 106th Ave,Oakland,CA,94603,550000,4,3.0,E Oakland,2400,7500,1910,30,229,,Sold,,,http://www.redfin.com/CA/Oakland/1215-106th-Ave-94603/home/1224402,EBRD/CCAR/Bay East,40794477,N,Y,37.7370485,-122.1700594
PAST SALE,May-10-2017,Single Family Residential,988 Collier Dr,San Leandro,CA,94577,780000,3,2.0,San Leandro,1919,10404,1937,273,406,,Sold,,,http://www.redfin.com/CA/San-Leandro/988-Collier-Dr-94577/home/1706094,EBRD/CCAR/Bay East,40776344,N,Y,37.7309726,-122.1401024
PAST SALE,June-27-2017,Single Family Residential,946 Rodney Dr,San Leandro,CA,94577,800000,2,2.0,San Leandro,1731,12465,1930,225,462,,Sold,,,http://www.redfin.com/CA/San-Leandro/946-Rodney-Dr-94577/home/757624,EBRD/CCAR/Bay East,40778052,N,Y,37.7309369,-122.1414439
PAST SALE,July-7-2017,Single Family Residential,417 Lewis Ave,San Leandro,CA,94577,715000,2,1.0,Broadmoor,1083,6150,1926,215,660,,Sold,,,http://www.redfin.com/CA/San-Leandro/417-Lewis-Ave-94577/home/757966,EBRD/CCAR/Bay East,40783608,N,Y,37.737982,-122.1442131
PAST SALE,March-24-2017,Condo/Co-op,2077 Washington Ave #312,San Leandro,CA,94577,370000,2,2.0,Estabrook,960,,1984,320,385,375,Sold,,,http://www.redfin.com/CA/San-Leandro/2077-Washington-Ave-94577/unit-312/home/1692900,EBRD/CCAR/Bay East,40770102,N,Y,37.717787,-122.1521834
PAST SALE,,Condo/Co-op,680 Fargo Ave Apt 18,San Leandro,CA,94579,382400,2,1.0,,850,,1965,,450,,,,,http://www.redfin.com/CA/San-Leandro/680-Fargo-Ave-94579/unit-18/home/17184424,,,N,Y,37.6875672,-122.1406499
PAST SALE,,Single Family Residential,15265 Laverne Dr,San Leandro,CA,94579,220000,3,2.0,,1169,5700,1959,,188,,,,,http://www.redfin.com/CA/San-Leandro/15265-Laverne-Dr-94579/home/1173996,,,N,Y,37.6854067,-122.1577154
PAST SALE,,Condo/Co-op,690 Fargo Ave Apt 5,San Leandro,CA,94579,365000,2,1.0,,1020,,1965,,358,,,,,http://www.redfin.com/CA/San-Leandro/690-Fargo-Ave-94579/unit-5/home/17184517,,,N,Y,37.6878373,-122.1408837
PAST SALE,April-27-2017,Single Family Residential,255 Toler Ave,San Leandro,CA,94577,625000,4,2.0,Downtown,1350,4800,1921,286,463,,Sold,,,http://www.redfin.com/CA/San-Leandro/255-Toler-Ave-94577/home/1227558,EBRD/CCAR/Bay East,40774510,N,Y,37.7268129,-122.1595003
PAST SALE,April-28-2017,Condo/Co-op,1480 Thrush Ave #35,San Leandro,CA,94578,312000,2,1.0,Bay Fair,749,,1994,285,417,313,Sold,,,http://www.redfin.com/CA/San-Leandro/1480-Thrush-Ave-94578/unit-35/home/1917495,EBRD/CCAR/Bay East,40774523,N,Y,37.7013,-122.12096
PAST SALE,,Condo/Co-op,650 Fargo Ave Apt 2,San Leandro,CA,94579,435000,3,2.0,,1136,,1965,,383,,,,,http://www.redfin.com/CA/San-Leandro/650-Fargo-Ave-94579/unit-2/home/17185273,,,N,Y,37.6878636,-122.1402881
PAST SALE,May-10-2017,Single Family Residential,2420 Marineview Dr,San Leandro,CA,94577,860000,4,2.0,Bay O Vista,2516,10160,1964,273,342,,Sold,,,http://www.redfin.com/CA/San-Leandro/2420-Marineview-Dr-94577/home/1370395,EBRD/CCAR/Bay East,40775401,N,Y,37.722729,-122.1279776
PAST SALE,,Condo/Co-op,690 Fargo Ave Apt 10,San Leandro,CA,94579,370000,2,1.0,,1020,,1965,,363,,,,,http://www.redfin.com/CA/San-Leandro/690-Fargo-Ave-94579/unit-10/home/17183503,,,N,Y,37.6878373,-122.1408837
PAST SALE,May-9-2017,Single Family Residential,1254 Fordham Ave,SAN LEANDRO,CA,94579,660000,3,2.0,SAN LEANDRO,1506,5397,1951,274,438,,Sold,,,http://www.redfin.com/CA/San-Leandro/1254-Fordham-Ave-94579/home/1312373,MLSListings,ML81645281,N,Y,37.6993889,-122.15542
PAST SALE,May-5-2017,Single Family Residential,1310 Drake Ave,San Leandro,CA,94579,659000,4,3.0,Washington Manor,1799,5035,1951,278,366,,Sold,,,http://www.redfin.com/CA/San-Leandro/1310-Drake-Ave-94579/home/667088,EBRD/CCAR/Bay East,40772087,N,Y,37.6973478,-122.1541218
PAST SALE,May-3-2017,Townhouse,14036 Reed Ave,San Leandro,CA,94578,423000,2,2.0,San Leandro,1084,667,1973,280,390,355,Sold,,,http://www.redfin.com/CA/San-Leandro/14036-Reed-Ave-94578/home/1960311,EBRD/CCAR/Bay East,40774648,N,Y,37.711834,-122.140523
PAST SALE,May-8-2017,Single Family Residential,14681 Aurelia Way,San Leandro,CA,94578,630000,3,2.0,San Leandro Hlls,1680,4998,1944,275,375,,Sold,,,http://www.redfin.com/CA/San-Leandro/14681-Aurelia-Way-94578/home/842527,EBRD/CCAR/Bay East,40770045,N,Y,37.7149452,-122.124694
PAST SALE,May-11-2017,Single Family Residential,1313 Advent Ave,San Leandro,CA,94579,590000,3,1.0,Alameda County,1114,5040,1951,272,530,,Sold,,,http://www.redfin.com/CA/San-Leandro/1313-Advent-Ave-94579/home/810153,EBRD/CCAR/Bay East,40777605,N,Y,37.6907982,-122.1536163
PAST SALE,May-12-2017,Single Family Residential,1198 Begier Ave,San Leandro,CA,94577,950000,3,2.0,San Leandro,2204,5684,1938,271,431,,Sold,,,http://www.redfin.com/CA/San-Leandro/1198-Begier-Ave-94577/home/759901,EBRD/CCAR/Bay East,40775204,N,Y,37.7330087,-122.1435421
PAST SALE,May-22-2017,Single Family Residential,719 Oakes Blvd,San Leandro,CA,94577,893500,4,2.5,San Leandro,2506,5500,1942,261,357,,Sold,,,http://www.redfin.com/CA/San-Leandro/719-Oakes-Blvd-94577/home/758509,EBRD/CCAR/Bay East,40774114,N,Y,37.7331596,-122.148623
PAST SALE,May-17-2017,Single Family Residential,1565 Plaza Dr,San Leandro,CA,94578,400000,1,1.0,Bay Fair,757,2880,1931,266,528,,Sold,,,http://www.redfin.com/CA/San-Leandro/1565-Plaza-Dr-94578/home/1551344,EBRD/CCAR/Bay East,40773792,N,Y,37.7050041,-122.1232801
PAST SALE,May-19-2017,Single Family Residential,234 Oakes Blvd,San Leandro,CA,94577,705000,3,1.5,Creekside,1772,4880,1920,264,398,,Sold,,,http://www.redfin.com/CA/San-Leandro/234-Oakes-Blvd-94577/home/1046356,EBRD/CCAR/Bay East,40776163,N,Y,37.731632,-122.1560583
PAST SALE,,Condo/Co-op,720 Fargo Ave Apt 1,San Leandro,CA,94579,361000,2,1.0,,840,,1965,,430,,,,,http://www.redfin.com/CA/San-Leandro/720-Fargo-Ave-94579/unit-1/home/17184421,,,N,Y,37.687827,-122.1410652
PAST SALE,,Single Family Residential,3420 Del Rio Cir,San Leandro,CA,94578,570000,3,2.0,,1136,5096,1956,,502,,,,,http://www.redfin.com/CA/San-Leandro/3420-Del-Rio-Cir-94578/home/985293,,,N,Y,37.7040407,-122.1473651
PAST SALE,,Condo/Co-op,720 Fargo Ave Apt 3,San Leandro,CA,94579,364000,2,1.0,,840,,1965,,433,,,,,http://www.redfin.com/CA/San-Leandro/720-Fargo-Ave-94579/unit-3/home/17183563,,,N,Y,37.687827,-122.1410652
PAST SALE,May-26-2017,Single Family Residential,227 Marlow Dr,Oakland,CA,94605,711000,2,1.0,Oakland,972,8438,1941,257,731,8,Sold,,,http://www.redfin.com/CA/Oakland/227-Marlow-Dr-94605/home/1142281,EBRD/CCAR/Bay East,40776565,N,Y,37.7357461,-122.1346746
PAST SALE,June-1-2017,Condo/Co-op,1400 Carpentier St #233,San Leandro,CA,94577,435000,2,2.0,Pacific Plaza,1139,89146,1983,251,382,508,Sold,,,http://www.redfin.com/CA/San-Leandro/1400-Carpentier-St-94577/unit-233/home/529636,EBRD/CCAR/Bay East,40784004,N,Y,37.7223489,-122.1582042
PAST SALE,May-26-2017,Single Family Residential,14848 Crosby St,San Leandro,CA,94579,580000,3,2.0,Washington Manor,1148,5035,1956,257,505,,Sold,,,http://www.redfin.com/CA/San-Leandro/14848-Crosby-St-94579/home/1673937,EBRD/CCAR/Bay East,40777089,N,Y,37.6958688,-122.1461043
PAST SALE,,Single Family Residential,1518 139th Ave,San Leandro,CA,94578,550000,3,1.0,,1028,5152,1946,,535,,,,,http://www.redfin.com/CA/San-Leandro/1518-139th-Ave-94578/home/1623041,,,N,Y,37.7150556,-122.138477
PAST SALE,May-23-2017,Multi-Family (2-4 Unit),15165 Golden Gate Dr,San Leandro,CA,94579,485000,0,2.0,San Leandro,792,3497,1947,260,612,,Sold,,,http://www.redfin.com/CA/San-Leandro/15165-Golden-Gate-Dr-94579/home/1513345,EBRD/CCAR/Bay East,40765459,N,Y,37.6881617,-122.1413799
PAST SALE,April-20-2017,Single Family Residential,1525 155th,San Leandro,CA,94578-1924,555000,3,2.0,San Leandro Terr,1205,4000,1949,293,461,,Sold,,,http://www.redfin.com/CA/San-Leandro/1525-155th-Ave-94578/home/1273302,EBRD/CCAR/Bay East,40776472,N,Y,37.7043072,-122.1237862
PAST SALE,,Single Family Residential,371 MacArthur Blvd,San Leandro,CA,94577,480000,2,1.0,,898,3350,1917,,535,,,,,http://www.redfin.com/CA/San-Leandro/371-MacArthur-Blvd-94577/home/1858891,,,N,Y,37.7393382,-122.1459111
PAST SALE,June-9-2017,Single Family Residential,295 Oakes Blvd,San Leandro,CA,94577,785000,3,2.0,San Leandro,1418,6528,1915,243,554,,Sold,,,http://www.redfin.com/CA/San-Leandro/295-Oakes-Blvd-94577/home/531910,EBRD/CCAR/Bay East,40777531,N,Y,37.7314216,-122.1552678
PAST SALE,June-16-2017,Single Family Residential,1279 139th Ave,San Leandro,CA,94578,580000,3,1.5,Old San Leandro,1354,5150,1947,236,428,,Sold,,,http://www.redfin.com/CA/San-Leandro/1279-139th-Ave-94578/home/1659192,EBRD/CCAR/Bay East,40778096,N,Y,37.7126313,-122.1415342
PAST SALE,,Condo/Co-op,740 Fargo Ave Apt 6,San Leandro,CA,94579,363000,2,1.0,,840,,1965,,432,,,,,http://www.redfin.com/CA/San-Leandro/740-Fargo-Ave-94579/unit-6/home/17185281,,,N,Y,37.687832,-122.1412667
PAST SALE,,Single Family Residential,13547 Aurora Dr,San Leandro,CA,94577,9600000,10,6.0,,4411,56000,1947,,2176,,,,,http://www.redfin.com/CA/San-Leandro/13547-Aurora-Dr-94577/home/95473383,,,N,Y,37.6986403,-122.1827711
PAST SALE,February-21-2017,Single Family Residential,,San Leandro,CA,94578,513000,2,1.0,Bay Fair,1120,4800,1948,351,458,,Sold,,,http://www.redfin.com/CA/SAN-LORENZO/Undisclosed-address-94580/home/930829,EBRD/CCAR/Bay East,40766520,N,Y,37.707375,-122.126088
PAST SALE,June-19-2017,Single Family Residential,1340 Carpentier St,San Leandro,CA,94577,488000,2,2.0,Downtown San Lea,990,1700,1940,233,493,,Sold,,,http://www.redfin.com/CA/San-Leandro/1340-Carpentier-St-94577/home/749278,EBRD/CCAR/Bay East,40775444,N,Y,37.7231896,-122.159197
PAST SALE,June-26-2017,Single Family Residential,3995 Mission Way,San Leandro,CA,94578,575000,3,2.0,Floresta Gardens,1253,5418,1958,226,459,,Sold,,,http://www.redfin.com/CA/San-Leandro/3995-Mission-Way-94578/home/577306,EBRD/CCAR/Bay East,40780894,N,Y,37.6953766,-122.1406422
PAST SALE,,Condo/Co-op,3833 Yorkshire St,San Leandro,CA,94578,411000,2,2.0,,918,,1987,,448,,,,,http://www.redfin.com/CA/San-Leandro/3833-Yorkshire-St-94578/home/1299811,,,N,Y,37.699073,-122.144404
PAST SALE,,Single Family Residential,522 Joaquin Ave,San Leandro,CA,94577,460000,1,1.0,,996,4905,1923,,462,,,,,http://www.redfin.com/CA/San-Leandro/522-Joaquin-Ave-94577/home/1891268,,,N,Y,37.726039,-122.1492463
PAST SALE,,Townhouse,2409 Blackpool Ln,San Leandro,CA,94577,510000,2,2.0,,1659,2219,1977,,307,,,,,http://www.redfin.com/CA/San-Leandro/2409-Blackpool-Ln-94577/home/766530,,,N,Y,37.7161659,-122.1482512
PAST SALE,July-3-2017,Condo/Co-op,1400 Carpentier St #437,San Leandro,CA,94577,430000,2,2.0,Pacific Plaza,1193,89146,1983,219,360,509,Sold,,,http://www.redfin.com/CA/San-Leandro/1400-Carpentier-St-94577/unit-437/home/1567842,EBRD/CCAR/Bay East,40785906,N,Y,37.7223489,-122.1582042
PAST SALE,,Single Family Residential,840 Emerald Ave,San Leandro,CA,94577,600000,3,1.0,,1331,5820,1947,,451,,,,,http://www.redfin.com/CA/San-Leandro/840-Emerald-Ave-94577/home/1416514,,,N,Y,37.7239337,-122.1406535
PAST SALE,July-7-2017,Single Family Residential,15521 Ronconi Dr,San Lorenzo,CA,94580,660000,3,2.5,Cottage Square,1388,3057,1999,215,476,88,Sold,,,http://www.redfin.com/CA/San-Lorenzo/15521-Ronconi-Dr-94580/home/1923959,EBRD/CCAR/Bay East,40774613,N,Y,37.6842727,-122.1381481
PAST SALE,April-10-2017,Condo/Co-op,15335 Washington Ave #303,San Leandro,CA,94579,380000,2,2.0,Washington Pines,1010,38943,1985,303,376,398,Sold,,,http://www.redfin.com/CA/San-Leandro/15335-Washington-Ave-94579/unit-303/home/930987,EBRD/CCAR/Bay East,40764954,N,Y,37.6853906,-122.1392855
PAST SALE,April-10-2017,Single Family Residential,14868 Crosby St,San Leandro,CA,94579,625000,3,2.0,Washington Manor,1543,5035,1956,303,405,,Sold,,,http://www.redfin.com/CA/San-Leandro/14868-Crosby-St-94579/home/624667,EBRD/CCAR/Bay East,40769756,N,Y,37.6953781,-122.1454169
PAST SALE,July-14-2017,Single Family Residential,1284 Avon,San Leandro,CA,94579,655000,3,1.0,Washington Manor,1579,5320,1953,208,415,,Sold,,,http://www.redfin.com/CA/San-Leandro/1284-Avon-Ave-94579/home/2002133,EBRD/CCAR/Bay East,40784668,N,Y,37.6931281,-122.1539342
PAST SALE,May-5-2017,Single Family Residential,490 Superior Ave,San Leandro,CA,94577,678000,2,1.0,Broadmoor/Dutton,1142,5360,1927,278,594,,Sold,,,http://www.redfin.com/CA/San-Leandro/490-Superior-Ave-94577/home/756342,EBRD/CCAR/Bay East,40775854,N,Y,37.7365128,-122.1428988
PAST SALE,April-10-2017,Single Family Residential,137 Harlan St,San Leandro,CA,94577-5820,555000,2,1.0,Alameda,1194,6000,1940,303,465,,Sold,,,http://www.redfin.com/CA/San-Leandro/137-Harlan-St-94577/home/1778873,EBRD/CCAR/Bay East,40772355,N,Y,37.718772,-122.1511234
PAST SALE,,Condo/Co-op,15065 Hesperian Blvd Apt 26,San Leandro,CA,94578,370000,2,1.0,,771,,1985,,480,,,,,http://www.redfin.com/CA/San-Leandro/15065-Hesperian-Blvd-94578/unit-26/home/1171802,,,N,Y,37.7032412,-122.1310394
PAST SALE,April-13-2017,Single Family Residential,14942 Western Ave,San Leandro,CA,94578,580000,3,2.0,Bay Fair,1395,10148,1946,300,416,,Sold,,,http://www.redfin.com/CA/San-Leandro/14942-Western-Ave-94578/home/1036400,EBRD/CCAR/Bay East,40762777,N,Y,37.7027023,-122.1340333
PAST SALE,April-21-2017,Single Family Residential,15984 Windsor Dr,San Leandro,CA,94578,635000,3,2.0,Alameda,1683,5500,1947,292,377,,Sold,,,http://www.redfin.com/CA/San-Leandro/15984-Windsor-Dr-94578/home/795617,EBRD/CCAR/Bay East,40778307,N,Y,37.7060702,-122.1128809
PAST SALE,July-24-2017,Single Family Residential,15960 Windsor Dr,San Leandro,CA,94578,635000,2,2.0,San Leandro Hlls,1067,4992,1947,198,595,,Sold,,,http://www.redfin.com/CA/San-Leandro/15960-Windsor-Dr-94578/home/1820156,EBRD/CCAR/Bay East,40785934,N,Y,37.7062244,-122.113152
PAST SALE,July-25-2017,Single Family Residential,711 Arbor Dr,San Leandro,CA,94577,827000,5,2.0,San Leandro,2180,4635,1930,197,379,,Sold,,,http://www.redfin.com/CA/San-Leandro/711-Arbor-Dr-94577/home/1872652,EBRD/CCAR/Bay East,40783306,N,Y,37.732377,-122.1517792
PAST SALE,,Single Family Residential,1451 Abbey Ave,San Leandro,CA,94579,550000,3,1.0,,1241,7590,1952,,443,,,,,http://www.redfin.com/CA/San-Leandro/1451-Abbey-Ave-94579/home/1955939,,,N,Y,37.6867009,-122.1551769
PAST SALE,,Single Family Residential,2350 108th Ave,Oakland,CA,94603,277000,2,1.0,,814,2640,1927,,340,,,,,http://www.redfin.com/CA/Oakland/2350-108th-Ave-94603/home/1775789,,,N,Y,37.7407708,-122.1537198
PAST SALE,July-31-2017,Townhouse,1742 150Th Ave,San Leandro,CA,94578,521000,2,2.0,Casa Leandro,1197,2267,1977,191,435,125,Sold,,,http://www.redfin.com/CA/San-Leandro/1742-150th-Ave-94578/home/795712,EBRD/CCAR/Bay East,40786246,N,Y,37.708118,-122.124628
PAST SALE,July-28-2017,Single Family Residential,1264 144Th Ave,San Leandro,CA,94578,400000,2,1.0,Halcyon,508,2875,1920,194,787,,Sold,,,http://www.redfin.com/CA/San-Leandro/1264-144th-Ave-94578/home/683489,EBRD/CCAR/Bay East,40785805,N,Y,37.7091629,-122.138207
PAST SALE,August-31-2017,Single Family Residential,1374 Glen,San Leandro,CA,94577,975000,3,3.0,San Leandro,2727,7725,1938,160,358,,Sold,,,http://www.redfin.com/CA/San-Leandro/1374-Glen-Dr-94577/home/1994625,EBRD/CCAR/Bay East,40790431,N,Y,37.7324942,-122.1420051
PAST SALE,August-11-2017,Single Family Residential,2420 109th Ave,Oakland,CA,94603,525000,2,1.0,Las Palmas,1094,4040,1939,180,480,,Sold,,,http://www.redfin.com/CA/Oakland/2420-109th-Ave-94603/home/886455,EBRD/CCAR/Bay East,40790577,N,Y,37.7404986,-122.151986
PAST SALE,August-10-2017,Single Family Residential,455 Castro St,San Leandro,CA,94577,550000,2,2.0,San Leandro Brdr,839,6000,1942,181,656,,Sold,,,http://www.redfin.com/CA/San-Leandro/455-Castro-St-94577/home/1172615,EBRD/CCAR/Bay East,40785806,N,Y,37.718123,-122.1554395
PAST SALE,August-16-2017,Condo/Co-op,16006 E 14th St #205,San Leandro,CA,94578,300000,1,1.0,Ashland,659,,1987,175,455,315,Sold,,,http://www.redfin.com/CA/San-Leandro/16006-E-14th-St-94578/unit-205/home/12117108,EBRD/CCAR/Bay East,40789244,N,Y,37.6986617,-122.1188434
PAST SALE,August-18-2017,Single Family Residential,3921 Carmel Way,San Leandro,CA,94578,641000,3,2.0,Floresta,1216,5760,1955,173,527,,Sold,,,http://www.redfin.com/CA/San-Leandro/3921-Carmel-Way-94578/home/1449583,EBRD/CCAR/Bay East,40790773,N,Y,37.6980547,-122.1428018
PAST SALE,August-18-2017,Single Family Residential,1316 Benedict Dr,San Leandro,CA,94577,700000,4,2.0,Bay O Vista,1956,5600,1951,173,358,,Sold,,,http://www.redfin.com/CA/San-Leandro/1316-Benedict-Dr-94577/home/1779719,EBRD/CCAR/Bay East,40781917,N,Y,37.7295295,-122.1376939
PAST SALE,August-18-2017,Single Family Residential,2020 Howe Dr,San Leandro,CA,94578,780000,5,3.0,Hillcrest Knolls,2261,6800,1944,173,345,,Sold,,,http://www.redfin.com/CA/San-Leandro/2020-Howe-Dr-94578/home/789991,EBRD/CCAR/Bay East,40788838,N,Y,37.7149628,-122.1277666
PAST SALE,August-17-2017,Single Family Residential,15032 Crosby St,San Leandro,CA,94579,755000,5,3.0,San Leandro,2312,5900,1948,174,327,,Sold,,,http://www.redfin.com/CA/San-Leandro/15032-Crosby-St-94579/home/1779429,CRMLS,TR17072507,N,Y,37.6907073,-122.1435152
PAST SALE,,Multi-Family (2-4 Unit),663 Dutton Ave,San Leandro,CA,94577,868000,4,4.0,,3146,6600,1935,,276,,,,,http://www.redfin.com/CA/San-Leandro/663-Dutton-Ave-94577/home/1883326,,,N,Y,37.733579,-122.150027
PAST SALE,August-28-2017,Condo/Co-op,1508 136Th Ave,San Leandro,CA,94578,410000,2,1.0,Colonial Gardens,811,,1970,163,506,259,Sold,,,http://www.redfin.com/CA/San-Leandro/1508-136th-Ave-94578/unit-2/home/1939699,EBRD/CCAR/Bay East,40786210,N,Y,37.715984,-122.14054
PAST SALE,September-22-2017,Single Family Residential,2097 Hillside Cir,San Leandro,CA,94577,970000,4,3.0,Bay O Vista,2476,10255,1976,138,392,,Sold,,,http://www.redfin.com/CA/San-Leandro/2097-Hillside-Cir-94577/home/2041619,EBRD/CCAR/Bay East,40792630,N,Y,37.7229752,-122.1341799
PAST SALE,September-5-2017,Single Family Residential,1389 Sandelin Ave,San Leandro,CA,94577,700000,3,2.0,Bay O Vista,1912,7500,1947,155,366,,Sold,,,http://www.redfin.com/CA/San-Leandro/1389-Sandelin-Ave-94577/home/985698,EBRD/CCAR/Bay East,40783820,N,Y,37.7302511,-122.1349654
PAST SALE,August-24-2017,Single Family Residential,109 BREED Ave,San Leandro,CA,94577,545000,2,1.0,Broadmoor Manor,1116,2325,1930,167,488,,Sold,,,http://www.redfin.com/CA/San-Leandro/109-Breed-Ave-94577/home/949305,EBRD/CCAR/Bay East,40784162,N,Y,37.7375428,-122.1601958
PAST SALE,September-8-2017,Single Family Residential,10724 Bancroft Ave,OAKLAND,CA,94603,435000,3,1.0,OAKLAND,1043,5355,1944,152,417,,Sold,,,http://www.redfin.com/CA/Oakland/10724-Bancroft-Ave-94603/home/963717,MLSListings,ML81667939,N,Y,37.7406095,-122.1558764
PAST SALE,September-7-2017,Single Family Residential,655 Begier Ave,San Leandro,CA,94577,885000,3,2.0,San Leandro,1954,4664,1938,153,453,,Sold,,,http://www.redfin.com/CA/San-Leandro/655-Begier-Ave-94577/home/1260460,EBRD/CCAR/Bay East,40792825,N,Y,37.7323069,-122.1488426
PAST SALE,September-10-2017,Single Family Residential,797 arguello Dr,San Leandro,CA,94578,695000,3,2.0,Floresta Gardens,1635,5035,1955,150,425,,Sold,,,http://www.redfin.com/CA/San-Leandro/797-Arguello-Dr-94578/home/2002383,EBRD/CCAR/Bay East,40788695,N,Y,37.702201,-122.147518
PAST SALE,,Single Family Residential,916 Bridge Rd,San Leandro,CA,94577,725000,4,1.0,,2195,4888,1936,,330,,,,,http://www.redfin.com/CA/San-Leandro/916-Bridge-Rd-94577/home/756494,,,N,Y,37.7299699,-122.1414083
PAST SALE,,Condo/Co-op,1550 Bancroft Ave Apt 331,San Leandro,CA,94577,499500,3,2.0,,1690,,1976,,296,,,,,http://www.redfin.com/CA/San-Leandro/1550-Bancroft-Ave-94577/unit-331/home/1369713,,,N,Y,37.7250509,-122.1464763
PAST SALE,September-21-2017,Multi-Family (2-4 Unit),310 Albion Ave,San Lorenzo,CA,94580-1643,1225000,8,4.0,San Lorenzo,3428,5400,1963,139,357,,Sold,,,http://www.redfin.com/CA/San-Lorenzo/310-Albion-Ave-94580/home/2032381,EBRD/CCAR/Bay East,40784811,N,Y,37.6854397,-122.1276883
PAST SALE,September-22-2017,Single Family Residential,2230 107th,Oakland,CA,94603,425000,3,2.0,Ivy Wood Ext.,1197,4040,1939,138,355,,Sold,,,http://www.redfin.com/CA/Oakland/2230-107th-Ave-94603/home/1377446,EBRD/CCAR/Bay East,40786800,N,Y,37.7409945,-122.1554841
PAST SALE,October-3-2017,Single Family Residential,604 Oakes Blvd,San Leandro,CA,94577,900000,3,1.5,San Leandro,2109,4950,1934,127,427,,Sold,,,http://www.redfin.com/CA/San-Leandro/604-Oakes-Blvd-94577/home/758406,EBRD/CCAR/Bay East,40793754,N,Y,37.733261,-122.1500056
PAST SALE,September-29-2017,Multi-Family (2-4 Unit),1224 135Th Ave,San Leandro,CA,94578,695000,4,2.0,Mis-Match,1925,5942,1950,131,361,,Sold,,,http://www.redfin.com/CA/San-Leandro/1224-135th-Ave-94578/home/2001878,EBRD/CCAR/Bay East,40785041,N,Y,37.714646,-122.145645
PAST SALE,October-6-2017,Single Family Residential,378 Aloha Dr,San Leandro,CA,94578,642000,3,1.5,Alameda County,1195,5000,1954,124,537,,Sold,,,http://www.redfin.com/CA/San-Leandro/378-Aloha-Dr-94578/home/1281488,EBRD/CCAR/Bay East,40794333,N,Y,37.6945042,-122.1399008
PAST SALE,July-13-2017,Single Family Residential,961 Glen Dr,San Leandro,CA,94577-3847,955000,3,2.0,San Leandro,1941,11600,1929,209,492,,Sold,,,http://www.redfin.com/CA/San-Leandro/961-Glen-Dr-94577/home/1917019,EBRD/CCAR/Bay East,40782064,N,Y,37.7318747,-122.1464102
PAST SALE,October-16-2017,Condo/Co-op,1510 136Th Ave,San Leandro,CA,94578,415000,2,1.0,Colonial Gardens,811,,1970,114,512,265,Sold,,,http://www.redfin.com/CA/San-Leandro/1510-136th-Ave-94578/unit-U1/home/1989280,EBRD/CCAR/Bay East,40798129,N,Y,37.7161876,-122.1406597
PAST SALE,,Single Family Residential,1589 Cedar Ave,San Leandro,CA,94579,610000,3,1.0,,1076,5035,1952,,567,,,,,http://www.redfin.com/CA/San-Leandro/1589-Cedar-Ave-94579/home/771067,,,N,Y,37.701346,-122.1617442
PAST SALE,,Single Family Residential,2021 Eveleth Ave,San Leandro,CA,94577,620000,3,2.0,,1431,5650,1952,,433,,,,,http://www.redfin.com/CA/San-Leandro/2021-Eveleth-Ave-94577/home/1622490,,,N,Y,37.7140204,-122.1627599
PAST SALE,October-17-2017,Single Family Residential,13553 School St,San Leandro,CA,94578,670000,3,2.0,Assumption Parsh,1282,5096,1958,113,523,,Sold,,,http://www.redfin.com/CA/San-Leandro/13553-School-St-94578/home/1568281,EBRD/CCAR/Bay East,40797603,N,Y,37.7195536,-122.1373186
PAST SALE,October-13-2017,Single Family Residential,525 Dolores Ave,San Leandro,CA,94577,650000,2,1.0,Downtown,1136,5720,1946,117,572,,Sold,,,http://www.redfin.com/CA/San-Leandro/525-Dolores-Ave-94577/home/760624,EBRD/CCAR/Bay East,40794123,N,Y,37.723882,-122.1481722
PAST SALE,November-21-2017,Single Family Residential,750 Floresta Blvd,San Leandro,CA,94578,715000,3,2.5,Floresta,1577,5320,1954,78,453,,Sold,,,http://www.redfin.com/CA/San-Leandro/750-Floresta-Blvd-94578/home/920788,EBRD/CCAR/Bay East,40800529,N,Y,37.7002239,-122.145563
PAST SALE,November-7-2017,Condo/Co-op,433 HARLAN St #303,San Leandro,CA,94577,408000,3,2.0,San Leandro Brdr,1033,,1964,92,395,314,Sold,,,http://www.redfin.com/CA/San-Leandro/433-Harlan-St-94577/unit-303/home/748668,EBRD/CCAR/Bay East,40792172,N,Y,37.7171967,-122.1547439
PAST SALE,,Single Family Residential,515 Foothill Blvd,San Leandro,CA,94577,478000,2,1.0,,774,5753,1919,,618,,,,,http://www.redfin.com/CA/San-Leandro/515-Foothill-Blvd-94577/home/1905584,,,N,Y,37.7393038,-122.1439563
PAST SALE,November-10-2017,Townhouse,10829 Packard St #151,Oakland,CA,94603,430000,2,1.5,Oakland,1175,,2002,89,366,305,Sold,,,http://www.redfin.com/CA/Oakland/10829-Packard-St-94603/unit-151/home/1227148,EBRD/CCAR/Bay East,40797854,N,Y,37.738191,-122.162358
PAST SALE,March-15-2017,Condo/Co-op,14101 E 14Th St #202,San Leandro,CA,94578,305000,1,1.0,San Leandro Terr,820,32495,1986,329,372,310,Sold,,,http://www.redfin.com/CA/San-Leandro/14101-E-14th-St-94578/unit-202/home/539490,EBRD/CCAR/Bay East,40769262,N,Y,37.712469,-122.139904
PAST SALE,,Single Family Residential,14915 Farnsworth St,San Leandro,CA,94579,545000,3,1.0,,988,5100,1950,,552,,,,,http://www.redfin.com/CA/San-Leandro/14915-Farnsworth-St-94579/home/1960684,,,N,Y,37.6930393,-122.1520897
PAST SALE,November-20-2017,Single Family Residential,661 Victoria Ct,San Leandro,CA,94577,875000,3,2.0,Broadmoor,2072,10750,1922,79,422,,Sold,,,http://www.redfin.com/CA/San-Leandro/661-Victoria-Ct-94577/home/1593235,EBRD/CCAR/Bay East,40804366,N,Y,37.73689,-122.151736
PAST SALE,November-22-2017,Single Family Residential,510 Diehl Ave,San Leandro,CA,94577,830000,3,1.5,Broadmoor Estats,1150,6180,1947,77,722,,Sold,,,http://www.redfin.com/CA/San-Leandro/510-Diehl-Ave-94577/home/531872,EBRD/CCAR/Bay East,40801278,N,Y,37.7358798,-122.1420429
PAST SALE,,Condo/Co-op,680 Fargo Ave Apt 1,San Leandro,CA,94579,381000,2,1.0,,840,,1965,,454,,,,,http://www.redfin.com/CA/San-Leandro/680-Fargo-Ave-94579/unit-1/home/17184524,,,N,Y,37.6875672,-122.1406499
PAST SALE,December-5-2017,Single Family Residential,908 DILLO St,San Leandro,CA,94578,625000,2,1.0,Lower Bal,1042,5432,1948,64,600,,Sold,,,http://www.redfin.com/CA/San-Leandro/908-Dillo-St-94578/home/783395,EBRD/CCAR/Bay East,40802795,N,Y,37.703354,-122.1348181
PAST SALE,December-1-2017,Single Family Residential,1718 138Th Ave,San Leandro,CA,94578,767000,3,2.0,North Bal,2076,5390,1947,68,369,,Sold,,,http://www.redfin.com/CA/San-Leandro/1718-138th-Ave-94578/home/1905816,EBRD/CCAR/Bay East,40802644,N,Y,37.7176447,-122.1366896
PAST SALE,December-8-2017,Single Family Residential,2808 Marineview Dr,San Leandro,CA,94577-6839,950000,3,2.0,Bay O Vista,2108,7332,1964,61,451,,Sold,,,http://www.redfin.com/CA/San-Leandro/2808-Marineview-Dr-94577/home/1967348,EBRD/CCAR/Bay East,40795401,N,Y,37.7183066,-122.1256878
PAST SALE,October-24-2017,Condo/Co-op,13845 Rose Dr,San Leandro,CA,94578,575000,4,2.5,Chateau Thierry,2117,,1981,106,272,390,Sold,,,http://www.redfin.com/CA/San-Leandro/13845-Rose-Dr-94578/unit-1-D/home/1804880,EBRD/CCAR/Bay East,40796676,N,Y,37.711994,-122.14275
PAST SALE,November-14-2017,Single Family Residential,15088 Costela St,San Leandro,CA,94579,618000,3,1.0,Washington Manor,1330,5586,1951,85,465,,Sold,,,http://www.redfin.com/CA/San-Leandro/15088-Costela-St-94579/home/1805749,EBRD/CCAR/Bay East,40802848,N,Y,37.6892627,-122.1564736
PAST SALE,,Single Family Residential,1650 Dayton Ave,San Leandro,CA,94579,775000,,,,1764,5170,1977,,439,,,,,http://www.redfin.com/CA/San-Leandro/1650-Dayton-Ave-94579/home/1273483,,,N,Y,37.6883019,-122.1589129
PAST SALE,,Single Family Residential,2015 Spirit Way,San Leandro,CA,94579,800000,4,2.0,,2255,4484,1999,,355,,,,,http://www.redfin.com/CA/San-Leandro/2015-Spirit-Way-94579/home/808082,,,N,Y,37.6851291,-122.162755
PAST SALE,December-18-2017,Single Family Residential,15011 Edgemoor St,San Leandro,CA,94579-1627,691000,3,2.0,Washington Manor,1528,5040,1950,51,452,,Sold,,,http://www.redfin.com/CA/San-Leandro/15011-Edgemoor-St-94579/home/810019,EBRD/CCAR/Bay East,40803535,N,Y,37.6909625,-122.1506883
PAST SALE,December-13-2017,Single Family Residential,731 Rodney,San Leandro,CA,94577,945000,4,3.0,San Leandro,2210,4472,1948,56,428,,Sold,,,http://www.redfin.com/CA/San-Leandro/731-Rodney-Dr-94577/home/1703856,EBRD/CCAR/Bay East,40801703,N,Y,37.729834,-122.1458984
PAST SALE,,Single Family Residential,3725 Anza Way,San Leandro,CA,94578,540000,3,1.0,,1114,8424,1954,,485,,,,,http://www.redfin.com/CA/San-Leandro/3725-Anza-Way-94578/home/777237,,,N,Y,37.6984885,-122.1482439
PAST SALE,,Townhouse,784 Woodgate Dr,San Leandro,CA,94579,83500,2,2.0,,1169,1467,1975,,71,,,,,http://www.redfin.com/CA/San-Leandro/784-Woodgate-Dr-94579/home/803432,,,N,Y,37.684435,-122.14092
PAST SALE,January-5-2018,Single Family Residential,202 Cherrywood Ave,San Leandro,CA,94577,730000,2,1.0,Alameda County,1308,5536,1937,33,558,,Sold,,,http://www.redfin.com/CA/San-Leandro/202-Cherrywood-Ave-94577/home/1715287,BAREIS,21727721,N,Y,37.7314466,-122.16277
PAST SALE,,Single Family Residential,15187 Endicott St,San Leandro,CA,94579,560000,3,2.0,,1300,5796,1949,,431,,,,,http://www.redfin.com/CA/San-Leandro/15187-Endicott-St-94579/home/986109,,,N,Y,37.6882297,-122.1448652
PAST SALE,,Single Family Residential,15073 Swenson St,San Leandro,CA,94579,500000,3,1.0,,1149,5900,1948,,435,,,,,http://www.redfin.com/CA/San-Leandro/15073-Swenson-St-94579/home/1685367,,,N,Y,37.6900832,-122.1431384
PAST SALE,December-11-2017,Single Family Residential,471 Superior Ave,San Leandro,CA,94577,860000,3,2.0,Broadmoor,1405,5460,1929,58,612,,Sold,,,http://www.redfin.com/CA/San-Leandro/471-Superior-Ave-94577/home/1706071,EBRD/CCAR/Bay East,40802802,N,Y,37.7368258,-122.1433873
PAST SALE,February-6-2018,Townhouse,766 WOODGATE Dr,San Leandro,CA,94579,525000,3,2.5,Woodgate,1356,1384,1973,1,387,265,Sold,,,http://www.redfin.com/CA/San-Leandro/766-Woodgate-Dr-94579/home/1521209,EBRD/CCAR/Bay East,40805909,N,Y,37.684522,-122.140641
PAST SALE,May-10-2017,Single Family Residential,15911 Gramercy Dr,San Leandro,CA,94578,805000,4,2.0,Fairmont Terrace,1895,5400,1952,273,425,,Sold,,,http://www.redfin.com/CA/San-Leandro/15911-Gramercy-Dr-94578/home/1273264,EBRD/CCAR/Bay East,40774793,N,Y,37.7082217,-122.109499
PAST SALE,July-6-2017,Single Family Residential,16817 Ehle St,San Leandro,CA,94578,550000,3,1.0,Alameda County,1245,4000,1952,216,442,,Sold,,,http://www.redfin.com/CA/San-Leandro/16817-Ehle-St-94578/home/795900,EBRD/CCAR/Bay East,40773089,N,Y,37.6955874,-122.1029097
PAST SALE,,Single Family Residential,2175 Somerset Ave,San Leandro,CA,94578,154000,3,1.0,,1151,7437,1952,,134,,,,,http://www.redfin.com/CA/San-Leandro/2175-Somerset-Ave-94578/home/796472,,,N,Y,37.6969286,-122.1001896
PAST SALE,July-27-2017,Townhouse,16308 Miramar Pl,San Leandro,CA,94578,525000,3,2.5,Miramar Village,1525,1525,1985,195,344,298,Sold,,,http://www.redfin.com/CA/San-Leandro/16308-Miramar-Pl-94578/unit-3/home/1481586,EBRD/CCAR/Bay East,40781451,N,Y,37.702208,-122.105774
PAST SALE,August-3-2017,Single Family Residential,2324 Prosperity Way,San Leandro,CA,94578,661000,3,2.0,Fairmont Terrace,1631,5220,1954,188,405,,Sold,,,http://www.redfin.com/CA/San-Leandro/2324-Prosperity-Way-94578/home/818476,EBRD/CCAR/Bay East,40787764,N,Y,37.7037911,-122.1055763
PAST SALE,September-27-2017,Single Family Residential,2120 Strang Ave,SAN LEANDRO,CA,94578,575000,3,1.0,SAN LEANDRO,1050,5000,1951,133,548,,Sold,,,http://www.redfin.com/CA/San-Leandro/2120-Strang-Ave-94578/home/1834741,MLSListings,ML81671426,N,Y,37.7038586,-122.1085632
PAST SALE,March-31-2017,Single Family Residential,19159 Crest Ave,Castro Valley,CA,94546,585000,3,2.0,Castro Valley,1624,5760,1948,313,360,,Sold,,,http://www.redfin.com/CA/Castro-Valley/19159-Crest-Ave-94546/home/821661,EBRD/CCAR/Bay East,40760581,N,Y,37.7035572,-122.1038075
PAST SALE,,Condo/Co-op,16704 Foothill Blvd #2,San Leandro,CA,94578,360000,2,1.0,,1400,,1983,,257,,,,,http://www.redfin.com/CA/San-Leandro/16704-Foothill-Blvd-94578/unit-2/home/1487270,,,N,Y,37.6961224,-122.1037801
PAST SALE,November-29-2017,Single Family Residential,2200 166Th Ave,San Leandro,CA,94578,760000,4,2.5,San Leandro Hlls,3115,5864,1991,70,244,,Sold,,,http://www.redfin.com/CA/San-Leandro/2200-166th-Ave-94578/home/796938,EBRD/CCAR/Bay East,40796795,N,Y,37.6981012,-122.1022395
PAST SALE,December-22-2017,Single Family Residential,2160 167th Ave,San Leandro,CA,94578,600000,2,1.0,San Leandro Terr,833,3500,1958,47,720,,Sold,,,http://www.redfin.com/CA/San-Leandro/2160-167th-Ave-94578/home/1977772,EBRD/CCAR/Bay East,40803516,N,Y,37.6972098,-122.1006306
PAST SALE,December-28-2017,Condo/Co-op,2505 Miramar Ave #111,Castro Valley,CA,94546,462500,2,2.0,Castro Valley,1023,1023,1988,41,452,440,Sold,,,http://www.redfin.com/CA/Castro-Valley/2505-Miramar-Ave-94546/unit-111/home/2114949,EBRD/CCAR/Bay East,40804543,N,Y,37.702047,-122.102866
PAST SALE,June-7-2017,Single Family Residential,10812 Voltaire Ave,Oakland,CA,94603,362000,2,1.0,Alameda County,814,2800,1927,245,445,,Sold,,,http://www.redfin.com/CA/Oakland/10812-Voltaire-Ave-94603/home/1889083,BAREIS,21706575,N,Y,37.7406307,-122.1536094
PAST SALE,June-20-2017,Single Family Residential,2406 108Th Ave,Oakland,CA,94603,480000,2,2.0,San Leandro Brdr,1514,4040,1948,232,317,,Sold,,,http://www.redfin.com/CA/Oakland/2406-108th-Ave-94603/home/1870140,EBRD/CCAR/Bay East,40774761,N,Y,37.7410661,-122.1525482
PAST SALE,September-28-2017,Single Family Residential,2326 107th Ave,Oakland,CA,94603,550000,2,1.0,Oakland,1090,4040,1936,132,505,,Sold,,,http://www.redfin.com/CA/Oakland/2326-107th-Ave-94603/home/598948,San Francisco MLS,461535,N,Y,37.7413149,-122.1543105
PAST SALE,November-16-2017,Condo/Co-op,1563 Chandler St #108,Oakland,CA,94603,464000,2,2.0,Durant Manor,1301,,2002,83,357,305,Sold,,,http://www.redfin.com/CA/Oakland/1563-Chandler-St-94603/unit-108/home/1042069,EBRD/CCAR/Bay East,40800423,N,Y,37.7382081,-122.1633105
PAST SALE,December-15-2017,Condo/Co-op,1592 Chandler St #136,Oakland,CA,94603,469000,2,2.0,Durant,1301,,2002,54,360,305,Sold,,,http://www.redfin.com/CA/Oakland/1592-Chandler-St-94603/unit-136/home/1494193,EBRD/CCAR/Bay East,40802308,N,Y,37.738067,-122.162802
PAST SALE,February-13-2017,Single Family Residential,717 Bergedo Dr,Oakland,CA,94603,415000,3,1.0,Oakland,,4250,1944,359,,,Sold,,,http://www.redfin.com/CA/Oakland/717-Bergedo-Dr-94603/home/1881205,EBRD/CCAR/Bay East,40770162,N,Y,37.7310064,-122.1749684
PAST SALE,December-29-2017,Single Family Residential,651 Durant Ave,San Leandro,CA,94577,850000,3,3.0,Broadmoor,1855,9500,1925,40,458,,Sold,,,http://www.redfin.com/CA/San-Leandro/651-Durant-Ave-94577/home/755116,EBRD/CCAR/Bay East,40804238,N,Y,37.7394009,-122.1531505
PAST SALE,March-23-2017,Single Family Residential,1760 142ND Ave,San Leandro,CA,94578,435000,3,1.0,San Leandro,1083,6048,1942,321,402,,Sold,,,http://www.redfin.com/CA/San-Leandro/1760-142nd-Ave-94578/home/1874434,EBRD/CCAR/Bay East,40754394,N,Y,37.7162549,-122.13361
PAST SALE,April-3-2017,Condo/Co-op,499 ESTUDILLO Ave #304,San Leandro,CA,94577-4920,410000,2,2.0,Estudillo Garden,1122,21450,1981,310,365,353,Sold,,,http://www.redfin.com/CA/San-Leandro/499-Estudillo-Ave-94577/unit-304/home/1720600,EBRD/CCAR/Bay East,40772258,N,Y,37.7262447,-122.1502633
PAST SALE,April-12-2017,Single Family Residential,1436 Montrose Dr,San Leandro,CA,94577,860000,4,3.0,Bay O Vista,2551,6435,1975,301,337,,Sold,,,http://www.redfin.com/CA/San-Leandro/1436-Montrose-Dr-94577/home/1994919,EBRD/CCAR/Bay East,40772711,N,Y,37.7224803,-122.1322079
PAST SALE,,Single Family Residential,877 Joaquin Ave,San Leandro,CA,94577,563000,3,1.0,,1238,7150,1951,,455,,,,,http://www.redfin.com/CA/San-Leandro/877-Joaquin-Ave-94577/home/760228,,,N,Y,37.7277231,-122.1415236
PAST SALE,April-3-2017,Single Family Residential,785 Sybil Ave,San Leandro,CA,94577,585000,2,1.0,Assumption Parsh,1100,5015,1946,310,532,,Sold,,,http://www.redfin.com/CA/San-Leandro/785-Sybil-Ave-94577/home/665856,EBRD/CCAR/Bay East,40770941,N,Y,37.7225808,-122.1414738
PAST SALE,April-7-2017,Single Family Residential,545 Blossom Way,San Leandro,CA,94577,805000,4,2.0,Assumption Parsh,2066,5408,1932,306,390,,Sold,,,http://www.redfin.com/CA/San-Leandro/545-Blossom-Way-94577/home/1845288,EBRD/CCAR/Bay East,40770284,N,Y,37.7179967,-122.145164
PAST SALE,May-5-2017,Single Family Residential,116 Estabrook St,San Leandro,CA,94577,576500,2,1.0,Estabrook,1194,6000,1940,278,483,,Sold,,,http://www.redfin.com/CA/San-Leandro/116-Estabrook-St-94577/home/764403,EBRD/CCAR/Bay East,40774939,N,Y,37.718506,-122.1502506
PAST SALE,May-24-2017,Townhouse,2455 Wimbledon Ln,San Leandro,CA,94577,538000,2,1.5,Sandpiper,1371,2678,1978,259,392,331,Sold,,,http://www.redfin.com/CA/San-Leandro/2455-Wimbledon-Ln-94577/home/777919,EBRD/CCAR/Bay East,40777569,N,Y,37.7149384,-122.1488431
PAST SALE,May-31-2017,Condo/Co-op,508 Joaquin Ave,San Leandro,CA,94577,465000,2,2.0,Downtown San Lea,1409,,1980,252,330,412,Sold,,,http://www.redfin.com/CA/San-Leandro/508-Joaquin-Ave-94577/home/1408606,EBRD/CCAR/Bay East,40778703,N,Y,37.726028,-122.149525
PAST SALE,June-4-2017,Townhouse,1166 Coburn,San Leandro,CA,94578,510000,3,2.0,Parkgreen Townhm,1472,1437,1977,248,346,479,Sold,,,http://www.redfin.com/CA/San-Leandro/1166-Coburn-Ct-94578/home/666130,EBRD/CCAR/Bay East,40776768,N,Y,37.7138289,-122.145678
PAST SALE,June-9-2017,Single Family Residential,14768 Saturn Dr,San Leandro,CA,94578,590000,3,2.0,Hillcrest Knolls,1315,5593,1947,243,449,,Sold,,,http://www.redfin.com/CA/San-Leandro/14768-Saturn-Dr-94578/home/1273166,EBRD/CCAR/Bay East,40771433,N,Y,37.7120509,-122.126073
PAST SALE,June-16-2017,Single Family Residential,1473 Vistagrand Dr,San Leandro,CA,94577-6828,975000,3,2.5,Bay O Vista,2532,10725,1959,236,385,,Sold,,,http://www.redfin.com/CA/San-Leandro/1473-Vista-Grand-Dr-94577/home/1928624,EBRD/CCAR/Bay East,40779421,N,Y,37.7188042,-122.1302956
PAST SALE,June-26-2017,Single Family Residential,474 Callan Ave,San Leandro,CA,94577,620000,2,1.0,Downtown San Lea,1132,7020,1913,226,548,,Sold,,,http://www.redfin.com/CA/San-Leandro/474-Callan-Ave-94577/home/555803,EBRD/CCAR/Bay East,40781954,N,Y,37.7273598,-122.1517972
PAST SALE,June-23-2017,Condo/Co-op,1504 138th Ave,San Leandro,CA,94578-1608,380000,2,1.0,Colonial Gardens,811,,1970,229,469,265,Sold,,,http://www.redfin.com/CA/San-Leandro/1504-138th-Ave-94578/unit-2/home/1731616,EBRD/CCAR/Bay East,40782986,N,Y,37.715181,-122.139423
PAST SALE,August-18-2017,Single Family Residential,1752 140Th Ave,San Leandro,CA,94578,700000,4,2.0,San Leandro,1589,5141,1947,173,441,,Sold,,,http://www.redfin.com/CA/San-Leandro/1752-140th-Ave-94578/home/1421475,EBRD/CCAR/Bay East,40788706,N,Y,37.7175274,-122.134657
PAST SALE,,Multi-Family (2-4 Unit),428 Juana Ave,San Leandro,CA,94577,807000,6,3.0,,2800,7150,1961,,288,,,,,http://www.redfin.com/CA/San-Leandro/428-Juana-Ave-94577/home/1645954,,,N,Y,37.7246177,-122.1508595
PAST SALE,August-25-2017,Single Family Residential,831 Kenyon Ave,San Leandro,CA,94577,650000,3,1.0,Assumption Parsh,1524,6750,1948,166,427,,Sold,,,http://www.redfin.com/CA/San-Leandro/831-Kenyon-Ave-94577/home/764908,EBRD/CCAR/Bay East,40790295,N,Y,37.7214624,-122.1400933
PAST SALE,August-4-2017,Single Family Residential,1648 137Th Ave,San Leandro,CA,94578,588000,2,1.0,Assumption Parsh,945,5040,1948,187,622,,Sold,,,http://www.redfin.com/CA/San-Leandro/1648-137th-Ave-94578/home/1967283,EBRD/CCAR/Bay East,40787787,N,Y,37.7174371,-122.1379613
PAST SALE,July-27-2017,Single Family Residential,1187 139Th Ave,San Leandro,CA,94578,580000,3,1.0,Alameda County,1090,5356,1947,195,532,,Sold,,,http://www.redfin.com/CA/San-Leandro/1187-139th-Ave-94578/home/1416833,EBRD/CCAR/Bay East,40785124,N,Y,37.7115724,-122.1427713
PAST SALE,October-1-2017,Single Family Residential,760 Estudillo Ave,San Leandro,CA,94577,860000,3,1.5,San Leandro,2226,5565,1939,129,386,,Sold,,,http://www.redfin.com/CA/San-Leandro/760-Estudillo-Ave-94577/home/759211,EBRD/CCAR/Bay East,40796703,N,Y,37.72834,-122.1446027
PAST SALE,,Single Family Residential,1517 136th Ave,San Leandro,CA,94578,261000,2,1.0,,972,5445,1947,,269,,,,,http://www.redfin.com/CA/San-Leandro/1517-136th-Ave-94578/home/985315,,,N,Y,37.7165104,-122.1407686
PAST SALE,October-17-2017,Single Family Residential,725 Rodney Dr,San Leandro,CA,94577,785000,3,2.0,San Leandro,1570,4472,1942,113,500,,Sold,,,http://www.redfin.com/CA/San-Leandro/725-Rodney-Dr-94577/home/529701,EBRD/CCAR/Bay East,40797797,N,Y,37.7297851,-122.1460369
PAST SALE,October-26-2017,Townhouse,2264 Heathrow Pl,San Leandro,CA,94577,560000,3,2.5,Sandpiper,1659,2207,1979,104,338,347,Sold,,,http://www.redfin.com/CA/San-Leandro/2264-Heathrow-Pl-94577/home/1905662,EBRD/CCAR/Bay East,40800721,N,Y,37.7164243,-122.1490064
PAST SALE,,Single Family Residential,2355 Cherry St,San Leandro,CA,94577,530000,3,1.0,,1392,5647,1922,,381,,,,,http://www.redfin.com/CA/San-Leandro/2355-Cherry-St-94577/home/751006,,,N,Y,37.7145024,-122.1512087
PAST SALE,November-2-2017,Single Family Residential,14856 Sylvia Way,San Leandro,CA,94578,635000,3,1.0,Alameda County,1213,6325,1945,97,523,,Sold,,,http://www.redfin.com/CA/San-Leandro/14856-Sylvia-Way-94578/home/781686,EBRD/CCAR/Bay East,40797838,N,Y,37.7109398,-122.1294916
PAST SALE,November-3-2017,Single Family Residential,2112 Placer Dr,San Leandro,CA,94578,630000,3,2.0,Hillcrest Knolls,1389,6201,1925,96,454,,Sold,,,http://www.redfin.com/CA/San-Leandro/2112-Placer-Dr-94578/home/1731900,EBRD/CCAR/Bay East,40800362,N,Y,37.7130516,-122.1253503
PAST SALE,November-13-2017,Single Family Residential,839 Bridge Rd,San Leandro,CA,94577,1021000,4,3.0,San Leandro,2500,5250,1936,86,408,,Sold,,,http://www.redfin.com/CA/San-Leandro/839-Bridge-Rd-94577/home/919769,EBRD/CCAR/Bay East,40798922,N,Y,37.729128,-122.142855
PAST SALE,,Single Family Residential,2514 Harborview Dr,San Leandro,CA,94577,740000,3,2.0,,1962,7956,1961,,377,,,,,http://www.redfin.com/CA/San-Leandro/2514-Harborview-Dr-94577/home/1281844,,,N,Y,37.7219868,-122.1271786
PAST SALE,,Multi-Family (2-4 Unit),1425 MacArthur Blvd,San Leandro,CA,94577,2149000,,,,4982,10071,1940,,431,,,,,http://www.redfin.com/CA/San-Leandro/1425-MacArthur-Blvd-94577/home/1067635,,,N,Y,37.7280213,-122.1389432
PAST SALE,December-28-2017,Single Family Residential,687 Dolores Ave,San Leandro,CA,94577,716000,2,1.5,Old San Leandro,1794,6006,1948,41,399,,Sold,,,http://www.redfin.com/CA/San-Leandro/687-Dolores-Ave-94577/home/2007088,EBRD/CCAR/Bay East,40803087,N,Y,37.7247982,-122.1448159
PAST SALE,January-31-2018,Single Family Residential,755 Rodney Dr,San Leandro,CA,94577,730000,2,2.0,San Leandro,1635,4472,1940,7,446,,Sold,,,http://www.redfin.com/CA/San-Leandro/755-Rodney-Dr-94577/home/759523,EBRD/CCAR/Bay East,40805162,N,Y,37.7299749,-122.1453326
PAST SALE,June-12-2017,Single Family Residential,1598 152nd Ave,San Leandro,CA,94578,631000,2,2.0,Bay Fair,1613,4000,1945,240,391,,Sold,,,http://www.redfin.com/CA/San-Leandro/1598-152nd-Ave-94578/home/1802975,EBRD/CCAR/Bay East,40780945,N,Y,37.7061532,-122.1243789
PAST SALE,January-10-2018,Multi-Family (2-4 Unit),2420 W Avenue 133Rd,San Leandro,CA,94577,650000,,,Mulford Gardens,2573,14880,1949,28,253,,Sold,,,http://www.redfin.com/CA/San-Leandro/2420-West-Avenue-133rd-94577/home/1673431,EBRD/CCAR/Bay East,40805258,N,Y,37.7019938,-122.1827173
PAST SALE,October-27-2017,Single Family Residential,907 Via Enrico,San Lorenzo,CA,94580,675000,3,2.0,San Lorenzo Vilg,1323,6000,1956,103,510,10,Sold,,,http://www.redfin.com/CA/San-Lorenzo/907-Via-Enrico-94580/home/1009995,EBRD/CCAR/Bay East,40798273,N,Y,37.6820013,-122.1403587
PAST SALE,February-15-2017,Single Family Residential,14552 Lark St,San Leandro,CA,94578,510000,2,1.0,San Leandro,1002,6050,1945,357,509,,Sold,,,http://www.redfin.com/CA/San-Leandro/14552-Lark-St-94578/home/1381540,EBRD/CCAR/Bay East,40762647,N,Y,37.7123669,-122.1328157
PAST SALE,February-17-2017,Single Family Residential,1300 Benedict Dr,San Leandro,CA,94577,878000,5,4.5,Bay O Vista,3727,6970,1939,355,236,,Sold,,,http://www.redfin.com/CA/San-Leandro/1300-Benedict-Dr-94577/home/1369779,EBRD/CCAR/Bay East,40761606,N,Y,37.7297315,-122.1377142
PAST SALE,February-17-2017,Condo/Co-op,14101 E 14Th St #301,San Leandro,CA,94578,359000,2,2.0,San Leandro,1000,32495,1986,355,359,310,Sold,,,http://www.redfin.com/CA/San-Leandro/14101-E-14th-St-94578/unit-301/home/778226,EBRD/CCAR/Bay East,40763730,N,Y,37.712469,-122.139904
PAST SALE,,Single Family Residential,15244 Laverne Dr,San Leandro,CA,94579,680000,4,3.0,,2243,6278,1958,,303,,,,,http://www.redfin.com/CA/San-Leandro/15244-Laverne-Dr-94579/home/2007365,,,N,Y,37.6861221,-122.1585329
PAST SALE,,Single Family Residential,9865 Hesket Rd,Oakland,CA,94603,335000,2,1.0,,776,4160,1944,,432,,,,,http://www.redfin.com/CA/Oakland/9865-Hesket-Rd-94603/home/1642721,,,N,Y,37.7303023,-122.1889213
PAST SALE,March-10-2017,Condo/Co-op,14333 Seagate Dr,San Leandro,CA,94577,490000,2,2.5,Seagate,1338,,1984,334,366,365,Sold,,,http://www.redfin.com/CA/San-Leandro/14333-Seagate-Dr-94577/unit-189/home/805864,EBRD/CCAR/Bay East,40767298,N,Y,37.69343,-122.180117
PAST SALE,March-31-2017,Single Family Residential,940 143Rd Ave,San Leandro,CA,94578,535000,3,2.0,San Leandro,1154,5088,1955,313,464,,Sold,,,http://www.redfin.com/CA/San-Leandro/940-143rd-Ave-94578/home/2001924,EBRD/CCAR/Bay East,40770571,N,Y,37.7085783,-122.1410997
PAST SALE,April-28-2017,Single Family Residential,509 Olive Ct,San Leandro,CA,94578,568168,3,1.0,San Leandro,1014,5382,1950,285,560,,Sold,,,http://www.redfin.com/CA/San-Leandro/509-Olive-Ct-94578/home/1568541,EBRD/CCAR/Bay East,40774466,N,Y,37.6983352,-122.1292124
PAST SALE,May-3-2017,Single Family Residential,592 Muscari St,San Leandro,CA,94578,850000,4,3.0,Bay Fair,2894,4350,2003,280,294,,Sold,,,http://www.redfin.com/CA/San-Leandro/592-Muscari-St-94578/home/1112022,EBRD/CCAR/Bay East,40773896,N,Y,37.7030103,-122.1381627
PAST SALE,June-22-2017,Single Family Residential,1220 Georgetown Ave,San Leandro,CA,94579,580000,3,1.0,San Leandro,1459,5130,1951,230,398,,Sold,,,http://www.redfin.com/CA/San-Leandro/1220-Georgetown-Ave-94579/home/624674,San Francisco MLS,457200,N,Y,37.699688,-122.1537535
PAST SALE,June-22-2017,Single Family Residential,798 Moraga Dr,San Leandro,CA,94578,630000,3,1.0,Floresta Gardens,1108,5035,1954,230,569,,Sold,,,http://www.redfin.com/CA/San-Leandro/798-Moraga-Dr-94578/home/1859074,EBRD/CCAR/Bay East,40781536,N,Y,37.7006762,-122.1464802
PAST SALE,June-30-2017,Multi-Family (2-4 Unit),15083 Robin St,San Leandro,CA,94578,735000,4,4.0,San Leandro,2112,4340,1946,222,348,,Sold,,,http://www.redfin.com/CA/San-Leandro/15083-Robin-St-94578/home/1802952,EBRD/CCAR/Bay East,40780927,N,Y,37.7057958,-122.1270718
PAST SALE,March-31-2017,Single Family Residential,806 Carmel Ct,San Leandro,CA,94578,611000,3,2.0,Floresta Gardens,1361,5742,1957,313,449,,Sold,,,http://www.redfin.com/CA/San-Leandro/806-Carmel-Ct-94578/home/774446,EBRD/CCAR/Bay East,40771300,N,Y,37.698276,-122.1395574
PAST SALE,July-31-2017,Single Family Residential,3583 Figueroa Dr,San Leandro,CA,94578-4040,560000,3,1.0,Floresta Gardens,,5035,1954,191,,,Sold,,,http://www.redfin.com/CA/San-Leandro/3583-Figueroa-Dr-94578/home/779025,EBRD/CCAR/Bay East,40788085,N,Y,37.7003069,-122.1510352
PAST SALE,,Single Family Residential,14312 Hemlock St,San Leandro,CA,94579,500000,3,1.0,,1076,5777,1952,,465,,,,,http://www.redfin.com/CA/San-Leandro/14312-Hemlock-St-94579/home/768982,,,N,Y,37.702384,-122.1585818
PAST SALE,August-3-2017,Single Family Residential,1041 Dillo St,San Leandro,CA,94578,701800,4,2.5,Halcyon,2084,9801,1946,188,337,,Sold,,,http://www.redfin.com/CA/San-Leandro/1041-Dillo-St-94578/home/783711,EBRD/CCAR/Bay East,40787174,N,Y,37.7029658,-122.1321204
PAST SALE,August-31-2017,Single Family Residential,479 Nabor St,San Leandro,CA,94578,630000,3,2.0,Ashland District,1309,5022,1947,160,481,,Sold,,,http://www.redfin.com/CA/San-Leandro/479-Nabor-St-94578/home/1083021,EBRD/CCAR/Bay East,40789930,N,Y,37.6993974,-122.1320294
PAST SALE,August-25-2017,Single Family Residential,3646 FIGUEROA,San Leandro,CA,94578-4043,575000,3,1.0,Floresta Gardens,1114,5035,1954,166,516,,Sold,,,http://www.redfin.com/CA/San-Leandro/3646-Figueroa-Dr-94578/home/1334810,EBRD/CCAR/Bay East,40788077,N,Y,37.6997087,-122.1494486
PAST SALE,September-6-2017,Condo/Co-op,3867 Wedgewood St,San Leandro,CA,94578,406000,2,2.0,Washington Comm,896,,1987,154,453,419,Sold,,,http://www.redfin.com/CA/San-Leandro/3867-Wedgewood-St-94578/home/1965847,EBRD/CCAR/Bay East,40790821,N,Y,37.699025,-122.142976
PAST SALE,October-13-2017,Single Family Residential,1215 Asbury Ct,San Leandro,CA,94579,575000,3,1.0,Washington Manor,1081,5673,1951,117,532,,Sold,,,http://www.redfin.com/CA/San-Leandro/1215-Asbury-Ct-94579/home/814673,EBRD/CCAR/Bay East,40794240,N,Y,37.7035376,-122.1579931
PAST SALE,,Single Family Residential,14857 Sylvia Way,San Leandro,CA,94578,345000,3,2.0,,1393,6262,1946,,248,,,,,http://www.redfin.com/CA/San-Leandro/14857-Sylvia-Way-94578/home/1486994,,,N,Y,37.7106422,-122.1297837
PAST SALE,October-31-2017,Single Family Residential,3881 Carmel Way,San Leandro,CA,94578,600000,3,1.0,Floresta Gardens,1096,6016,1954,99,547,,Sold,,,http://www.redfin.com/CA/San-Leandro/3881-Carmel-Way-94578/home/777153,EBRD/CCAR/Bay East,40796565,N,Y,37.6980735,-122.1436351
PAST SALE,October-27-2017,Single Family Residential,458 Olive St,San Leandro,CA,94578,540000,2,2.0,Ashland District,1168,5022,1947,103,462,,Sold,,,http://www.redfin.com/CA/San-Leandro/458-Olive-St-94578/home/1387493,EBRD/CCAR/Bay East,40794178,N,Y,37.6984038,-122.134108
PAST SALE,,Single Family Residential,14560 Birch St,San Leandro,CA,94579,520000,3,2.0,,1114,5300,1953,,467,,,,,http://www.redfin.com/CA/San-Leandro/14560-Birch-St-94579/home/1311633,,,N,Y,37.6987761,-122.1591356
PAST SALE,,Single Family Residential,1193 Louise St,San Leandro,CA,94578,720000,4,3.0,,2634,5200,1948,,273,,,,,http://www.redfin.com/CA/San-Leandro/1193-Louise-St-94578/home/783273,,,N,Y,37.7049851,-122.1309837
PAST SALE,January-3-2018,Single Family Residential,14974 Patton Ave,San Leandro,CA,94578,643000,3,2.0,San Leandro,1452,5130,1945,35,443,,Sold,,,http://www.redfin.com/CA/San-Leandro/14974-Patton-Ave-94578/home/1804956,EBRD/CCAR/Bay East,40803981,N,Y,37.7090513,-122.1263093
PAST SALE,,Single Family Residential,14884 Bancroft Ave,San Leandro,CA,94578,227000,3,2.0,,1570,6566,1948,,145,,,,,http://www.redfin.com/CA/San-Leandro/14884-Bancroft-Ave-94578/home/1500606,,,N,Y,37.7082437,-122.1301877
PAST SALE,February-28-2017,Condo/Co-op,16347 Saratoga St,San Leandro,CA,94578-1450,320000,2,1.5,Saratoga Hills,1022,,1981,344,313,575,Sold,,,http://www.redfin.com/CA/San-Leandro/16347-Saratoga-St-94578/unit-104E/home/1765078,EBRD/CCAR/Bay East,40763487,N,Y,37.700694,-122.106726
PAST SALE,July-6-2017,Single Family Residential,1577 163rd Ave,San Leandro,CA,94578,672500,3,1.0,Ashland,1485,10500,1947,216,453,,Sold,,,http://www.redfin.com/CA/San-Leandro/1577-163rd-Ave-94578/home/1859254,EBRD/CCAR/Bay East,40784676,N,Y,37.698618,-122.1126101
PAST SALE,,Condo/Co-op,16251 Miramar Pl #17,San Leandro,CA,94578,530000,3,2.0,,1525,,1985,,348,,,,,http://www.redfin.com/CA/San-Leandro/16251-Miramar-Pl-94578/unit-17/home/796065,,,N,Y,37.702208,-122.105774
PAST SALE,,Single Family Residential,2181 167th Ave,San Leandro,CA,94578,670000,3,2.0,,1769,5485,1977,,379,,,,,http://www.redfin.com/CA/San-Leandro/2181-167th-Ave-94578/home/697101,,,N,Y,37.6974956,-122.1001187
PAST SALE,July-31-2017,Single Family Residential,16558 Hannah Dr,San Leandro,CA,94578,651000,3,2.0,Fairmont Terrace,1500,4400,1968,191,434,,Sold,,,http://www.redfin.com/CA/San-Leandro/16558-Hannah-Dr-94578/home/532055,EBRD/CCAR/Bay East,40784003,N,Y,37.6984959,-122.1038187
PAST SALE,August-1-2017,Condo/Co-op,2505 Miramar Ave #115,Castro Valley,CA,94546,420000,2,2.0,Castro Valley,986,,1988,190,426,440,Sold,,,http://www.redfin.com/CA/Castro-Valley/2505-Miramar-Ave-94546/unit-115/home/2113876,EBRD/CCAR/Bay East,40785067,N,Y,37.702047,-122.102866
PAST SALE,August-7-2017,Single Family Residential,16082 Berkshire Dr,San Leandro,CA,94578,700000,3,2.0,Fairmont Terrace,1547,8388,1949,184,452,,Sold,,,http://www.redfin.com/CA/San-Leandro/16082-Berkshire-Dr-94578/home/1312144,EBRD/CCAR/Bay East,40783767,N,Y,37.7057825,-122.1110823
PAST SALE,August-11-2017,Single Family Residential,18803 Crest Ave,Castro Valley,CA,94546,605000,3,1.0,El Portal,1004,5623,1949,180,603,,Sold,,,http://www.redfin.com/CA/Castro-Valley/18803-Crest-Ave-94546/home/821602,EBRD/CCAR/Bay East,40787730,N,Y,37.706475,-122.105046
PAST SALE,August-22-2017,Multi-Family (2-4 Unit),16110 Mateo St,San Leandro,CA,94578,818888,5,3.0,San Leandro,2390,9881,1950,169,343,,Sold,,,http://www.redfin.com/CA/San-Leandro/16110-Mateo-St-94578/home/1946367,EBRD/CCAR/Bay East,40778645,N,Y,37.6993619,-122.1156948
PAST SALE,September-8-2017,Single Family Residential,16380 Panoramic Way,San Leandro,CA,95391,668000,3,2.0,San Leandro Hlls,1330,5759,1953,152,502,,Sold,,,http://www.redfin.com/CA/San-Leandro/16380-Panoramic-Way-94578/home/1147044,EBRD/CCAR/Bay East,40788175,N,Y,37.7035522,-122.1044728
PAST SALE,September-29-2017,Single Family Residential,16710 Rolando Ave,San Leandro,CA,94578,390000,2,1.0,San Leandro Hlls,963,8000,1940,131,405,,Sold,,,http://www.redfin.com/CA/San-Leandro/16710-Rolando-Ave-94578/home/1247650,EBRD/CCAR/Bay East,40790135,N,Y,37.6990388,-122.0993556
PAST SALE,May-9-2017,Single Family Residential,16600 Hannah Dr,San Leandro,CA,94578,500000,2,1.0,San Leandro Hlls,850,6150,1947,274,588,,Sold,,,http://www.redfin.com/CA/San-Leandro/16600-Hannah-Dr-94578/home/795870,EBRD/CCAR/Bay East,40775179,N,Y,37.6976019,-122.1029985
PAST SALE,November-17-2017,Single Family Residential,16876 EHLE St,San Leandro,CA,94578,510000,3,2.0,Alameda County,,4400,1950,82,,,Sold,,,http://www.redfin.com/CA/San-Leandro/16876-Ehle-St-94578/home/1632643,EBRD/CCAR/Bay East,40795641,N,Y,37.6953658,-122.1021134
PAST SALE,January-3-2018,Single Family Residential,15991 Cambrian Dr,San Leandro,CA,94578,705000,3,1.0,Fairmont Terrace,1170,5225,1952,35,603,,Sold,,,http://www.redfin.com/CA/San-Leandro/15991-Cambrian-Dr-94578/home/795153,EBRD/CCAR/Bay East,40804353,N,Y,37.7086738,-122.1094928
PAST SALE,April-28-2017,Single Family Residential,1221 Kelly Ave,San Leandro,CA,94577,540000,2,1.5,Alameda,1022,4977,1942,285,528,,Sold,,,http://www.redfin.com/CA/San-Leandro/1221-Kelly-Ave-94577/home/1846531,EBRD/CCAR/Bay East,40772450,N,Y,37.7202827,-122.1723096
PAST SALE,April-4-2017,Single Family Residential,901 MOORPARK St,Oakland,CA,94603,371500,2,1.0,Elmhurst,907,2736,1918,309,410,,Sold,,,http://www.redfin.com/CA/Oakland/901-Moorpark-St-94603/home/910431,EBRD/CCAR/Bay East,40758531,N,Y,37.7336085,-122.1719707
PAST SALE,April-28-2017,Single Family Residential,721 Donovan Dr,San Leandro,CA,94577,533600,3,2.0,Davis Tract,1522,5000,1942,285,351,,Sold,,,http://www.redfin.com/CA/San-Leandro/721-Donovan-Dr-94577/home/770284,EBRD/CCAR/Bay East,40774355,N,Y,37.724562,-122.1763529
PAST SALE,,Single Family Residential,1317 106th Ave,Oakland,CA,94603,130500,4,2.0,,1566,3800,1927,,83,,,,,http://www.redfin.com/CA/Oakland/1317-106th-Ave-94603/home/2017650,,,N,Y,37.7379791,-122.1680953
PAST SALE,May-15-2017,Single Family Residential,2478 Sitka St,San Leandro,CA,94577,610000,3,2.0,Mulford Gardens,1661,5600,1950,268,367,,Sold,,,http://www.redfin.com/CA/San-Leandro/2478-Sitka-St-94577/home/1437650,EBRD/CCAR/Bay East,40774153,N,Y,37.7061372,-122.1867881
PAST SALE,May-12-2017,Single Family Residential,380 LEXINGTON Ave,San Leandro,CA,94577,650000,4,2.0,Farrelly Pond,1257,5440,1943,271,517,,Sold,,,http://www.redfin.com/CA/San-Leandro/380-Lexington-Ave-94577/home/531842,EBRD/CCAR/Bay East,40777621,N,Y,37.7336144,-122.1696147
PAST SALE,June-26-2017,Single Family Residential,1113 Davis St,San Leandro,CA,94577,636000,3,3.0,Davis Street,1539,1334,2007,226,413,190,Sold,,,http://www.redfin.com/CA/San-Leandro/1113-Davis-St-94577/home/17186563,EBRD/CCAR/Bay East,40782102,N,Y,37.721458,-122.167652
PAST SALE,July-6-2017,Single Family Residential,373 Farrelly Dr,San Leandro,CA,94577,600000,2,1.0,Farrelly Pond,1027,5000,1942,216,584,,Sold,,,http://www.redfin.com/CA/San-Leandro/373-Farrelly-Dr-94577/home/750767,EBRD/CCAR/Bay East,40784005,N,Y,37.7328342,-122.1688579
PAST SALE,April-12-2017,Single Family Residential,11124 Robledo Dr,Oakland,CA,94603,385000,3,1.0,Alameda County,1018,5502,1944,301,378,,Sold,,,http://www.redfin.com/CA/Oakland/11124-Robledo-Dr-94603/home/1809649,BAREIS,21702398,N,Y,37.7290247,-122.1721262
PAST SALE,,Single Family Residential,293 Best Ave,San Leandro,CA,94577,180500,2,1.0,,1147,4730,1937,,157,,,,,http://www.redfin.com/CA/San-Leandro/293-Best-Ave-94577/home/1254227,,,N,Y,37.728957,-122.1629876
PAST SALE,March-22-2017,Single Family Residential,357 Accolade Dr,SAN LEANDRO,CA,94577,680000,4,2.5,SAN LEANDRO,1627,1869,2002,322,418,120,Sold,,,http://www.redfin.com/CA/San-Leandro/357-Accolade-Dr-94577/home/1866483,MLSListings,ML81639230,N,Y,37.7294133,-122.1716295
PAST SALE,August-18-2017,Single Family Residential,2139 Laura Ave,San Leandro,CA,94577,590000,3,1.0,Davis West,1096,6050,1944,173,538,,Sold,,,http://www.redfin.com/CA/San-Leandro/2139-Laura-Ave-94577/home/1955256,EBRD/CCAR/Bay East,40788756,N,Y,37.7187768,-122.1798015
PAST SALE,,Single Family Residential,853 Billings Blvd,San Leandro,CA,94577,400500,2,1.0,,1246,5000,1943,,321,,,,,http://www.redfin.com/CA/San-Leandro/853-Billings-Blvd-94577/home/1067676,,,N,Y,37.7230048,-122.1768172
PAST SALE,,Single Family Residential,1239 Pierce Ave,San Leandro,CA,94577,142500,2,1.0,,1010,5067,1943,,141,,,,,http://www.redfin.com/CA/San-Leandro/1239-Pierce-Ave-94577/home/1715498,,,N,Y,37.720629,-122.1706306
PAST SALE,August-14-2017,Single Family Residential,13976 Tortuga Rd,San Leandro,CA,94577,643800,3,2.0,Marina Faire,1336,5040,1961,177,482,,Sold,,,http://www.redfin.com/CA/San-Leandro/13976-Tortuga-Rd-94577/home/753063,EBRD/CCAR/Bay East,40789587,N,Y,37.6961974,-122.1797017
PAST SALE,August-11-2017,Townhouse,13755 Jib Rd,San Leandro,CA,94577,505000,2,1.5,Marina Faire,1062,981,1978,180,476,305,Sold,,,http://www.redfin.com/CA/San-Leandro/13755-Jib-Rd-94577/home/1501071,EBRD/CCAR/Bay East,40789106,N,Y,37.6990052,-122.1769285
PAST SALE,August-17-2017,Single Family Residential,280 Stoakes Ave,San Leandro,CA,94577,610000,2,1.0,Best Manor,1171,6000,1923,174,521,,Sold,,,http://www.redfin.com/CA/San-Leandro/280-Stoakes-Ave-94577/home/748890,EBRD/CCAR/Bay East,40788622,N,Y,37.7319389,-122.164133
PAST SALE,August-17-2017,Single Family Residential,2350 Bermuda,San Leandro,CA,94577-5463,678500,3,2.0,Marina Faire,1404,6120,1961,174,483,,Sold,,,http://www.redfin.com/CA/San-Leandro/2350-Bermuda-Ave-94577/home/801822,EBRD/CCAR/Bay East,40790121,N,Y,37.6958931,-122.1773655
PAST SALE,,Single Family Residential,808 Moorpark St,Oakland,CA,94603,250000,2,1.0,,816,6489,1924,,306,,,,,http://www.redfin.com/CA/Oakland/808-Moorpark-St-94603/home/1483626,,,N,Y,37.7321744,-122.1734236
PAST SALE,August-29-2017,Single Family Residential,388 Alvarado St,San Leandro,CA,94577,825000,5,3.0,San Leandro,2412,3500,2002,162,342,120,Sold,,,http://www.redfin.com/CA/San-Leandro/388-Alvarado-St-94577/home/1617033,San Francisco MLS,456685,N,Y,37.7306418,-122.1704962
PAST SALE,,Single Family Residential,1873 Wayne Ave,San Leandro,CA,94577,570000,4,2.0,,1820,5000,1952,,313,,,,,http://www.redfin.com/CA/San-Leandro/1873-Wayne-Ave-94577/home/1254524,,,N,Y,37.7150407,-122.1644781
PAST SALE,,Single Family Residential,9911 Empire Rd,Oakland,CA,94603,210000,2,1.0,,956,12348,1944,,220,,,,,http://www.redfin.com/CA/Oakland/9911-Empire-Rd-94603/home/1744814,,,N,Y,37.7290303,-122.1892829
PAST SALE,October-6-2017,Single Family Residential,1008 106Th Ave,Oakland,CA,94603,320000,3,1.0,Stonehurst,1047,5000,1947,124,306,,Sold,,,http://www.redfin.com/CA/Oakland/1008-106th-Ave-94603/home/1831842,EBRD/CCAR/Bay East,40787522,N,Y,37.735844,-122.1718164
PAST SALE,,Single Family Residential,794 Donovan Dr,San Leandro,CA,94577,550000,4,2.0,,1292,6000,1942,,426,,,,,http://www.redfin.com/CA/San-Leandro/794-Donovan-Dr-94577/home/770707,,,N,Y,37.7239496,-122.1756555
PAST SALE,September-29-2017,Multi-Family (2-4 Unit),2431 Fairway,San Leandro,CA,95667,1200000,9,4.5,San Leandro,3105,16875,1964,131,386,,Sold,,,http://www.redfin.com/CA/San-Leandro/2431-Fairway-Dr-94577/home/1461604,EBRD/CCAR/Bay East,40792728,N,Y,37.698659,-122.180528
PAST SALE,,Townhouse,14655 Doolittle Dr,San Leandro,CA,94577,110000,3,2.0,,1060,,1979,,104,,,,,http://www.redfin.com/CA/San-Leandro/14655-Doolittle-Dr-94577/home/799122,,,N,Y,37.693456,-122.17376
PAST SALE,November-13-2017,Single Family Residential,202 ACCOLADE Dr,San Leandro,CA,94577-1596,683000,4,2.5,Cherrywood,1768,2556,2000,86,386,120,Sold,,,http://www.redfin.com/CA/San-Leandro/202-Accolade-Dr-94577/home/1215861,EBRD/CCAR/Bay East,40796090,N,Y,37.7309968,-122.1715589
PAST SALE,November-4-2017,Single Family Residential,1268 Alder Creek Cir,SAN LEANDRO,CA,94577,689000,3,2.5,SAN LEANDRO,1567,3889,2003,95,440,150,Sold,,,http://www.redfin.com/CA/San-Leandro/1268-Alder-Creek-Cir-94577/home/1679541,MLSListings,ML81675344,N,Y,37.7269769,-122.1715631
PAST SALE,November-21-2017,Single Family Residential,11031 Estepa Dr,Oakland,CA,94603,405000,4,1.5,East Oakland,1380,4000,1945,78,293,,Sold,,,http://www.redfin.com/CA/Oakland/11031-Estepa-Dr-94603/home/1903030,EBRD/CCAR/Bay East,40799867,N,Y,37.7276966,-122.174134
PAST SALE,,Single Family Residential,13958 Tortuga Rd,San Leandro,CA,94577,470000,4,2.0,,1466,5040,1961,,321,,,,,http://www.redfin.com/CA/San-Leandro/13958-Tortuga-Rd-94577/home/802825,,,N,Y,37.6963701,-122.1797862
PAST SALE,November-14-2017,Condo/Co-op,13475 Aurora Dr,San Leandro,CA,94577-4032,523000,3,2.5,Marina Faire,1694,,1982,85,309,350,Sold,,,http://www.redfin.com/CA/San-Leandro/13475-Aurora-Dr-94577/unit-3/home/1568362,EBRD/CCAR/Bay East,40794852,N,Y,37.699258,-122.183872
PAST SALE,January-12-2018,Single Family Residential,351 Rosewood Ct,San Leandro,CA,94577,605000,4,1.5,San Leandro,1151,6812,1940,26,526,,Sold,,,http://www.redfin.com/CA/San-Leandro/351-Rosewood-Ct-94577/home/1692913,EBRD/CCAR/Bay East,40804892,N,Y,37.7321647,-122.1647335
PAST SALE,December-22-2017,Single Family Residential,368 Pleasant Way,San Leandro,CA,94577,650000,3,2.0,Belleview Garden,1299,4300,1940,47,500,,Sold,,,http://www.redfin.com/CA/San-Leandro/368-Pleasant-Way-94577/home/1361392,EBRD/CCAR/Bay East,40801554,N,Y,37.7313481,-122.1659299
PAST SALE,,Single Family Residential,12935 Neptune Dr,San Leandro,CA,94577,305500,2,1.0,,1113,16124,1951,,274,,,,,http://www.redfin.com/CA/San-Leandro/12935-Neptune-Dr-94577/home/1362118,,,N,Y,37.7042609,-122.1902216
PAST SALE,January-9-2018,Multi-Family (2-4 Unit),320 Suffolk Dr,San Leandro,CA,94577,698000,,,San Leandro,1491,5270,1944,29,468,,Sold,,,http://www.redfin.com/CA/San-Leandro/320-Suffolk-Dr-94577/home/754402,EBRD/CCAR/Bay East,40799333,N,Y,37.7353803,-122.168901
PAST SALE,,Condo/Co-op,1374 Pacific Ave,San Leandro,CA,94577,538000,3,2.0,,1011,,1943,,532,,,,,http://www.redfin.com/CA/San-Leandro/1374-Pacific-Ave-94577/home/12117076,,,N,Y,37.7203436,-122.1658098
PAST SALE,,Single Family Residential,2463 Jamaica Way,San Leandro,CA,94577,670000,4,2.0,,1466,5040,1961,,457,,,,,http://www.redfin.com/CA/San-Leandro/2463-Jamaica-Way-94577/home/1327964,,,N,Y,37.697541,-122.1808703
PAST SALE,February-23-2017,Single Family Residential,1650 Charles Rd,SAN LEANDRO,CA,94577,540000,2,1.0,SAN LEANDRO,1007,5100,1942,349,536,,Sold,,,http://www.redfin.com/CA/San-Leandro/1650-Charles-Rd-94577/home/769254,MLSListings,ML81632322,N,Y,37.7213884,-122.1746642
PAST SALE,February-14-2017,Single Family Residential,15024 Crosby St,San Leandro,CA,94579,505000,2,1.0,Washington Manor,986,5900,1948,358,512,,Sold,,,http://www.redfin.com/CA/San-Leandro/15024-Crosby-St-94579/home/810411,EBRD/CCAR/Bay East,40766335,N,Y,37.690876,-122.1435656
PAST SALE,April-10-2017,Condo/Co-op,14835 E 14th St #27,San Leandro,CA,94578,355000,2,2.0,Downtown San Lea,958,,1997,303,371,195,Sold,,,http://www.redfin.com/CA/San-Leandro/14835-E-14th-St-94578/unit-27/home/87575959,EBRD/CCAR/Bay East,40768016,N,Y,37.7072141,-122.131752
PAST SALE,April-21-2017,Condo/Co-op,345 Caliente Cir,San Leandro,CA,94578,395000,2,1.0,Floresta Gardens,997,1,1980,292,396,410,Sold,,,http://www.redfin.com/CA/San-Leandro/345-Caliente-Cir-94578/home/776731,EBRD/CCAR/Bay East,40772463,N,Y,37.699374,-122.1416925
PAST SALE,March-24-2017,Single Family Residential,,San Leandro,CA,94578,572000,3,2.0,Fairmont,1428,4000,1947,320,401,,Sold,,,http://www.redfin.com/CA/San-Leandro/Undisclosed-address-94578/home/597679,EBRD/CCAR/Bay East,40749723,N,Y,37.7039014,-122.1248893
PAST SALE,May-12-2017,Condo/Co-op,16006 E 14th St #219,San Leandro,CA,94578,289000,2,1.0,Ashland District,,811,1987,271,,315,Sold,,,http://www.redfin.com/CA/San-Leandro/16006-E-14th-St-94578/unit-219/home/12118244,EBRD/CCAR/Bay East,40776700,N,Y,37.6986617,-122.1188434
PAST SALE,,Single Family Residential,13990 School St,San Leandro,CA,94578,540000,3,2.0,,1284,8255,1956,,421,,,,,http://www.redfin.com/CA/San-Leandro/13990-School-St-94578/home/1408894,,,N,Y,37.7183901,-122.1344846
PAST SALE,May-24-2017,Single Family Residential,2235 Black Sooter,San Leandro,CA,94578,688000,4,2.5,Bay Walk,1544,,1999,259,446,147,Sold,,,http://www.redfin.com/CA/San-Leandro/2235-Black-Sooter-Ct-94579/home/1780489,EBRD/CCAR/Bay East,40774406,N,Y,37.680321,-122.160843
PAST SALE,April-7-2017,Single Family Residential,15696 Wicks Blvd,SAN LEANDRO,CA,94579,603000,3,2.0,SAN LEANDRO,1100,8930,1958,306,548,,Sold,,,http://www.redfin.com/CA/San-Leandro/15696-Wicks-Blvd-94579/home/1874763,MLSListings,ML81640434,N,Y,37.675869,-122.1543512
PAST SALE,,Multi-Family (2-4 Unit),1625 MONO AVE,SAN LORENZO,CA,94580,1850000,10,8.0,,5092,21780,1938,,363,,,,,http://www.redfin.com/CA/SAN-LORENZO/1625-MONO-AVE-94580/home/1147083,,,N,Y,37.704047,-122.120268
PAST SALE,June-15-2017,Single Family Residential,15884 Connolly Ave,San Lorenzo,CA,94580,500000,2,2.0,Alameda County,1031,5368,1951,237,485,,Sold,,,http://www.redfin.com/CA/San-Lorenzo/15884-Connolly-Ave-94580/home/1329677,EBRD/CCAR/Bay East,40780133,N,Y,37.6983168,-122.122173
PAST SALE,,Condo/Co-op,720 Fargo Ave Apt 8,San Leandro,CA,94579,367000,2,1.0,,840,,1965,,437,,,,,http://www.redfin.com/CA/San-Leandro/720-Fargo-Ave-94579/unit-8/home/17184521,,,N,Y,37.687827,-122.1410652
PAST SALE,April-18-2017,Single Family Residential,2112 Lakeview Dr,San Leandro,CA,94577,1275000,4,2.5,San Leandro,4449,29845,,295,287,,Sold,,,http://www.redfin.com/CA/San-Leandro/2112-Lakeview-Dr-94577/home/1859246,San Francisco MLS,453774,N,Y,37.7259682,-122.1277637
PAST SALE,September-8-2017,Single Family Residential,657 Macarthur Blvd,San Leandro,CA,94577,615000,3,3.5,Broadmoor,1732,1223,2007,152,355,284,Sold,,,http://www.redfin.com/CA/San-Leandro/657-MacArthur-Blvd-94577/home/17186466,EBRD/CCAR/Bay East,40788796,N,Y,37.738058,-122.1431865
PAST SALE,,Condo/Co-op,670 Fargo Ave Apt 4,San Leandro,CA,94579,405000,3,2.0,,1136,,1965,,357,,,,,http://www.redfin.com/CA/San-Leandro/670-Fargo-Ave-94579/unit-4/home/17184518,,,N,Y,37.6878575,-122.1404812
