SALE TYPE,SOLD DATE,PROPERTY TYPE,ADDRESS,CITY,STATE,ZIP,PRICE,BEDS,BATHS,LOCATION,SQUARE FEET,LOT SIZE,YEAR BUILT,DAYS ON MARKET,$/SQUARE FEET,HOA/MONTH,STATUS,NEXT OPEN HOUSE START TIME,NEXT OPEN HOUSE END TIME,URL (SEE http://www.redfin.com/buy-a-home/comparative-market-analysis FOR INFO ON PRICING),SOURCE,MLS#,FAVORITE,INTERESTED,LATITUDE,LONGITUDE
PAST SALE,December-7-2017,Single Family Residential,714 Southview Way,WOODSIDE,CA,94062,1480000,2,1.0,WOODSIDE,1100,16117,1944,54,1345,,Sold,,,http://www.redfin.com/CA/Woodside/714-Southview-Way-94062/home/2020314,MLSListings,ML81683033,N,Y,37.4544643,-122.2705443
PAST SALE,,Single Family Residential,50 Martinez Rd,Woodside,CA,94062,1900000,3,3.0,,1760,167716,1960,,1080,,,,,http://www.redfin.com/CA/Woodside/50-Martinez-Rd-94062/home/1937228,,,N,Y,37.3808122,-122.2559842
PAST SALE,September-30-2016,Single Family Residential,1762 Maryland St,REDWOOD CITY,CA,94061,1281000,3,1.0,REDWOOD CITY,1020,6320,1951,487,1256,,Sold,,,http://www.redfin.com/CA/Redwood-City/1762-Maryland-St-94061/home/2022150,MLSListings,ML81597189,N,Y,37.4532631,-122.2354996
PAST SALE,March-31-2015,Single Family Residential,117 Glenwood Ave,WOODSIDE,CA,94062,1217000,2,1.0,WOODSIDE,960,5190,1947,1036,1268,,Sold,,,http://www.redfin.com/CA/Woodside/117-Glenwood-Ave-94062/home/1953302,MLSListings,ML81452785,N,Y,37.436709,-122.259831
PAST SALE,March-18-2015,Single Family Residential,1712 Maryland St,REDWOOD CITY,CA,94061,1376000,3,1.0,REDWOOD CITY,1465,6050,1951,1049,939,,Sold,,,http://www.redfin.com/CA/Redwood-City/1712-Maryland-St-94061/home/1816790,MLSListings,ML81450454,N,Y,37.4540409,-122.236635
PAST SALE,March-31-2016,Single Family Residential,610 Woodside Way,WOODSIDE,CA,94062,1170000,1,1.0,WOODSIDE,1670,7440,2004,670,701,,Sold,,,http://www.redfin.com/CA/Woodside/610-Woodside-Way-94062/home/1678462,MLSListings,ML81519899,N,Y,37.4513979,-122.2761608
PAST SALE,August-14-2015,Single Family Residential,47 Skylonda Dr,WOODSIDE,CA,94062,650000,1,1.0,WOODSIDE,790,18560,1930,900,823,,Sold,,,http://www.redfin.com/CA/Redwood-City/47-Skylonda-Dr-94062/home/1082940,MLSListings,ML81459350,N,Y,37.384435,-122.2650772
PAST SALE,August-28-2015,Single Family Residential,1634 Maryland St,REDWOOD CITY,CA,94061,1255000,3,1.0,REDWOOD CITY,1020,6050,1951,886,1230,,Sold,,,http://www.redfin.com/CA/Redwood-City/1634-Maryland-St-94061/home/1082580,MLSListings,ML81497779,N,Y,37.4556119,-122.2384646
PAST SALE,August-5-2015,Single Family Residential,12 Skylonda Dr,WOODSIDE,CA,94062,838000,2,1.0,WOODSIDE,1480,16600,1946,909,566,,Sold,,,http://www.redfin.com/CA/Redwood-City/12-Skylonda-Dr-94062/home/1668602,MLSListings,ML81472657,N,Y,37.383486,-122.263548
PAST SALE,May-24-2017,Single Family Residential,135 Alta Vista Rd,WOODSIDE,CA,94062,1800000,2,1.0,WOODSIDE,1110,9853,1928,251,1622,,Sold,,,http://www.redfin.com/CA/Woodside/135-Alta-Vista-Rd-94062/home/1964340,MLSListings,ML81650616,N,Y,37.4377344,-122.2600448
PAST SALE,February-4-2016,Single Family Residential,319 Wyndham Dr,PORTOLA VALLEY,CA,94028,1600000,2,1.0,PORTOLA VALLEY,1220,9099,1946,726,1311,,Sold,,,http://www.redfin.com/CA/Portola-Valley/319-Wyndham-Dr-94028/home/1754206,MLSListings,ML81549457,N,Y,37.3841899,-122.2332285
PAST SALE,,Single Family Residential,2833 Kensington Rd,Redwood City,CA,94061,1200000,3,1.0,,1020,6441,1952,,1176,,,,,http://www.redfin.com/CA/Redwood-City/2833-Kensington-Rd-94061/home/2006180,,,N,Y,37.4564847,-122.2394883
PAST SALE,,Single Family Residential,890 Patrol Rd,Woodside,CA,94062,1200000,3,1.0,,1080,20000,1964,,1111,,,,,http://www.redfin.com/CA/Woodside/890-Patrol-Rd-94062/home/2047793,,,N,Y,37.429483,-122.290159
PAST SALE,November-15-2017,Single Family Residential,243 Blakewood Way,WOODSIDE,CA,94062,729000,2,1.0,WOODSIDE,630,32000,1930,76,1157,,Sold,,,http://www.redfin.com/CA/Woodside/243-Blakewood-Way-94062/home/897893,MLSListings,ML81679065,N,Y,37.387386,-122.268643
PAST SALE,September-7-2016,Single Family Residential,148 Hillside Dr,WOODSIDE,CA,94062,1498000,3,1.0,WOODSIDE,810,14740,1928,510,1849,,Sold,,,http://www.redfin.com/CA/Woodside/148-Hillside-Dr-94062/home/2052540,MLSListings,ML81600418,N,Y,37.4390122,-122.2545441
PAST SALE,,Single Family Residential,118 Hillside Dr,Woodside,CA,94062,1460000,2,1.0,,1350,7000,1929,,1081,,,,,http://www.redfin.com/CA/Woodside/118-Hillside-Dr-94062/home/1408162,,,N,Y,37.4382864,-122.2543333
PAST SALE,October-9-2015,Single Family Residential,240 Lindenbrook Rd,WOODSIDE,CA,94062,979000,2,1.0,WOODSIDE,1090,15022,1937,844,898,,Sold,,,http://www.redfin.com/CA/Woodside/240-Lindenbrook-Rd-94062/home/2041378,MLSListings,ML81485533,N,Y,37.435981,-122.248487
PAST SALE,October-19-2017,Vacant Land,327 Hillside,WOODSIDE,CA,94062,1050000,,,WOODSIDE,,7000,,103,,,Sold,,,http://www.redfin.com/CA/Woodside/327-Hillside-Dr-94062/home/1240960,MLSListings,ML81682190,N,Y,37.4383365,-122.257696
PAST SALE,April-20-2017,Single Family Residential,1 Fremont Way,WOODSIDE,CA,94062,610000,2,1.0,WOODSIDE,620,12500,1925,285,984,,Sold,,,http://www.redfin.com/CA/Woodside/1-Fremont-Way-94062/home/113652884,MLSListings,ML81645109,N,Y,37.382594,-122.263619
PAST SALE,October-16-2015,Single Family Residential,10 Palm Circle Rd,WOODSIDE,CA,94062,1515151,1,1.0,WOODSIDE,1190,15246,2003,837,1273,,Sold,,,http://www.redfin.com/CA/Woodside/10-Palm-Circle-Rd-94062/home/878631,MLSListings,ML81497007,N,Y,37.4515763,-122.2777355
PAST SALE,,Single Family Residential,1724 Alameda de las Pulgas,Redwood City,CA,94061,802000,3,1.0,,1030,7020,1952,,779,,,,,http://www.redfin.com/CA/Redwood-City/1724-Alameda-de-las-Pulgas-94061/home/2052489,,,N,Y,37.4531709,-122.236962
PAST SALE,March-3-2017,Single Family Residential,40 Big Tree Way,WOODSIDE,CA,94062,561000,1,1.0,WOODSIDE,810,9165,1946,333,693,,Sold,,,http://www.redfin.com/CA/Redwood-City/40-Big-Tree-Way-94062/home/1686742,MLSListings,ML81636189,N,Y,37.3796643,-122.2607443
PAST SALE,,Single Family Residential,621 Eastview Way,Woodside,CA,94062,820000,2,1.0,,790,13721,1933,,1038,,,,,http://www.redfin.com/CA/Woodside/621-Eastview-Way-94062/home/1174255,,,N,Y,37.459517,-122.277239
PAST SALE,August-18-2017,Single Family Residential,322 Wyndham Dr,PORTOLA VALLEY,CA,94028,1725000,3,1.0,PORTOLA VALLEY,1280,6360,1952,165,1348,,Sold,,,http://www.redfin.com/CA/Portola-Valley/322-Wyndham-Dr-94028/home/1100928,MLSListings,ML81669197,N,Y,37.3847083,-122.2334559
PAST SALE,,Single Family Residential,2838 Kensington Rd,Redwood City,CA,94061,335000,3,1.0,,1370,7874,1952,,245,,,,,http://www.redfin.com/CA/Redwood-City/2838-Kensington-Rd-94061/home/2039432,,,N,Y,37.4567998,-122.2398896
PAST SALE,December-4-2015,Single Family Residential,4214 Jefferson Ave,WOODSIDE,CA,94062,1100000,2,1.5,WOODSIDE,1690,24375,1932,788,651,,Sold,,,http://www.redfin.com/CA/Woodside/4214-Jefferson-Ave-94062/home/1552302,MLSListings,ML81515911,N,Y,37.4515714,-122.2709951
PAST SALE,July-28-2017,Single Family Residential,1713 Alameda De Las Pulgas,REDWOOD CITY,CA,94061,1450000,3,1.5,REDWOOD CITY,1030,6050,1952,186,1408,,Sold,,,http://www.redfin.com/CA/Redwood-City/1713-Alameda-de-las-Pulgas-94061/home/877848,MLSListings,ML81656360,N,Y,37.4538058,-122.2369708
PAST SALE,June-22-2015,Single Family Residential,2915 Woodside Rd,WOODSIDE,CA,94062,2200000,2,1.5,WOODSIDE,1550,110987,1959,953,1419,,Sold,,,http://www.redfin.com/CA/Woodside/2915-Woodside-Rd-94062/home/1701068,MLSListings,ML81457446,N,Y,37.4289929,-122.2492687
PAST SALE,June-24-2016,Single Family Residential,1918 Maddux Dr,REDWOOD CITY,CA,94061,1380000,4,2.0,REDWOOD CITY,1470,6050,1951,585,939,,Sold,,,http://www.redfin.com/CA/Redwood-City/1918-Maddux-Dr-94061/home/1625639,MLSListings,ML81586683,N,Y,37.4529742,-122.2347181
PAST SALE,May-22-2017,Single Family Residential,523 Hillside Dr,WOODSIDE,CA,94062,1510000,2,2.0,WOODSIDE,1276,12100,1924,253,1183,,Sold,,,http://www.redfin.com/CA/Woodside/523-Hillside-Dr-94062/home/1379857,MLSListings,ML81646773,N,Y,37.437792,-122.258901
PAST SALE,June-27-2017,Townhouse,4062 Farm Hill Blvd #2,REDWOOD CITY,CA,94061,900000,2,2.0,REDWOOD CITY,1335,73971,1970,217,674,553,Sold,,,http://www.redfin.com/CA/Redwood-City/4062-Farm-Hill-Blvd-94061/unit-2/home/1997206,MLSListings,ML81653208,N,Y,37.449771,-122.2607939
PAST SALE,July-26-2017,Single Family Residential,1645 Alameda De Las Pulgas,REDWOOD CITY,CA,94061,1698000,4,2.0,REDWOOD CITY,1990,6175,1952,188,853,,Sold,,,http://www.redfin.com/CA/Redwood-City/1645-Alameda-de-las-Pulgas-94061/home/1445258,MLSListings,ML81667155,N,Y,37.4554394,-122.2388009
PAST SALE,,Single Family Residential,1803 Alameda de las Pulgas,Redwood City,CA,94061,1283000,3,2.0,,1290,5808,1952,,995,,,,,http://www.redfin.com/CA/Redwood-City/1803-Alameda-de-las-Pulgas-94061/home/880329,,,N,Y,37.4529134,-122.2356851
PAST SALE,April-13-2017,Single Family Residential,1557 Granger Way,REDWOOD CITY,CA,94061,1760000,3,2.0,REDWOOD CITY,1460,10800,1954,292,1205,,Sold,,,http://www.redfin.com/CA/Redwood-City/1557-Granger-Way-94061/home/879447,MLSListings,ML81642770,N,Y,37.4549128,-122.242443
PAST SALE,September-15-2017,Single Family Residential,124 Alta Mesa Rd,WOODSIDE,CA,94062,1649000,4,2.0,WOODSIDE,1560,13000,1955,137,1057,,Sold,,,http://www.redfin.com/CA/Woodside/124-Alta-Mesa-Rd-94062/home/1920757,MLSListings,ML81653451,N,Y,37.4409319,-122.255293
PAST SALE,,Single Family Residential,1100 Mountain Home Rd,Woodside,CA,94062,5900000,2,2.0,,1830,88862,1956,,3224,,,,,http://www.redfin.com/CA/Woodside/1100-Mountain-Home-Rd-94062/home/1232951,,,N,Y,37.4060532,-122.2495971
PAST SALE,December-15-2016,Single Family Residential,1563 Fernside St,REDWOOD CITY,CA,94061,1410000,3,2.0,REDWOOD CITY,1290,6780,1954,411,1093,,Sold,,,http://www.redfin.com/CA/Redwood-City/1563-Fernside-St-94061/home/1154893,MLSListings,ML81633994,N,Y,37.4558274,-122.2409009
PAST SALE,August-30-2016,Single Family Residential,2787 Ohio Ave,REDWOOD CITY,CA,94061,1375000,4,2.0,REDWOOD CITY,2042,7500,1951,518,673,,Sold,,,http://www.redfin.com/CA/Redwood-City/2787-Ohio-Ave-94061/home/880658,MLSListings,ML81595356,N,Y,37.451376,-122.2325679
PAST SALE,November-9-2015,Single Family Residential,3316 Woodside Rd,WOODSIDE,CA,94062,2850000,3,2.0,WOODSIDE,2125,15000,1918,813,1341,,Sold,,,http://www.redfin.com/CA/Woodside/3316-Woodside-Rd-94062/home/1803114,MLSListings,ML81516497,N,Y,37.4273759,-122.262802
PAST SALE,,Single Family Residential,2030 Nassau Dr,Redwood City,CA,94061,1560000,3,2.0,,1560,6596,1956,,1000,,,,,http://www.redfin.com/CA/Redwood-City/2030-Nassau-Dr-94061/home/1609658,,,N,Y,37.4467258,-122.2269857
PAST SALE,November-30-2016,Single Family Residential,112 Skylonda Dr,Woodside,CA,94062,975000,2,2.0,San Mateo,1200,8000,1950,426,813,,Sold,,,http://www.redfin.com/CA/Redwood-City/112-Skylonda-Dr-94062/home/1988673,San Francisco MLS,445841,N,Y,37.385826,-122.265423
PAST SALE,December-3-2015,Single Family Residential,1528 Mitchell Way,Redwood City,CA,94061,1200000,3,2.0,Sterling Terrace,1250,6138,1954,789,960,,Sold,,,http://www.redfin.com/CA/Redwood-City/1528-Mitchell-Way-94061/home/878940,EBRD/CCAR/Bay East,40723820,N,Y,37.4553585,-122.2442873
PAST SALE,,Single Family Residential,444 Kings Mountain Rd,Woodside,CA,94062,2896000,3,2.0,,2660,95832,1948,,1089,,,,,http://www.redfin.com/CA/Woodside/444-Kings-Mountain-Rd-94062/home/1592768,,,N,Y,37.4310095,-122.2771376
PAST SALE,July-22-2016,Single Family Residential,104 Highland Ter,WOODSIDE,CA,94062,1350000,2,2.0,WOODSIDE,1270,6699,1975,557,1063,,Sold,,,http://www.redfin.com/CA/Woodside/104-Highland-Ter-94062/home/1617773,MLSListings,ML81585609,N,Y,37.439528,-122.2543378
PAST SALE,,Single Family Residential,70 Valley Rd,San Carlos,CA,94070,8000000,3,2.0,,1499,337938,2000,,5337,,,,,http://www.redfin.com/CA/San-Carlos/70-Valley-Rd-94070/home/2027632,,,N,Y,37.428033,-122.229354
PAST SALE,,Single Family Residential,246 Mountain Home Rd,Woodside,CA,94062,19250000,6,5.0,,5751,138215,2015,,3347,,,,,http://www.redfin.com/CA/Woodside/246-Mountain-Home-Rd-94062/home/1489365,,,N,Y,37.4257856,-122.2551005
PAST SALE,,Single Family Residential,115 Eleanor Dr,Woodside,CA,94062,6500000,5,4.0,,3935,48961,2010,,1652,,,,,http://www.redfin.com/CA/Woodside/115-Eleanor-Dr-94062/home/1269214,,,N,Y,37.4417067,-122.2326393
PAST SALE,May-4-2017,Single Family Residential,3097 Muller Ct,Redwood City,CA,94061,1550000,3,2.0,Redwood City,1640,8100,1954,271,945,,Sold,,,http://www.redfin.com/CA/Redwood-City/3097-Muller-Ct-94061/home/878518,CRISNet,SR17099486,N,Y,37.4549154,-122.2414246
PAST SALE,November-17-2015,Single Family Residential,1555 Mitchell Way,REDWOOD CITY,CA,94061,1600000,3,2.0,REDWOOD CITY,1820,6000,1954,805,879,,Sold,,,http://www.redfin.com/CA/Redwood-City/1555-Mitchell-Way-94061/home/1837187,MLSListings,ML81517415,N,Y,37.4554319,-122.2436961
PAST SALE,June-29-2015,Single Family Residential,1732 Maryland St,REDWOOD CITY,CA,94061,1250000,3,2.0,REDWOOD CITY,1640,6050,1951,946,762,,Sold,,,http://www.redfin.com/CA/Redwood-City/1732-Maryland-St-94061/home/877840,MLSListings,ML81467403,N,Y,37.453775,-122.2362654
PAST SALE,August-26-2015,Single Family Residential,130 Normandy Ln,WOODSIDE,CA,94062,2575000,3,2.0,WOODSIDE,2050,52560,1951,888,1256,85,Sold,,,http://www.redfin.com/CA/Woodside/130-Normandy-Ln-94062/home/1882509,MLSListings,ML81484397,N,Y,37.4535047,-122.2401825
PAST SALE,April-6-2015,Single Family Residential,1542 Mitchell Way,REDWOOD CITY,CA,94061,1066250,3,2.0,REDWOOD CITY,1250,6138,1954,1030,853,,Sold,,,http://www.redfin.com/CA/Redwood-City/1542-Mitchell-Way-94061/home/1240790,MLSListings,ML81447757,N,Y,37.4552434,-122.2441483
PAST SALE,May-27-2016,Single Family Residential,1533 Granger Way,REDWOOD CITY,CA,94061,1825000,4,2.0,REDWOOD CITY,2025,7410,1954,613,901,,Sold,,,http://www.redfin.com/CA/Redwood-City/1533-Granger-Way-94061/home/2024951,MLSListings,ML81583935,N,Y,37.4556254,-122.2427197
PAST SALE,September-16-2017,Single Family Residential,1967 Maddux Dr,REDWOOD CITY,CA,94061,1600000,3,2.0,REDWOOD CITY,1400,6887,1952,136,1143,,Sold,,,http://www.redfin.com/CA/Redwood-City/1967-Maddux-Dr-94061/home/2053535,MLSListings,ML81678379,N,Y,37.4522185,-122.2344408
PAST SALE,August-5-2017,Single Family Residential,167 Eleanor Dr,WOODSIDE,CA,94062,2400000,2,2.0,WOODSIDE,1840,58980,1954,178,1304,,Sold,,,http://www.redfin.com/CA/Woodside/167-Eleanor-Dr-94062/home/2002501,MLSListings,ML81667153,N,Y,37.4392307,-122.2347266
PAST SALE,June-26-2017,Single Family Residential,46 Skyline Dr,WOODSIDE,CA,94062,1240000,3,2.0,WOODSIDE,1645,17816,1926,218,754,,Sold,,,http://www.redfin.com/CA/Redwood-City/46-Skyline-Dr-94062/home/1525083,MLSListings,ML81651246,N,Y,37.378346,-122.2607664
PAST SALE,September-26-2017,Single Family Residential,1540 Portola Rd,WOODSIDE,CA,94062,3100000,3,2.0,WOODSIDE,2820,43560,1953,126,1099,,Sold,,,http://www.redfin.com/CA/Woodside/1540-Portola-Rd-94062/home/2009633,MLSListings,ML81676453,N,Y,37.3955652,-122.245858
PAST SALE,November-6-2015,Single Family Residential,831 Glencrag Way,WOODSIDE,CA,94062,1560000,2,2.0,WOODSIDE,1500,18468,1930,816,1040,,Sold,,,http://www.redfin.com/CA/Woodside/831-Glencrag-Way-94062/home/876270,MLSListings,ML81516486,N,Y,37.4502976,-122.2753638
PAST SALE,July-10-2015,Single Family Residential,17300 Skyline Blvd,WOODSIDE,CA,94062,1575000,2,2.0,WOODSIDE,2180,120226,1974,935,722,,Sold,,,http://www.redfin.com/CA/Woodside/17300-Skyline-Blvd-94062/home/897143,MLSListings,ML81468394,N,Y,37.3855502,-122.2641896
PAST SALE,October-6-2015,Single Family Residential,25 Hilary Ln,REDWOOD CITY,CA,94061,1700000,3,2.0,REDWOOD CITY,1540,9800,1959,847,1104,,Sold,,,http://www.redfin.com/CA/Redwood-City/25-Hilary-Ln-94061/home/2053549,MLSListings,ML81514050,N,Y,37.44517,-122.2251336
PAST SALE,December-14-2016,Single Family Residential,314 Wyndham Dr,PORTOLA VALLEY,CA,94028,1780000,3,2.0,PORTOLA VALLEY,1500,6100,1952,412,1187,,Sold,,,http://www.redfin.com/CA/Portola-Valley/314-Wyndham-Dr-94028/home/1871599,MLSListings,ML81630867,N,Y,37.3846173,-122.2332684
PAST SALE,May-27-2016,Single Family Residential,711 W California Way,WOODSIDE,CA,94062,1825000,2,2.0,WOODSIDE,2690,28024,1981,613,678,,Sold,,,http://www.redfin.com/CA/Woodside/711-W-California-Way-94062/home/1454815,MLSListings,ML81578344,N,Y,37.457287,-122.274831
PAST SALE,October-4-2016,Single Family Residential,150 Otis Ave,WOODSIDE,CA,94062,1460000,2,2.0,WOODSIDE,1120,9000,1940,483,1304,,Sold,,,http://www.redfin.com/CA/Woodside/150-Otis-Ave-94062/home/2022214,MLSListings,ML81593057,N,Y,37.4362665,-122.2557202
PAST SALE,December-20-2017,Single Family Residential,127 Otis Ave,WOODSIDE,CA,94062,2850000,3,2.0,WOODSIDE,2047,9750,1976,41,1392,,Sold,,,http://www.redfin.com/CA/Woodside/127-Otis-Ave-94062/home/1592836,MLSListings,ML81678302,N,Y,37.436903,-122.256193
PAST SALE,October-17-2017,Townhouse,4062 Farm Hill Blvd #5,REDWOOD CITY,CA,94061,855000,2,2.0,REDWOOD CITY,1330,73971,1970,105,643,553,Sold,,,http://www.redfin.com/CA/Redwood-City/4062-Farm-Hill-Blvd-94061/unit-5/home/983504,MLSListings,ML81674430,N,Y,37.449771,-122.2607939
PAST SALE,November-30-2017,Townhouse,4062 Farm Hill Blvd #3,REDWOOD CITY,CA,94061,839950,2,2.0,REDWOOD CITY,1335,1152,1970,61,629,553,Sold,,,http://www.redfin.com/CA/Redwood-City/4062-Farm-Hill-Blvd-94061/unit-3/home/1465949,MLSListings,ML81682335,N,Y,37.449771,-122.2607939
PAST SALE,April-3-2015,Single Family Residential,2774 Delaware Ave,REDWOOD CITY,CA,94061,1352000,3,2.0,REDWOOD CITY,1440,8453,1950,1033,939,,Sold,,,http://www.redfin.com/CA/Redwood-City/2774-Delaware-Ave-94061/home/1871293,MLSListings,ML81452905,N,Y,37.450777,-122.2323554
PAST SALE,November-23-2016,Single Family Residential,11 Inyo Pl,REDWOOD CITY,CA,94061,1560000,3,2.0,REDWOOD CITY,2050,5824,1965,433,761,,Sold,,,http://www.redfin.com/CA/Redwood-City/11-Inyo-Pl-94061/home/1668318,MLSListings,ML81626460,N,Y,37.4457817,-122.2267563
PAST SALE,November-10-2015,Condo/Co-op,4086 Farm Hill Blvd #3,REDWOOD CITY,CA,94061,739500,2,2.0,REDWOOD CITY,1335,,1970,812,554,519,Sold,,,http://www.redfin.com/CA/Redwood-City/4086-Farm-Hill-Blvd-94061/unit-3/home/983470,MLSListings,ML81515720,N,Y,37.4493303,-122.2607734
PAST SALE,,Single Family Residential,130 Laning Dr,Woodside,CA,94062,3650000,4,2.0,,2050,63000,1976,,1780,,,,,http://www.redfin.com/CA/Woodside/130-Laning-Dr-94062/home/893433,,,N,Y,37.4394071,-122.2612033
PAST SALE,October-8-2015,Single Family Residential,3210 Woodside Rd,WOODSIDE,CA,94062,3400000,2,2.0,WOODSIDE,1660,18600,1915,845,2048,,Sold,,,http://www.redfin.com/CA/Woodside/3210-Woodside-Rd-94062/home/2041364,MLSListings,ML81516475,N,Y,37.4281683,-122.260202
PAST SALE,June-30-2017,Single Family Residential,6 Bret Harte Dr,WOODSIDE,CA,94062,1100000,3,2.0,WOODSIDE,1540,14000,1966,214,714,,Sold,,,http://www.redfin.com/CA/Woodside/6-Bret-Harte-Dr-94062/home/898067,MLSListings,ML81651502,N,Y,37.382947,-122.26467
PAST SALE,,Single Family Residential,215 Mountain Wood Ln,Woodside,CA,94062,4999500,3,2.0,,3390,137780,1952,,1475,,,,,http://www.redfin.com/CA/Woodside/215-Mountain-Wood-Ln-94062/home/891930,,,N,Y,37.418864,-122.260997
PAST SALE,,Single Family Residential,3450 Tripp Rd,Woodside,CA,94062,3500000,4,2.0,,2760,46174,1955,,1268,,,,,http://www.redfin.com/CA/Woodside/3450-Tripp-Rd-94062/home/891685,,,N,Y,37.4260024,-122.2753422
PAST SALE,February-17-2015,Single Family Residential,22 Inyo Pl,REDWOOD CITY,CA,94061,1385000,4,2.0,REDWOOD CITY,2200,6216,1965,1078,630,,Sold,,,http://www.redfin.com/CA/Redwood-City/22-Inyo-Pl-94061/home/1668334,MLSListings,ML81447127,N,Y,37.4457632,-122.2261158
PAST SALE,May-2-2016,Single Family Residential,1818 Alameda De Las Pulgas,REDWOOD CITY,CA,94061,1326818,3,2.0,REDWOOD CITY,1450,6111,1952,638,915,,Sold,,,http://www.redfin.com/CA/Redwood-City/1818-Alameda-de-las-Pulgas-94061/home/1568232,MLSListings,ML81576780,N,Y,37.452412,-122.2358218
PAST SALE,August-15-2016,Single Family Residential,210 Woodside Dr,WOODSIDE,CA,94062,2725000,4,2.0,WOODSIDE,1650,50529,1953,533,1652,12,Sold,,,http://www.redfin.com/CA/Woodside/210-Woodside-Dr-94062/home/2009548,MLSListings,ML81577953,N,Y,37.4510936,-122.2392004
PAST SALE,,Single Family Residential,95 Skywood Way,Woodside,CA,94062,1500000,3,2.0,,4350,197762,1976,,345,,,,,http://www.redfin.com/CA/Woodside/95-Skywood-Way-94062/home/2015116,,,N,Y,37.3936729,-122.2626305
PAST SALE,October-20-2017,Single Family Residential,2439 Alameda De Las Pulgas,REDWOOD CITY,CA,94061,1850000,3,2.0,REDWOOD CITY,1550,14800,1953,102,1194,,Sold,,,http://www.redfin.com/CA/Redwood-City/2439-Alameda-de-las-Pulgas-94061/home/1865031,MLSListings,ML81672021,N,Y,37.4451452,-122.2260174
PAST SALE,July-20-2016,Single Family Residential,975 Portola Rd,PORTOLA VALLEY,CA,94028,1570000,3,2.0,PORTOLA VALLEY,1280,12601,1948,559,1227,,Sold,,,http://www.redfin.com/CA/Portola-Valley/975-Portola-Rd-94028/home/2054474,MLSListings,ML81583182,N,Y,37.3845474,-122.235422
PAST SALE,June-4-2015,Single Family Residential,158 Wayside Rd,PORTOLA VALLEY,CA,94028,1710000,4,2.0,PORTOLA VALLEY,2226,10950,1953,971,768,,Sold,,,http://www.redfin.com/CA/Portola-Valley/158-Wayside-Rd-94028/home/1644531,MLSListings,ML81458432,N,Y,37.3835791,-122.2362726
PAST SALE,,Single Family Residential,156 Romero Rd,Woodside,CA,94062,3300000,2,2.0,,2210,42380,1936,,1493,,,,,http://www.redfin.com/CA/Woodside/156-Romero-Rd-94062/home/895756,,,N,Y,37.4331011,-122.2537264
PAST SALE,May-15-2015,Single Family Residential,136 Otis Ave,WOODSIDE,CA,94062,1400000,4,2.0,WOODSIDE,1690,8000,1959,991,828,,Sold,,,http://www.redfin.com/CA/Woodside/136-Otis-Ave-94062/home/894683,MLSListings,ML81452687,N,Y,37.43663,-122.256586
PAST SALE,May-20-2015,Single Family Residential,632 Eastview Way,REDWOOD CITY,CA,94062,1885000,4,2.0,REDWOOD CITY,2410,14400,1969,986,782,,Sold,,,http://www.redfin.com/CA/Woodside/632-Eastview-Way-94062/home/875862,MLSListings,ML81452682,N,Y,37.4586971,-122.2753947
PAST SALE,September-26-2017,Single Family Residential,316 Blakewood Way,WOODSIDE,CA,94062,1465000,3,2.0,WOODSIDE,2035,21500,1933,126,720,,Sold,,,http://www.redfin.com/CA/Redwood-City/316-Blakewood-Way-94062/home/897851,MLSListings,ML81672632,N,Y,37.388052,-122.269539
PAST SALE,February-17-2016,Single Family Residential,130 Hardwick Rd,WOODSIDE,CA,94062,2905000,3,2.0,WOODSIDE,2220,45302,1951,713,1309,115,Sold,,,http://www.redfin.com/CA/Woodside/130-Hardwick-Rd-94062/home/2012000,MLSListings,ML81546213,N,Y,37.4448026,-122.2458618
PAST SALE,December-28-2017,Single Family Residential,1620 Alameda De Las Pulgas,REDWOOD CITY,CA,94061,1650000,3,2.0,REDWOOD CITY,1480,6240,1952,33,1115,,Sold,,,http://www.redfin.com/CA/Redwood-City/1620-Alameda-de-las-Pulgas-94061/home/1316451,MLSListings,ML81685557,N,Y,37.4556497,-122.2398154
PAST SALE,,Single Family Residential,2060 Nassau Dr,Redwood City,CA,94061,1000000,3,2.0,,1510,6596,1956,,662,,,,,http://www.redfin.com/CA/Redwood-City/2060-Nassau-Dr-94061/home/1871335,,,N,Y,37.4462541,-122.2273833
PAST SALE,October-28-2016,Single Family Residential,48 Ridgecourt,WOODSIDE,CA,94062,1450000,3,2.0,WOODSIDE,1520,7901,1947,459,954,,Sold,,,http://www.redfin.com/CA/Woodside/48-Ridge-Ct-94062/home/2002583,MLSListings,ML81614821,N,Y,37.4377361,-122.2548476
PAST SALE,,Single Family Residential,2885 Woodside Rd,Woodside,CA,94062,112000,1,2.0,,1580,808343,1961,,71,,,,,http://www.redfin.com/CA/Woodside/2885-Woodside-Rd-94062/home/895692,,,N,Y,37.427095,-122.24303
PAST SALE,December-5-2017,Single Family Residential,3073 Muller Ct,REDWOOD CITY,CA,94061,2180000,3,2.0,REDWOOD CITY,1915,10000,1954,56,1138,,Sold,,,http://www.redfin.com/CA/Redwood-City/3073-Muller-Ct-94061/home/2056515,MLSListings,ML81683739,N,Y,37.4551287,-122.2413592
PAST SALE,April-14-2017,Single Family Residential,2025 Nassau Dr,REDWOOD CITY,CA,94061,1850000,3,2.0,REDWOOD CITY,1510,6596,1955,291,1225,,Sold,,,http://www.redfin.com/CA/Redwood-City/2025-Nassau-Dr-94061/home/1016299,MLSListings,ML81643728,N,Y,37.4464779,-122.2266168
PAST SALE,September-29-2015,Single Family Residential,27 Sargent Ln,ATHERTON,CA,94027,4618000,3,2.0,ATHERTON,2750,49005,1974,854,1679,,Sold,,,http://www.redfin.com/CA/Atherton/27-Sargent-Ln-94027/home/898732,MLSListings,ML81501162,N,Y,37.4275677,-122.2253919
PAST SALE,September-2-2017,Single Family Residential,2932 Carolina Ave,REDWOOD CITY,CA,94061,1925000,3,2.0,REDWOOD CITY,1620,7425,1948,150,1188,,Sold,,,http://www.redfin.com/CA/Redwood-City/2932-Carolina-Ave-94061/home/2006171,MLSListings,ML81676366,N,Y,37.4499478,-122.2318416
PAST SALE,November-20-2017,Single Family Residential,1569 Mitchell Way,REDWOOD CITY,CA,94061,1650000,3,2.0,REDWOOD CITY,1650,6000,1954,71,1000,,Sold,,,http://www.redfin.com/CA/Redwood-City/1569-Mitchell-Way-94061/home/878987,MLSListings,ML81681473,N,Y,37.4552922,-122.2435327
PAST SALE,August-21-2015,Single Family Residential,568 Mountain Home Rd,WOODSIDE,CA,94062,7400000,5,2.5,WOODSIDE,3460,135472,1969,893,2139,,Sold,,,http://www.redfin.com/CA/Woodside/568-Mountain-Home-Rd-94062/home/1214101,MLSListings,ML81497036,N,Y,37.4160578,-122.2545209
PAST SALE,,Single Family Residential,25 Martin Ln,Woodside,CA,94062,345000,2,2.0,,1330,13659,1955,,259,,,,,http://www.redfin.com/CA/Woodside/25-Martin-Ln-94062/home/1700941,,,N,Y,37.4268895,-122.2660811
PAST SALE,July-21-2016,Single Family Residential,1185 Canada Rd,WOODSIDE,CA,94062,1643000,2,2.5,WOODSIDE,1320,10781,1929,558,1245,,Sold,,,http://www.redfin.com/CA/Woodside/1185-Canada-Rd-94062/home/1920754,MLSListings,ML81590296,N,Y,37.4373366,-122.261002
PAST SALE,October-3-2017,Single Family Residential,235 Harcross Rd,WOODSIDE,CA,94062,2300000,3,2.5,WOODSIDE,2200,52600,1956,119,1045,,Sold,,,http://www.redfin.com/CA/Woodside/235-Harcross-Rd-94062/home/879502,MLSListings,ML81672767,N,Y,37.4516669,-122.2435035
PAST SALE,June-24-2016,Single Family Residential,1600 La Honda Rd,WOODSIDE,CA,94062,1572000,3,2.5,WOODSIDE,2310,58806,1953,585,681,,Sold,,,http://www.redfin.com/CA/Woodside/1600-La-Honda-Rd-94062/home/1948053,MLSListings,ML81582202,N,Y,37.3857717,-122.2618395
PAST SALE,January-27-2016,Single Family Residential,3665 Woodside Rd,WOODSIDE,CA,94062,4000000,3,2.5,WOODSIDE,2120,143922,1956,734,1887,,Sold,,,http://www.redfin.com/CA/Woodside/3665-Woodside-Rd-94062/home/891944,MLSListings,ML81461964,N,Y,37.4204009,-122.2686928
PAST SALE,February-6-2015,Single Family Residential,35 SKYWOOD Way,Woodside,CA,94062,1610000,3,2.5,Woodside,2000,44867,1964,1089,805,,Sold,,,http://www.redfin.com/CA/Woodside/35-Skywood-Way-94062/home/897053,MLSListings,ML81440212,N,Y,37.3904992,-122.2654295
PAST SALE,October-6-2017,Single Family Residential,15 Woodhill Dr,REDWOOD CITY,CA,94061,2600000,3,2.5,REDWOOD CITY,2420,12100,1985,116,1074,130,Sold,,,http://www.redfin.com/CA/Redwood-City/15-Woodhill-Dr-94061/home/1871298,MLSListings,ML81674256,N,Y,37.4491028,-122.2553939
PAST SALE,May-15-2015,Single Family Residential,95 Roan Pl,WOODSIDE,CA,94062,2125000,4,2.5,WOODSIDE,1960,107593,1960,991,1084,,Sold,,,http://www.redfin.com/CA/Woodside/95-Roan-Pl-94062/home/891641,MLSListings,ML81451815,N,Y,37.4281615,-122.2837851
PAST SALE,November-4-2015,Single Family Residential,349 Manuella Ave,WOODSIDE,CA,94062,11000000,2,2.5,WOODSIDE,2190,184694,1906,818,5023,,Sold,,,http://www.redfin.com/CA/Woodside/349-Manuella-Ave-94062/home/1999870,MLSListings,ML81518218,N,Y,37.430928,-122.265893
PAST SALE,September-4-2015,Single Family Residential,320 Hillside Dr,WOODSIDE,CA,94062,2650000,4,2.5,WOODSIDE,2840,16814,1964,879,933,,Sold,,,http://www.redfin.com/CA/Woodside/320-Hillside-Dr-94062/home/1308322,MLSListings,ML81469284,N,Y,37.4389534,-122.2577331
PAST SALE,,Single Family Residential,2150 Stockbridge Ave,Woodside,CA,94062,2750000,4,2.0,,2230,37244,1963,,1233,,,,,http://www.redfin.com/CA/Woodside/2150-Stockbridge-Ave-94062/home/1916511,,,N,Y,37.4426474,-122.2264237
PAST SALE,,Single Family Residential,1035 Silver Hill Rd,Redwood City,CA,94061,2090000,3,2.0,,2140,27500,1965,,977,,,,,http://www.redfin.com/CA/Redwood-City/1035-Silver-Hill-Rd-94061/home/878746,,,N,Y,37.4527083,-122.2524961
PAST SALE,April-23-2015,Single Family Residential,27 Woodhill Dr,REDWOOD CITY,CA,94061,2318000,3,2.5,REDWOOD CITY,2870,14900,1985,1013,808,125,Sold,,,http://www.redfin.com/CA/Redwood-City/27-Woodhill-Dr-94061/home/1324514,MLSListings,ML81456261,N,Y,37.4500792,-122.2556203
PAST SALE,July-10-2017,Single Family Residential,2808 Carolina Ave,REDWOOD CITY,CA,94061,1950000,3,2.5,REDWOOD CITY,2108,9450,1951,204,925,,Sold,,,http://www.redfin.com/CA/Redwood-City/2808-Carolina-Ave-94061/home/1947818,MLSListings,ML81651454,N,Y,37.4511599,-122.2333837
PAST SALE,March-8-2016,Townhouse,4050 Farm Hill Blvd #1,REDWOOD CITY,CA,94061,850000,3,2.5,REDWOOD CITY,1386,,1970,693,613,567,Sold,,,http://www.redfin.com/CA/Redwood-City/4050-Farm-Hill-Blvd-94061/unit-1/home/1041630,MLSListings,ML81549515,N,Y,37.4500408,-122.2608384
PAST SALE,October-12-2016,Single Family Residential,5 Woodridge Ct,REDWOOD CITY,CA,94061,2795000,4,2.5,REDWOOD CITY,3565,13800,1984,475,784,130,Sold,,,http://www.redfin.com/CA/Redwood-City/5-Woodridge-Ct-94061/home/877006,MLSListings,ML81595694,N,Y,37.447574,-122.257908
PAST SALE,August-29-2016,Single Family Residential,3098 Muller Ct,REDWOOD CITY,CA,94061,1549000,3,2.5,REDWOOD CITY,2290,10301,1954,519,676,,Sold,,,http://www.redfin.com/CA/Redwood-City/3098-Muller-Ct-94061/home/1232678,MLSListings,ML81597695,N,Y,37.4548237,-122.2417146
PAST SALE,September-30-2016,Single Family Residential,1693 Alameda De Las Pulgas,REDWOOD CITY,CA,94061,1545000,4,2.5,REDWOOD CITY,2000,6303,1952,487,773,,Sold,,,http://www.redfin.com/CA/Redwood-City/1693-Alameda-de-las-Pulgas-94061/home/879750,MLSListings,ML81600960,N,Y,37.4543675,-122.2375933
PAST SALE,July-2-2015,Single Family Residential,3470 Tripp Rd,WOODSIDE,CA,94062,3650000,4,2.5,WOODSIDE,3270,51836,1956,943,1116,,Sold,,,http://www.redfin.com/CA/Woodside/3470-Tripp-Rd-94062/home/1831340,MLSListings,ML81460544,N,Y,37.4251867,-122.2747729
PAST SALE,July-17-2017,Single Family Residential,311 Ridgeway Rd,WOODSIDE,CA,94062,3300000,4,2.5,WOODSIDE,3290,43575,1978,197,1003,,Sold,,,http://www.redfin.com/CA/Woodside/311-Ridgeway-Rd-94062/home/885289,MLSListings,ML81654548,N,Y,37.4454195,-122.2537837
PAST SALE,February-22-2017,Single Family Residential,1736 Alameda De Las Pulgas,REDWOOD CITY,CA,94061,1415000,4,2.5,REDWOOD CITY,2094,7860,1952,342,676,,Sold,,,http://www.redfin.com/CA/Redwood-City/1736-Alameda-de-las-Pulgas-94061/home/2058187,MLSListings,ML81636250,Y,Y,37.4529507,-122.2366942
PAST SALE,November-3-2015,Single Family Residential,5 Stadler Dr,WOODSIDE,CA,94062,1700000,3,2.5,WOODSIDE,2460,98010,1974,819,691,,Sold,,,http://www.redfin.com/CA/Woodside/5-Stadler-Dr-94062/home/1609910,MLSListings,ML81499184,N,Y,37.393356,-122.267912
PAST SALE,October-24-2016,Single Family Residential,35 Martin Ln,WOODSIDE,CA,94062,3800000,4,2.5,WOODSIDE,2300,13921,2005,463,1652,,Sold,,,http://www.redfin.com/CA/Woodside/35-Martin-Ln-94062/home/1932272,MLSListings,ML81612028,N,Y,37.4272606,-122.2662489
PAST SALE,October-27-2017,Single Family Residential,2 Wyndham Dr,PORTOLA VALLEY,CA,94028,2000000,3,2.5,PORTOLA VALLEY,2425,11800,1947,95,825,,Sold,,,http://www.redfin.com/CA/Portola-Valley/2-Wyndham-Dr-94028/home/1194948,MLSListings,ML81679004,N,Y,37.3840489,-122.2341117
PAST SALE,April-15-2015,Single Family Residential,593 Patrol Rd,WOODSIDE,CA,94062,1960000,3,2.5,WOODSIDE,2300,74052,1963,1021,852,,Sold,,,http://www.redfin.com/CA/Woodside/593-Patrol-Rd-94062/home/1718800,MLSListings,ML81454106,N,Y,37.428829,-122.282371
PAST SALE,August-28-2017,Condo/Co-op,4074 Farm Hill Blvd #3,REDWOOD CITY,CA,94061,725000,2,2.5,REDWOOD CITY,1102,73971,1970,155,658,457,Sold,,,http://www.redfin.com/CA/Redwood-City/4074-Farm-Hill-Blvd-94061/unit-3/home/1796714,MLSListings,ML81668905,N,Y,37.4495953,-122.2607684
PAST SALE,December-3-2015,Single Family Residential,15 Woodleaf Ave,REDWOOD CITY,CA,94061,2375000,3,2.5,REDWOOD CITY,3184,14100,1982,789,746,130,Sold,,,http://www.redfin.com/CA/Redwood-City/15-Woodleaf-Ave-94061/home/877002,MLSListings,ML81521091,N,Y,37.4491807,-122.2590596
PAST SALE,December-4-2015,Single Family Residential,17 Upper Lake Rd,WOODSIDE,CA,94062,1350000,3,2.5,WOODSIDE,2030,33977,1987,788,665,,Sold,,,http://www.redfin.com/CA/Woodside/17-Upper-Lake-Rd-94062/home/898281,MLSListings,ML81519375,N,Y,37.3862999,-122.2465899
PAST SALE,July-14-2016,Single Family Residential,3490 Tripp Rd,WOODSIDE,CA,94062,3215000,3,2.5,WOODSIDE,2280,39204,1958,565,1410,,Sold,,,http://www.redfin.com/CA/Woodside/3490-Tripp-Rd-94062/home/1425816,MLSListings,ML81590998,N,Y,37.424681,-122.2741554
PAST SALE,May-13-2015,Single Family Residential,199 Mapache Dr,PORTOLA VALLEY,CA,94028,3900000,3,2.5,PORTOLA VALLEY,3140,100188,1962,993,1242,,Sold,,,http://www.redfin.com/CA/Portola-Valley/199-Mapache-Dr-94028/home/1937341,MLSListings,ML81465032,N,Y,37.3900693,-122.2286843
PAST SALE,May-20-2015,Single Family Residential,112 Ravine Dr,WOODSIDE,CA,94062,3505000,3,2.5,WOODSIDE,2000,50965,1957,986,1753,,Sold,,,http://www.redfin.com/CA/Woodside/112-Ravine-Dr-94062/home/893442,MLSListings,ML81459466,N,Y,37.4419582,-122.2581508
PAST SALE,August-20-2015,Townhouse,4050 Farm Hill Blvd #9,REDWOOD CITY,CA,94061,880000,3,2.5,REDWOOD CITY,1374,,1970,894,640,535,Sold,,,http://www.redfin.com/CA/Redwood-City/4050-Farm-Hill-Blvd-94061/unit-9/home/986359,MLSListings,ML81485252,N,Y,37.4500408,-122.2608384
PAST SALE,March-18-2016,Single Family Residential,381 Family Farm Rd,WOODSIDE,CA,94062,5995000,3,2.5,WOODSIDE,2930,132858,1965,683,2046,,Sold,,,http://www.redfin.com/CA/Woodside/381-Family-Farm-Rd-94062/home/898331,MLSListings,ML81550150,N,Y,37.3959118,-122.2407625
PAST SALE,March-29-2016,Single Family Residential,785 W CALIFORNIA Way,WOODSIDE,CA,94062,3200000,4,2.5,WOODSIDE,3820,40075,1985,672,838,,Sold,,,http://www.redfin.com/CA/Woodside/785-W-California-Way-94062/home/1742692,MLSListings,ML81548917,N,Y,37.4557873,-122.2712787
PAST SALE,June-16-2015,Single Family Residential,120 Toyon Ct,WOODSIDE,CA,94062,2760000,4,3.0,WOODSIDE,2360,22425,1948,959,1169,,Sold,,,http://www.redfin.com/CA/Woodside/120-Toyon-Ct-94062/home/1398838,MLSListings,ML81463323,N,Y,37.4364454,-122.2579163
PAST SALE,November-20-2015,Single Family Residential,1 Goodwin Ct,REDWOOD CITY,CA,94061,2150000,4,3.0,REDWOOD CITY,2880,13320,1979,802,747,,Sold,,,http://www.redfin.com/CA/Redwood-City/1-Goodwin-Ct-94061/home/888137,MLSListings,ML81519997,N,Y,37.4555253,-122.246683
PAST SALE,December-7-2016,Single Family Residential,1730 Alameda De Las Pulgas,REDWOOD CITY,CA,94061,1495000,4,3.0,REDWOOD CITY,1560,7440,1952,419,958,,Sold,,,http://www.redfin.com/CA/Redwood-City/1730-Alameda-de-las-Pulgas-94061/home/1100538,MLSListings,ML81628180,Y,Y,37.4530763,-122.2368603
PAST SALE,May-10-2017,Single Family Residential,210 HARDWICK Rd,WOODSIDE,CA,94062,2850000,4,3.0,WOODSIDE,2530,51863,1961,265,1126,105,Sold,,,http://www.redfin.com/CA/Woodside/210-Hardwick-Rd-94062/home/1542299,MLSListings,ML81647551,N,Y,37.4482395,-122.2483049
PAST SALE,April-8-2015,Single Family Residential,815 Patrol Rd,WOODSIDE,CA,94062,2500000,4,3.0,WOODSIDE,3730,42000,1957,1028,670,,Sold,,,http://www.redfin.com/CA/Woodside/815-Patrol-Rd-94062/home/891650,MLSListings,ML81455184,N,Y,37.4308199,-122.2880555
PAST SALE,December-2-2015,Single Family Residential,100 Todo El Mundo,WOODSIDE,CA,94062,3050000,4,3.0,WOODSIDE,3970,57107,1981,790,768,,Sold,,,http://www.redfin.com/CA/Woodside/100-Todo-El-Mundo-94062/home/1286215,MLSListings,ML81496666,N,Y,37.4410563,-122.238571
PAST SALE,June-24-2015,Single Family Residential,136 Grandview Dr,WOODSIDE,CA,94062,1700000,4,3.0,WOODSIDE,2510,130700,1965,951,677,500,Sold,,,http://www.redfin.com/CA/Woodside/136-Grandview-Dr-94062/home/897151,MLSListings,ML81464203,N,Y,37.3866467,-122.2611149
PAST SALE,March-2-2017,Single Family Residential,83 Tum Suden Way,WOODSIDE,CA,94062,3015000,5,3.0,WOODSIDE,4700,22564,1981,334,641,,Sold,,,http://www.redfin.com/CA/Woodside/83-Tum-Suden-Way-94062/home/1124941,MLSListings,ML81615110,N,Y,37.4535779,-122.2685707
PAST SALE,April-30-2015,Single Family Residential,17513 SKYLINE Blvd,Woodside,CA,94062,1050000,3,3.0,Woodside,1880,27704,1935,1006,559,,Sold,,,http://www.redfin.com/CA/Woodside/17513-Skyline-Blvd-94062/home/51671638,MLSListings,ML81436593,N,Y,37.3818569,-122.262273
PAST SALE,March-31-2015,Single Family Residential,185 Jane Dr,WOODSIDE,CA,94062,,4,3.0,WOODSIDE,3650,48412,1959,1036,,,Sold,,,http://www.redfin.com/CA/Woodside/185-Jane-Dr-94062/home/1625865,MLSListings,ML81451645,N,Y,37.4413838,-122.2577007
PAST SALE,July-21-2017,Single Family Residential,10 Hacienda Dr,WOODSIDE,CA,94062,3350000,3,3.0,WOODSIDE,2140,131246,1965,193,1565,,Sold,,,http://www.redfin.com/CA/Woodside/10-Haciendas-Dr-94062/home/2049710,MLSListings,ML81656316,N,Y,37.4306488,-122.2490346
PAST SALE,January-12-2018,Single Family Residential,155 Bardet Rd,WOODSIDE,CA,94062,3400000,3,3.0,WOODSIDE,2260,68825,1948,18,1504,,Sold,,,http://www.redfin.com/CA/Woodside/155-Bardet-Rd-94062/home/1953307,MLSListings,ML81674758,N,Y,37.4354661,-122.2562805
PAST SALE,December-21-2017,Single Family Residential,279 Albion Ave,WOODSIDE,CA,94062,9000000,3,3.0,WOODSIDE,3620,130680,1955,40,2486,,Sold,,,http://www.redfin.com/CA/Woodside/279-Albion-Ave-94062/home/1417763,MLSListings,ML81676451,N,Y,37.4311588,-122.2632528
PAST SALE,February-17-2017,Single Family Residential,757 Woodside Dr,WOODSIDE,CA,94062,2750000,4,3.0,WOODSIDE,3240,56283,1955,347,849,10,Sold,,,http://www.redfin.com/CA/Woodside/757-Woodside-Dr-94062/home/2041337,MLSListings,ML81626426,N,Y,37.4405822,-122.243056
PAST SALE,July-5-2016,Single Family Residential,10 Tripp Ct,WOODSIDE,CA,94062,4500000,3,3.0,WOODSIDE,3435,43560,1955,574,1310,,Sold,,,http://www.redfin.com/CA/Woodside/10-Tripp-Ct-94062/home/1668480,MLSListings,ML81587687,N,Y,37.4271036,-122.2759084
PAST SALE,October-6-2017,Single Family Residential,485 Summit Springs Rd,WOODSIDE,CA,94062,1825000,4,3.0,WOODSIDE,2960,55757,1961,116,617,,Sold,,,http://www.redfin.com/CA/Woodside/485-Summit-Spring-Rd-94062/home/2044704,MLSListings,ML81642591,N,Y,37.423949,-122.2785703
PAST SALE,June-24-2016,Single Family Residential,70 Tripp Ct,WOODSIDE,CA,94062,2200000,4,3.0,WOODSIDE,2240,53143,1961,585,982,,Sold,,,http://www.redfin.com/CA/Woodside/70-Tripp-Ct-94062/home/1214085,MLSListings,ML81585661,N,Y,37.42484,-122.276654
PAST SALE,October-6-2017,Single Family Residential,885 Espinosa Rd,WOODSIDE,CA,94062,1800000,3,3.0,WOODSIDE,2505,161956,1955,116,719,,Sold,,,http://www.redfin.com/CA/Woodside/885-Espinosa-Rd-94062/home/1163334,MLSListings,ML81654380,N,Y,37.387679,-122.254964
PAST SALE,October-13-2017,Single Family Residential,164 Bardet Rd,WOODSIDE,CA,94062,1800000,4,3.0,WOODSIDE,2520,23087,1959,109,714,,Sold,,,http://www.redfin.com/CA/Woodside/164-Bardet-Rd-94062/home/1028391,MLSListings,ML81667621,N,Y,37.4352896,-122.2554598
PAST SALE,October-18-2017,Single Family Residential,204 Josselyn Ln,WOODSIDE,CA,94062,3300000,3,3.0,WOODSIDE,2360,205168,1949,104,1398,21,Sold,,,http://www.redfin.com/CA/Woodside/204-Josselyn-Ln-94062/home/891569,MLSListings,ML81676225,N,Y,37.4340325,-122.2767171
PAST SALE,,Single Family Residential,620 Woodside Way,Woodside,CA,94062,2450000,3,3.0,,3260,23522,2000,,752,,,,,http://www.redfin.com/CA/Woodside/620-Woodside-Way-94062/home/1710341,,,N,Y,37.4513539,-122.2754953
PAST SALE,March-15-2016,Single Family Residential,245 Mountain Wood Ln,WOODSIDE,CA,94062,6800000,5,3.0,WOODSIDE,3550,131376,1957,686,1915,167,Sold,,,http://www.redfin.com/CA/Woodside/245-Mountain-Wood-Ln-94062/home/892642,MLSListings,ML81547840,N,Y,37.4201032,-122.2623541
PAST SALE,July-25-2017,Single Family Residential,1115 Eden Bower Ln,REDWOOD CITY,CA,94061,2315000,4,3.0,REDWOOD CITY,2110,16400,1964,189,1097,,Sold,,,http://www.redfin.com/CA/Redwood-City/1115-Eden-Bower-Ln-94061/home/1920613,MLSListings,ML81667435,N,Y,37.4503665,-122.2543756
PAST SALE,,Single Family Residential,250 Ridgeway Rd,Woodside,CA,94062,2550000,4,3.0,,2450,48000,1957,,1041,,,,,http://www.redfin.com/CA/Woodside/250-Ridgeway-Rd-94062/home/1163046,,,N,Y,37.4437883,-122.2507476
PAST SALE,November-1-2017,Single Family Residential,65 Roan Pl,WOODSIDE,CA,94062,3250000,4,3.0,WOODSIDE,3650,61420,1957,90,890,,Sold,,,http://www.redfin.com/CA/Woodside/65-Roan-Pl-94062/home/1710550,MLSListings,ML81676113,N,Y,37.4295691,-122.2846851
PAST SALE,May-28-2015,Single Family Residential,4 Monticello Ct,WOODSIDE,CA,94062,2975000,4,3.0,WOODSIDE,3008,27878,1948,978,989,,Sold,,,http://www.redfin.com/CA/Woodside/4-Monticello-Ct-94062/home/876293,MLSListings,ML81459249,N,Y,37.4498417,-122.2765639
PAST SALE,July-31-2017,Single Family Residential,730 Patrol Rd,WOODSIDE,CA,94062,1995000,4,3.0,WOODSIDE,2390,52272,1965,183,835,,Sold,,,http://www.redfin.com/CA/Woodside/730-Patrol-Rd-94062/home/1203509,MLSListings,ML81651485,N,Y,37.4326423,-122.2858486
PAST SALE,,Single Family Residential,7 Vineyard Hill Rd,Woodside,CA,94062,13334000,3,3.0,,5150,151284,1981,,2589,,,,,http://www.redfin.com/CA/Woodside/7-Vineyard-Hill-Rd-94062/home/2006231,,,N,Y,37.4091309,-122.2507002
PAST SALE,August-4-2017,Single Family Residential,157 Otis Ave,WOODSIDE,CA,94062,2598000,3,3.0,WOODSIDE,2435,31843,1987,179,1067,,Sold,,,http://www.redfin.com/CA/Woodside/157-Otis-Ave-94062/home/1754144,MLSListings,ML81641925,N,Y,37.4368136,-122.2547783
PAST SALE,April-10-2015,Single Family Residential,1935 Alameda De Las Pulgas,REDWOOD CITY,CA,94061,1525000,4,3.0,REDWOOD CITY,2070,6844,1952,1026,737,,Sold,,,http://www.redfin.com/CA/Redwood-City/1935-Alameda-de-las-Pulgas-94061/home/880593,MLSListings,ML81455091,N,Y,37.4515526,-122.2340861
PAST SALE,December-6-2017,Single Family Residential,6 Friars Ln,WOODSIDE,CA,94062,3388000,4,3.0,WOODSIDE,3440,134818,1979,55,985,,Sold,,,http://www.redfin.com/CA/Woodside/6-Friars-Ln-94062/home/2027638,MLSListings,ML81683842,N,Y,37.3934887,-122.258277
PAST SALE,January-5-2018,Single Family Residential,1231 Portola Rd,WOODSIDE,CA,94062,2325000,2,3.0,WOODSIDE,2150,26136,1981,25,1081,,Sold,,,http://www.redfin.com/CA/Woodside/1231-Portola-Rd-94062/home/1463466,MLSListings,ML81681470,N,Y,37.3895081,-122.2401853
PAST SALE,,Single Family Residential,2150 Greenways Dr,Woodside,CA,94062,2500000,5,3.0,,2960,45738,1956,,845,,,,,http://www.redfin.com/CA/Woodside/2150-Greenways-Dr-94062/home/1784982,,,N,Y,37.4437799,-122.228207
PAST SALE,March-10-2015,Single Family Residential,575 Summit Springs Rd,WOODSIDE,CA,94062,2300000,4,3.0,WOODSIDE,3580,55757,1962,1057,642,,Sold,,,http://www.redfin.com/CA/Woodside/575-Summit-Spring-Rd-94062/home/2017545,MLSListings,ML81448028,N,Y,37.4250745,-122.2804541
PAST SALE,,Single Family Residential,275 Josselyn Ln,Woodside,CA,94062,14500000,4,4.0,,3021,389760,1965,,4800,,,,,http://www.redfin.com/CA/Woodside/275-Josselyn-Ln-94062/home/1542490,,,N,Y,37.4351879,-122.27934
PAST SALE,January-10-2017,Single Family Residential,401 Stockbridge Ave,ATHERTON,CA,94027,4095000,4,3.0,ATHERTON,2920,47045,1954,385,1402,,Sold,,,http://www.redfin.com/CA/Atherton/401-Stockbridge-Ave-94027/home/1695637,MLSListings,ML81592536,N,Y,37.4393636,-122.2281591
PAST SALE,April-17-2017,Single Family Residential,150 Brookwood Rd,WOODSIDE,CA,94062,1905500,4,3.0,WOODSIDE,3260,43497,1948,288,585,95,Sold,,,http://www.redfin.com/CA/Woodside/150-Brookwood-Rd-94062/home/2059225,MLSListings,ML81627170,N,Y,37.446705,-122.2465017
PAST SALE,May-5-2015,Single Family Residential,195 Mountain Home Rd,WOODSIDE,CA,94062,6502000,4,3.0,WOODSIDE,2840,87120,1941,1001,2289,,Sold,,,http://www.redfin.com/CA/Woodside/195-Mountain-Home-Rd-94062/home/895839,MLSListings,ML81459582,N,Y,37.4271714,-122.2530938
PAST SALE,October-9-2015,Single Family Residential,125 Summerhill Ln,WOODSIDE,CA,94062,3200000,4,3.0,WOODSIDE,3220,48716,1955,844,994,85,Sold,,,http://www.redfin.com/CA/Woodside/125-Summerhill-Ln-94062/home/2020325,MLSListings,ML81512406,N,Y,37.4516362,-122.2420864
PAST SALE,May-3-2016,Single Family Residential,103 Reservoir Rd,ATHERTON,CA,94027,5925000,4,3.0,ATHERTON,3070,52346,1976,637,1930,,Sold,,,http://www.redfin.com/CA/Atherton/103-Reservoir-Rd-94027/home/1155213,MLSListings,ML81566209,N,Y,37.4290984,-122.2262228
PAST SALE,October-21-2016,Single Family Residential,151 Eleanor Dr,WOODSIDE,CA,94062,3625000,4,3.0,WOODSIDE,2530,51226,1958,466,1433,,Sold,,,http://www.redfin.com/CA/Woodside/151-Eleanor-Dr-94062/home/879972,MLSListings,ML81599646,N,Y,37.4395742,-122.2331842
PAST SALE,September-2-2015,Single Family Residential,4 Linwood Way,WOODSIDE,CA,94062,1571000,4,3.0,WOODSIDE,2800,11600,1965,881,561,,Sold,,,http://www.redfin.com/CA/Woodside/4-Linwood-Way-94062/home/12228240,MLSListings,ML81498483,N,Y,37.388083,-122.267313
PAST SALE,January-5-2016,Single Family Residential,1675 Alameda de las Pulgas,REDWOOD CITY,CA,94061,1635000,4,3.0,REDWOOD CITY,2270,6270,1952,756,720,,Sold,,,http://www.redfin.com/CA/Redwood-City/1675-Alameda-de-las-Pulgas-94061/home/2043192,MLSListings,ML81517441,N,Y,37.4547166,-122.23803
PAST SALE,February-27-2015,Single Family Residential,47 Woodhill Dr,REDWOOD CITY,CA,94061,2450000,4,3.0,REDWOOD CITY,2420,13900,1985,1068,1012,175,Sold,,,http://www.redfin.com/CA/Redwood-City/47-Woodhill-Dr-94061/home/1174289,MLSListings,ML81449535,N,Y,37.4494751,-122.2579135
PAST SALE,August-3-2016,Single Family Residential,323 Wyndham Dr,PORTOLA VALLEY,CA,94028,1900000,4,3.0,PORTOLA VALLEY,1940,8300,1955,545,979,,Sold,,,http://www.redfin.com/CA/Portola-Valley/323-Wyndham-Dr-94028/home/1601367,MLSListings,ML81588757,N,Y,37.3842851,-122.2335867
PAST SALE,December-1-2015,Single Family Residential,155 Sunrise Dr,WOODSIDE,CA,94062,3400000,4,3.0,WOODSIDE,4742,210830,1962,791,717,,Sold,,,http://www.redfin.com/CA/Woodside/155-Sunrise-Dr-94062/home/1542594,MLSListings,ML81517525,N,Y,37.3956591,-122.2587556
PAST SALE,October-28-2016,Single Family Residential,45 Mission Trail Rd,WOODSIDE,CA,94062,3350000,3,3.0,WOODSIDE,2000,43560,1981,459,1675,,Sold,,,http://www.redfin.com/CA/Woodside/45-Mission-Trail-Rd-94062/home/1038578,MLSListings,ML81596370,N,Y,37.4409664,-122.2629333
PAST SALE,,Single Family Residential,155 Mapache Dr,Portola Valley,CA,94028,3100000,4,3.0,,3880,108900,1962,,799,,,,,http://www.redfin.com/CA/Portola-Valley/155-Mapache-Dr-94028/home/1489503,,,N,Y,37.3871151,-122.2264493
PAST SALE,April-10-2015,Single Family Residential,45 STILL CREEK Rd,Woodside,CA,94062,2500000,3,3.0,Skywood,3870,334367,1997,1026,646,,Sold,,,http://www.redfin.com/CA/Woodside/45-Still-Creek-Rd-94062/home/1794148,MLSListings,ML81421496,N,Y,37.3963109,-122.2681801
PAST SALE,August-30-2017,Single Family Residential,234 Eleanor Dr,WOODSIDE,CA,94062,3985000,4,3.0,WOODSIDE,4000,72309,1929,153,996,,Sold,,,http://www.redfin.com/CA/Woodside/234-Eleanor-Dr-94062/home/1718630,MLSListings,ML81669859,N,Y,37.4387781,-122.2390228
PAST SALE,September-14-2015,Single Family Residential,701 W CALIFORNIA Way,WOODSIDE,CA,94062,2390000,5,3.0,WOODSIDE,3620,15248,1967,869,660,,Sold,,,http://www.redfin.com/CA/Woodside/701-W-California-Way-94062/home/1050561,MLSListings,ML81486027,N,Y,37.4573868,-122.2756542
PAST SALE,November-28-2016,Single Family Residential,1072 Silver Hill Rd,REDWOOD CITY,CA,94061,1600000,5,3.0,REDWOOD CITY,2600,34124,1964,428,615,,Sold,,,http://www.redfin.com/CA/Redwood-City/1072-Silver-Hill-Rd-94061/home/1916452,MLSListings,ML81627613,Y,Y,37.4513666,-122.2541007
PAST SALE,August-30-2016,Single Family Residential,1055 Silver Hill Rd,REDWOOD CITY,CA,94061,1900000,4,3.0,REDWOOD CITY,2160,22250,1963,518,880,,Sold,,,http://www.redfin.com/CA/Redwood-City/1055-Silver-Hill-Rd-94061/home/2044641,MLSListings,ML81595570,N,Y,37.4513334,-122.252671
PAST SALE,May-6-2015,Single Family Residential,150 Northridge Ln,WOODSIDE,CA,94062,3100000,3,3.0,WOODSIDE,2530,57934,1953,1000,1225,85,Sold,,,http://www.redfin.com/CA/Woodside/150-Northridge-Ln-94062/home/1463166,MLSListings,ML81460759,N,Y,37.4522599,-122.2423503
PAST SALE,August-23-2016,Single Family Residential,21 Woodhill Dr,REDWOOD CITY,CA,94061,2940000,5,3.0,REDWOOD CITY,3809,13900,1985,525,772,130,Sold,,,http://www.redfin.com/CA/Redwood-City/21-Woodhill-Dr-94061/home/1953176,MLSListings,ML81595720,N,Y,37.4496664,-122.2550538
PAST SALE,May-21-2015,Single Family Residential,55 Ranch Rd,WOODSIDE,CA,94062,2450000,3,3.0,WOODSIDE,3466,64033,1964,985,707,,Sold,,,http://www.redfin.com/CA/Woodside/55-Ranch-Rd-94062/home/1953317,MLSListings,ML81465774,N,Y,37.392276,-122.267285
PAST SALE,January-17-2018,Single Family Residential,154 Cerrito Ave,REDWOOD CITY,CA,94061,1960000,3,3.0,REDWOOD CITY,1874,13950,1955,13,1046,,Sold,,,http://www.redfin.com/CA/Redwood-City/154-Cerrito-Ave-94061/home/1617611,MLSListings,ML81686630,N,Y,37.4490259,-122.230236
PAST SALE,March-11-2016,Single Family Residential,2150 Ward Way,Woodside,CA,94062,1650000,4,3.0,San Mateo County,2770,21972,1955,690,596,,Sold,,,http://www.redfin.com/CA/Woodside/2150-Ward-Way-94062/home/880053,BAREIS,21601635,N,Y,37.444776,-122.229211
PAST SALE,May-5-2016,Single Family Residential,579 Old La Honda Rd,WOODSIDE,CA,94062,2600000,4,3.0,WOODSIDE,3364,115434,1963,635,773,,Sold,,,http://www.redfin.com/CA/Woodside/579-Old-La-Honda-Rd-94062/home/1214271,MLSListings,ML81561530,N,Y,37.3816064,-122.2541243
PAST SALE,June-28-2017,Single Family Residential,1036 Silver Hill Rd,REDWOOD CITY,CA,94061,1500000,4,3.0,REDWOOD CITY,2360,20500,1964,216,636,,Sold,,,http://www.redfin.com/CA/Redwood-City/1036-Silver-Hill-Rd-94061/home/878704,MLSListings,ML81648599,N,Y,37.4524374,-122.2532125
PAST SALE,June-6-2017,Single Family Residential,9 Valley Rd,ATHERTON,CA,94027,5100000,5,3.5,ATHERTON,3410,49600,1975,238,1496,,Sold,,,http://www.redfin.com/CA/Atherton/9-Valley-Rd-94027/home/1609887,MLSListings,ML81646968,N,Y,37.4263786,-122.2257685
PAST SALE,November-13-2015,Single Family Residential,36 Morse Ln,WOODSIDE,CA,94062,1811000,3,3.5,WOODSIDE,2890,54450,1973,809,627,,Sold,,,http://www.redfin.com/CA/Woodside/36-Morse-Ln-94062/home/1916703,MLSListings,ML81517847,N,Y,37.390304,-122.270464
PAST SALE,December-4-2015,Single Family Residential,125 Sheridan Way,WOODSIDE,CA,94062,3520000,3,3.5,WOODSIDE,3200,58800,1955,788,1100,,Sold,,,http://www.redfin.com/CA/Woodside/125-Sheridan-Way-94062/home/1686522,MLSListings,ML81518505,N,Y,37.4447105,-122.2425774
PAST SALE,August-14-2015,Single Family Residential,260 Ridgeway Rd,WOODSIDE,CA,94062,3700000,4,3.5,WOODSIDE,3610,50600,1975,900,1025,,Sold,,,http://www.redfin.com/CA/Woodside/260-Ridgeway-Rd-94062/home/1943118,MLSListings,ML81471486,N,Y,37.4442979,-122.2510514
PAST SALE,December-11-2017,Single Family Residential,132 Otis Ave,WOODSIDE,CA,94062,2925000,4,3.5,WOODSIDE,2500,10000,2017,50,1170,,Sold,,,http://www.redfin.com/CA/Woodside/132-Otis-Ave-94062/home/893637,MLSListings,ML81677002,N,Y,37.4369052,-122.2568096
PAST SALE,,Single Family Residential,852 Occidental Way,Emerald Hills,CA,94062,2800000,4,3.0,,3300,12900,1999,,848,,,,,http://www.redfin.com/CA/Emerald-Hills/852-Occidental-Way-94062/home/2054427,,,N,Y,37.4578262,-122.2676707
PAST SALE,May-16-2017,Single Family Residential,568 California Way,REDWOOD CITY,CA,94062,1900000,4,3.5,REDWOOD CITY,2720,12844,1975,259,699,,Sold,,,http://www.redfin.com/CA/Woodside/568-California-Way-94062/home/2050662,MLSListings,ML81644394,N,Y,37.4575442,-122.2720375
PAST SALE,July-11-2016,Single Family Residential,1221 Canada Rd,WOODSIDE,CA,94062,3150000,5,3.5,WOODSIDE,3000,14000,1993,568,1050,,Sold,,,http://www.redfin.com/CA/Woodside/1221-Canada-Rd-94062/home/1661160,MLSListings,ML81591350,N,Y,37.436613,-122.2603079
PAST SALE,July-7-2017,Single Family Residential,647 Eastview Way,REDWOOD CITY,CA,94062,2800000,4,3.5,REDWOOD CITY,3500,17600,1988,207,800,,Sold,,,http://www.redfin.com/CA/Woodside/647-Eastview-Way-94062/home/1232649,MLSListings,ML81653832,N,Y,37.4592539,-122.2754504
PAST SALE,June-22-2015,Single Family Residential,470 W Maple Way,WOODSIDE,CA,94062,4300000,4,3.5,WOODSIDE,4350,65340,2007,953,989,,Sold,,,http://www.redfin.com/CA/Woodside/470-W-Maple-Way-94062/home/1664265,MLSListings,ML81465568,N,Y,37.4565657,-122.2783294
PAST SALE,June-15-2016,Single Family Residential,375 La Questa Way,WOODSIDE,CA,94062,5180000,4,3.5,WOODSIDE,5800,118918,1961,594,893,,Sold,,,http://www.redfin.com/CA/Woodside/375-La-Questa-Way-94062/home/894858,MLSListings,ML81580368,N,Y,37.4344411,-122.2497688
PAST SALE,January-17-2017,Single Family Residential,8 Woodleaf Ave,REDWOOD CITY,CA,94061,2893500,5,3.5,REDWOOD CITY,4300,14100,1982,378,673,130,Sold,,,http://www.redfin.com/CA/Redwood-City/8-Woodleaf-Ave-94061/home/2017423,MLSListings,ML81625690,N,Y,37.4492298,-122.2598371
PAST SALE,June-27-2017,Single Family Residential,275 Ridgeway Rd,WOODSIDE,CA,94062,4282500,5,3.5,WOODSIDE,3573,46173,1973,217,1199,105,Sold,,,http://www.redfin.com/CA/Woodside/275-Ridgeway-Rd-94062/home/885269,MLSListings,ML81648179,N,Y,37.4441422,-122.2522388
PAST SALE,October-14-2016,Single Family Residential,135 Summit Rd,WOODSIDE,CA,94062,2710000,4,3.5,WOODSIDE,3605,144706,1945,473,752,,Sold,,,http://www.redfin.com/CA/Woodside/135-Summit-Rd-94062/home/898603,MLSListings,ML81596559,N,Y,37.3756367,-122.2543493
PAST SALE,August-26-2015,Single Family Residential,900 Midglen Way,WOODSIDE,CA,94062,3400000,4,3.5,WOODSIDE,3296,21344,1946,888,1032,,Sold,,,http://www.redfin.com/CA/Woodside/900-Midglen-Way-94062/home/876237,MLSListings,ML81467475,N,Y,37.4522401,-122.2705626
PAST SALE,July-20-2015,Single Family Residential,71 Oak Haven Way,WOODSIDE,CA,94062,1940000,4,3.5,WOODSIDE,2900,42689,1977,925,669,,Sold,,,http://www.redfin.com/CA/Woodside/71-Oak-Haven-Way-94062/home/1145321,MLSListings,ML81463205,N,Y,37.4390266,-122.2415013
PAST SALE,April-18-2017,Single Family Residential,4155 Jefferson Ave,REDWOOD CITY,CA,94062,2700000,6,3.5,REDWOOD CITY,4010,42515,1966,287,673,,Sold,,,http://www.redfin.com/CA/Redwood-City/4155-Jefferson-Ave-94062/home/878645,MLSListings,ML81641950,N,Y,37.4527569,-122.2670733
PAST SALE,February-3-2016,Single Family Residential,740 Whiskey Hill Rd,WOODSIDE,CA,94062,4000000,4,3.5,WOODSIDE,4800,127630,1954,727,833,,Sold,,,http://www.redfin.com/CA/Woodside/740-Whiskey-Hill-Rd-94062/home/1316614,MLSListings,ML81451499,N,Y,37.4134475,-122.2418645
PAST SALE,October-13-2016,Single Family Residential,418 W Maple Way,WOODSIDE,CA,94062,3055000,4,3.5,WOODSIDE,3897,74923,1984,474,784,,Sold,,,http://www.redfin.com/CA/Woodside/418-W-Maple-Way-94062/home/1871269,MLSListings,ML81562599,N,Y,37.4551258,-122.2781337
PAST SALE,,Single Family Residential,3793 Woodside Rd,Woodside,CA,94062,21500000,3,3.0,,3380,612018,1952,,6361,,,,,http://www.redfin.com/CA/Woodside/3793-Woodside-Rd-94062/home/1995976,,,N,Y,37.416888,-122.263879
PAST SALE,,Single Family Residential,120 Summerhill Ln,Woodside,CA,94062,5317500,3,2.0,,3394,43896,1950,,1567,,,,,http://www.redfin.com/CA/Woodside/120-Summerhill-Ln-94062/home/1876829,,,N,Y,37.4502289,-122.2412633
PAST SALE,,Single Family Residential,140 Crest Rd,Woodside,CA,94062,5650000,3,3.0,,4000,50094,1951,,1413,,,,,http://www.redfin.com/CA/Woodside/140-Crest-Rd-94062/home/1926887,,,N,Y,37.4448244,-122.2492314
PAST SALE,September-7-2017,Single Family Residential,115 Harcross Rd,WOODSIDE,CA,94062,2450000,2,3.5,WOODSIDE,3320,50820,1949,145,738,9,Sold,,,http://www.redfin.com/CA/Woodside/115-Harcross-Rd-94062/home/1837203,MLSListings,ML81668821,N,Y,37.4544448,-122.2404163
PAST SALE,August-31-2017,Single Family Residential,150 Wildwood Way,WOODSIDE,CA,94062,3400000,3,3.5,WOODSIDE,3330,128400,1958,152,1021,10,Sold,,,http://www.redfin.com/CA/Woodside/150-Wildwood-Way-94062/home/1947835,MLSListings,ML81673643,N,Y,37.4482067,-122.2458064
PAST SALE,May-16-2017,Single Family Residential,145 Phillip Rd,WOODSIDE,CA,94062,8200000,4,3.5,WOODSIDE,3500,100188,2017,259,2343,,Sold,,,http://www.redfin.com/CA/Woodside/145-Phillip-Rd-94062/home/2053583,MLSListings,ML81648147,N,Y,37.4026915,-122.2508765
PAST SALE,June-25-2015,Single Family Residential,50 Ranch Rd,WOODSIDE,CA,94062,2190000,5,3.5,WOODSIDE,3130,58370,1975,950,700,,Sold,,,http://www.redfin.com/CA/Woodside/50-Ranch-Rd-94062/home/1996018,MLSListings,ML81463093,N,Y,37.39219,-122.268705
PAST SALE,March-15-2016,Single Family Residential,934 Wilmington Way,REDWOOD CITY,CA,94062,2600000,4,3.5,REDWOOD CITY,3280,22500,1990,686,793,,Sold,,,http://www.redfin.com/CA/Emerald-Hills/934-Wilmington-Way-94062/home/1920604,MLSListings,ML81549447,N,Y,37.4555412,-122.2655461
PAST SALE,September-23-2016,Single Family Residential,10 Buck Ct,WOODSIDE,CA,94062,3950000,5,3.5,WOODSIDE,4435,43560,2003,494,891,194,Sold,,,http://www.redfin.com/CA/Woodside/10-Buck-Ct-94062/home/1625746,MLSListings,ML81590265,N,Y,37.4422773,-122.2347587
PAST SALE,September-28-2017,Single Family Residential,735 Woodside Dr,WOODSIDE,CA,94062,2770000,4,3.5,WOODSIDE,4080,66647,1977,124,679,105,Sold,,,http://www.redfin.com/CA/Woodside/735-Woodside-Dr-94062/home/1837261,MLSListings,ML81651263,N,Y,37.4399463,-122.2435741
PAST SALE,June-9-2017,Single Family Residential,100 Phillip Rd,WOODSIDE,CA,94062,6500000,4,3.5,WOODSIDE,4520,136778,1997,235,1438,,Sold,,,http://www.redfin.com/CA/Woodside/100-Phillip-Rd-94062/home/1398941,MLSListings,ML81641159,N,Y,37.403999,-122.2526419
PAST SALE,September-29-2017,Single Family Residential,132 Audiffred Ln,WOODSIDE,CA,94062,5825000,3,3.5,WOODSIDE,3150,16700,2016,123,1849,,Sold,,,http://www.redfin.com/CA/Woodside/132-Audiffred-Ln-94062/home/889969,MLSListings,ML81677335,N,Y,37.428636,-122.2624086
PAST SALE,July-8-2015,Single Family Residential,70 Fox Hollow Ln,REDWOOD CITY,CA,94062,2100000,5,3.5,REDWOOD CITY,3767,20068,1990,937,557,,Sold,,,http://www.redfin.com/CA/Redwood-City/70-Fox-Hollow-Ln-94062/home/1943002,MLSListings,ML81464074,N,Y,37.452278,-122.267058
PAST SALE,November-1-2017,Single Family Residential,437 Hillcrest Way,REDWOOD CITY,CA,94062,2900000,4,3.5,REDWOOD CITY,2750,20037,1983,90,1055,,Sold,,,http://www.redfin.com/CA/Emerald-Hills/437-Hillcrest-Way-94062/home/875359,MLSListings,ML81679781,N,Y,37.460322,-122.275663
PAST SALE,March-18-2016,Single Family Residential,1391 La Honda Rd,WOODSIDE,CA,94062,2230000,4,3.5,WOODSIDE,3560,164221,2001,683,626,,Sold,,,http://www.redfin.com/CA/Woodside/1391-La-Honda-Rd-94062/home/1568465,MLSListings,ML81534488,N,Y,37.3899772,-122.2613969
PAST SALE,June-8-2016,Single Family Residential,33 Montecito Rd,WOODSIDE,CA,94062,3500000,5,3.5,WOODSIDE,3702,108464,1964,601,945,,Sold,,,http://www.redfin.com/CA/Woodside/33-Montecito-Rd-94062/home/1592899,MLSListings,ML81579285,N,Y,37.3881691,-122.2431771
PAST SALE,September-5-2017,Single Family Residential,113-115 Skylonda Dr,WOODSIDE,CA,94062,1695001,3,3.5,WOODSIDE,2418,17860,1946,147,701,,Sold,,,http://www.redfin.com/CA/Woodside/113-Skylonda-Dr-94062/home/1916699,MLSListings,ML81651285,N,Y,37.385549,-122.266337
PAST SALE,May-17-2017,Single Family Residential,1390 Westridge Dr,PORTOLA VALLEY,CA,94028,3760000,4,3.5,PORTOLA VALLEY,4005,51401,1964,258,939,,Sold,,,http://www.redfin.com/CA/Portola-Valley/1390-Westridge-Dr-94028/home/1974931,MLSListings,ML81650441,N,Y,37.3797874,-122.2241212
PAST SALE,May-24-2016,Single Family Residential,2015 Abryan Way,REDWOOD CITY,CA,94061,1500000,4,3.5,REDWOOD CITY,2560,10497,1959,616,586,,Sold,,,http://www.redfin.com/CA/Redwood-City/2015-Abryan-Way-94061/home/1742798,MLSListings,ML81579219,N,Y,37.4459047,-122.2253721
PAST SALE,,Single Family Residential,135 Wyndham Dr,Portola Valley,CA,94028,3600000,4,3.0,,3270,16500,1950,,1101,,,,,http://www.redfin.com/CA/Portola-Valley/135-Wyndham-Dr-94028/home/898715,,,N,Y,37.3856991,-122.234109
PAST SALE,March-21-2016,Single Family Residential,115 Romero Rd,WOODSIDE,CA,94062,7400000,4,4.0,WOODSIDE,3990,42854,1998,680,1855,,Sold,,,http://www.redfin.com/CA/Woodside/115-Romero-Rd-94062/home/895749,MLSListings,ML81550695,N,Y,37.4324004,-122.2555651
PAST SALE,May-21-2015,Single Family Residential,170 Fox Hollow Rd,WOODSIDE,CA,94062,7406250,3,4.0,WOODSIDE,4659,137970,1975,985,1590,,Sold,,,http://www.redfin.com/CA/Woodside/170-Fox-Hollow-Rd-94062/home/1887159,MLSListings,ML81454074,N,Y,37.4227714,-122.2621988
PAST SALE,,Single Family Residential,1015 Mountain Home Rd,Woodside,CA,94062,12000000,3,4.0,,7490,131159,1986,,1602,,,,,http://www.redfin.com/CA/Woodside/1015-Mountain-Home-Rd-94062/home/1286560,,,N,Y,37.4066871,-122.2480926
PAST SALE,March-20-2015,Single Family Residential,203 Miramontes Rd,WOODSIDE,CA,94062,4900000,5,4.0,WOODSIDE,4300,24394,2001,1047,1140,,Sold,,,http://www.redfin.com/CA/Woodside/203-Miramontes-Rd-94062/home/1174481,MLSListings,ML81451359,N,Y,37.4283678,-122.2643427
PAST SALE,,Single Family Residential,235 Brookwood Rd,Woodside,CA,94062,6350000,5,5.0,,4474,52272,1959,,1419,,,,,http://www.redfin.com/CA/Woodside/235-Brookwood-Rd-94062/home/2024954,,,N,Y,37.4486876,-122.2505285
PAST SALE,October-16-2015,Single Family Residential,538 Eleanor Dr,WOODSIDE,CA,94062,7250000,5,4.0,WOODSIDE,5356,68738,2008,837,1354,,Sold,,,http://www.redfin.com/CA/Woodside/538-Eleanor-Dr-94062/home/894997,MLSListings,ML81512333,N,Y,37.4415987,-122.2288537
PAST SALE,September-25-2015,Single Family Residential,475 Moore Rd,WOODSIDE,CA,94062,6500000,3,4.0,WOODSIDE,4865,130723,2009,858,1336,,Sold,,,http://www.redfin.com/CA/Woodside/475-Moore-Rd-94062/home/21968102,MLSListings,ML81500323,N,Y,37.432916,-122.2350283
PAST SALE,,Single Family Residential,105 Reservoir Rd,Atherton,CA,94027,5580000,4,5.0,,3580,51345,1949,,1559,,,,,http://www.redfin.com/CA/Atherton/105-Reservoir-Rd-94027/home/1892921,,,N,Y,37.4295431,-122.2260262
PAST SALE,June-7-2017,Single Family Residential,15 Upper Lake Rd,WOODSIDE,CA,94062,3400000,6,4.0,WOODSIDE,4172,70132,1953,237,815,,Sold,,,http://www.redfin.com/CA/Woodside/15-Upper-Lake-Rd-94062/home/1644525,MLSListings,ML81651491,N,Y,37.3866064,-122.2471095
PAST SALE,September-18-2015,Single Family Residential,639 Yosemite Ct,WOODSIDE,CA,94062,3725000,5,4.0,WOODSIDE,3780,53579,1973,865,985,,Sold,,,http://www.redfin.com/CA/Woodside/639-Yosemite-Ct-94062/home/1964160,MLSListings,ML81513142,N,Y,37.4528503,-122.2731661
PAST SALE,November-6-2015,Single Family Residential,151 Mountain Home Rd,WOODSIDE,CA,94062,4650000,4,4.0,WOODSIDE,3120,57000,1950,816,1490,,Sold,,,http://www.redfin.com/CA/Woodside/151-Mountain-Home-Rd-94062/home/1259765,MLSListings,ML81516504,N,Y,37.4286075,-122.2535359
PAST SALE,,Single Family Residential,24 Colton Ct,Redwood City,CA,94062,3300000,5,4.0,,4710,21752,1994,,701,,,,,http://www.redfin.com/CA/Redwood-City/24-Colton-Ct-94062/home/875193,,,N,Y,37.4596923,-122.2756709
PAST SALE,,Single Family Residential,35 Possum Ln,Portola Valley,CA,94028,3960000,4,4.0,,3595,47916,1963,,1102,,,,,http://www.redfin.com/CA/Portola-Valley/35-Possum-Ln-94028/home/904686,,,N,Y,37.3827925,-122.2248202
PAST SALE,,Single Family Residential,1360 Westridge Dr,Portola Valley,CA,94028,4300000,5,3.0,,2790,43560,1958,,1541,,,,,http://www.redfin.com/CA/Portola-Valley/1360-Westridge-Dr-94028/home/1824436,,,N,Y,37.3803605,-122.2231332
PAST SALE,,Single Family Residential,1025 Canada Rd,Woodside,CA,94062,4700000,4,4.0,,4290,110642,1988,,1096,,,,,http://www.redfin.com/CA/Woodside/1025-Canada-Rd-94062/home/1435462,,,N,Y,37.4427192,-122.2667102
PAST SALE,June-28-2017,Single Family Residential,970 Mountain Home Rd,WOODSIDE,CA,94062,10350000,4,4.0,WOODSIDE,4650,241105,1978,216,2226,,Sold,,,http://www.redfin.com/CA/Woodside/970-Mountain-Home-Rd-94062/home/892812,MLSListings,ML81638732,N,Y,37.408091,-122.249926
PAST SALE,May-22-2017,Single Family Residential,70 Stadler Dr,WOODSIDE,CA,94062,3025000,4,4.0,WOODSIDE,4086,47916,1968,253,740,,Sold,,,http://www.redfin.com/CA/Woodside/70-Stadler-Dr-94062/home/1568462,MLSListings,ML81647003,N,Y,37.3905431,-122.2686266
PAST SALE,November-3-2017,Single Family Residential,17507 Skyline Blvd,WOODSIDE,CA,94062,2200000,5,4.0,WOODSIDE,3902,47000,1932,88,564,,Sold,,,http://www.redfin.com/CA/Redwood-City/17507-Skyline-Blvd-94062/home/1517620,MLSListings,ML81650453,N,Y,37.382392,-122.262559
PAST SALE,August-5-2015,Single Family Residential,277 Grandview Dr,WOODSIDE,CA,94062,2990000,4,4.0,WOODSIDE,4920,443005,2008,909,608,,Sold,,,http://www.redfin.com/CA/Woodside/277-Grandview-Dr-94062/home/2100139,MLSListings,ML81451139,N,Y,37.385666,-122.254776
PAST SALE,,Single Family Residential,260 Mountain Wood Ln,Woodside,CA,94062,17000000,4,4.0,,6000,174240,2004,,2833,,,,,http://www.redfin.com/CA/Woodside/260-Mountain-Wood-Ln-94062/home/1871488,,,N,Y,37.4222184,-122.2628037
PAST SALE,December-12-2017,Single Family Residential,635 Patrol Rd,WOODSIDE,CA,94062,4250000,3,4.0,WOODSIDE,4000,59241,1961,49,1063,,Sold,,,http://www.redfin.com/CA/Woodside/635-Patrol-Rd-94062/home/1776532,MLSListings,ML81680896,N,Y,37.4300797,-122.2821056
PAST SALE,November-30-2016,Single Family Residential,245 Olive Hill Ln,WOODSIDE,CA,94062,6025000,4,4.0,WOODSIDE,4465,131777,1975,426,1349,,Sold,,,http://www.redfin.com/CA/Woodside/245-Olive-Hill-Ln-94062/home/1445619,MLSListings,ML81599719,N,Y,37.436338,-122.2677992
PAST SALE,May-14-2015,Single Family Residential,60 Melanie Ln,ATHERTON,CA,94027,3350000,4,4.0,ATHERTON,3380,47480,1976,992,991,,Sold,,,http://www.redfin.com/CA/Atherton/60-Melanie-Ln-94027/home/1050906,MLSListings,ML81460559,N,Y,37.4385734,-122.2286979
PAST SALE,April-24-2016,Single Family Residential,90 Skywood Way,WOODSIDE,CA,94062,2500000,4,4.0,WOODSIDE,4140,75881,1959,646,604,,Sold,,,http://www.redfin.com/CA/Woodside/90-Skywood-Way-94062/home/897091,MLSListings,ML81550469,N,Y,37.3929659,-122.2630566
PAST SALE,June-1-2015,Single Family Residential,931 High Rd,WOODSIDE,CA,94062,2750000,5,4.0,WOODSIDE,2620,48613,1955,974,1050,,Sold,,,http://www.redfin.com/CA/Woodside/931-High-Rd-94062/home/1407890,MLSListings,ML81456280,N,Y,37.4427975,-122.2406104
PAST SALE,,Single Family Residential,245 Brookwood Rd,Woodside,CA,94062,4100000,6,4.0,,4950,72310,1960,,828,,,,,http://www.redfin.com/CA/Woodside/245-Brookwood-Rd-94062/home/879477,,,N,Y,37.4490225,-122.2508773
PAST SALE,May-1-2015,Single Family Residential,195 Brookwood Rd,WOODSIDE,CA,94062,3628000,7,4.0,WOODSIDE,5165,43560,1974,1005,702,,Sold,,,http://www.redfin.com/CA/Woodside/195-Brookwood-Rd-94062/home/1926852,MLSListings,ML81447304,N,Y,37.4465948,-122.2482587
PAST SALE,March-17-2015,Single Family Residential,610 WHISKEY HILL Rd,Woodside,CA,94062,4700000,4,4.0,Woodside,5650,110642,1941,1050,832,,Sold,,,http://www.redfin.com/CA/Woodside/610-Whiskey-Hill-Rd-94062/home/2025030,MLSListings,ML81411263,N,Y,37.4167538,-122.2430298
PAST SALE,November-30-2015,Single Family Residential,122 Maybury Pl,WOODSIDE,CA,94062,2850000,3,4.0,WOODSIDE,2520,51870,1948,792,1131,,Sold,,,http://www.redfin.com/CA/Woodside/122-Maybury-Pl-94062/home/2022152,MLSListings,ML81519398,N,Y,37.4510838,-122.2378056
PAST SALE,May-15-2015,Single Family Residential,17125 SKYLINE Blvd,Woodside,CA,94062,2100000,4,4.5,Woodside,3750,49223,2014,991,560,,Sold,,,http://www.redfin.com/CA/Woodside/17125-Skyline-Blvd-94062/home/1898735,MLSListings,ML81436570,N,Y,37.391426,-122.270507
PAST SALE,,Single Family Residential,590 Whiskey Hill Rd,Woodside,CA,94062,7850000,3,4.0,,4562,131987,2000,,1721,,,,,http://www.redfin.com/CA/Woodside/590-Whiskey-Hill-Rd-94062/home/1316618,,,N,Y,37.4168461,-122.2437079
PAST SALE,April-6-2016,Single Family Residential,5 Colton Ct,REDWOOD CITY,CA,94062,3675000,5,4.5,REDWOOD CITY,6500,20288,2006,664,565,95,Sold,,,http://www.redfin.com/CA/Redwood-City/5-Colton-Ct-94062/home/2100118,MLSListings,ML81547706,N,Y,37.4613239,-122.2768651
PAST SALE,April-1-2016,Single Family Residential,330 Mountain Home Rd,WOODSIDE,CA,94062,14500000,4,4.5,WOODSIDE,4871,148452,2011,669,2977,,Sold,,,http://www.redfin.com/CA/Woodside/330-Mountain-Home-Rd-94062/home/1927014,MLSListings,ML81561646,N,Y,37.424024,-122.2554474
PAST SALE,August-18-2015,Single Family Residential,1166 Canada Rd,WOODSIDE,CA,94062,7800000,4,4.5,WOODSIDE,7285,130680,1960,896,1071,,Sold,,,http://www.redfin.com/CA/Woodside/1166-Canada-Rd-94062/home/1463345,MLSListings,ML81485438,N,Y,37.4375491,-122.2630612
PAST SALE,August-24-2015,Single Family Residential,680 Manzanita Way,WOODSIDE,CA,94062,9500000,5,4.5,WOODSIDE,5832,236500,1921,890,1629,,Sold,,,http://www.redfin.com/CA/Woodside/680-Manzanita-Way-94062/home/1625840,MLSListings,ML81459536,N,Y,37.4105909,-122.243317
PAST SALE,August-19-2016,Single Family Residential,2 Quail Meadow Dr,WOODSIDE,CA,94062,8250000,5,4.5,WOODSIDE,5326,130680,1987,529,1549,,Sold,,,http://www.redfin.com/CA/Woodside/2-Quail-Meadows-Dr-94062/home/1463519,MLSListings,ML81592786,N,Y,37.4306251,-122.2448886
PAST SALE,May-5-2016,Single Family Residential,35 Woodview Ln,WOODSIDE,CA,94062,5600000,5,4.5,WOODSIDE,5120,247420,1964,635,1094,,Sold,,,http://www.redfin.com/CA/Woodside/35-Woodview-Ln-94062/home/1436038,MLSListings,ML81566196,N,Y,37.381623,-122.224358
PAST SALE,March-25-2015,Single Family Residential,680 Kings Mountain Rd,WOODSIDE,CA,94062,4420000,4,4.5,WOODSIDE,4071,126324,1976,1042,1086,,Sold,,,http://www.redfin.com/CA/Woodside/680-Kings-Mountain-Rd-94062/home/2041362,MLSListings,ML81450680,N,Y,37.4330209,-122.28348
PAST SALE,August-28-2015,Single Family Residential,175 Josselyn Ln,WOODSIDE,CA,94062,5375000,4,4.5,WOODSIDE,4000,169448,1978,886,1344,200,Sold,,,http://www.redfin.com/CA/Woodside/175-Josselyn-Ln-94062/home/891558,MLSListings,ML81497490,N,Y,37.4335354,-122.2743598
PAST SALE,April-7-2015,Single Family Residential,36 Melanie Ln,ATHERTON,CA,94027,5300000,5,4.5,ATHERTON,4680,43560,1999,1029,1132,,Sold,,,http://www.redfin.com/CA/Atherton/36-Melanie-Ln-94027/home/1125386,MLSListings,ML81451565,N,Y,37.438805,-122.2281869
PAST SALE,March-20-2015,Single Family Residential,1012 Wilmington Way,REDWOOD CITY,CA,94062,3300000,4,4.5,REDWOOD CITY,3904,15900,2015,1047,845,,Sold,,,http://www.redfin.com/CA/Emerald-Hills/1012-Wilmington-Way-94062/home/878128,MLSListings,ML81450593,N,Y,37.4568056,-122.2657947
PAST SALE,,Single Family Residential,490 Walsh Rd,Atherton,CA,94027,6000000,3,3.0,,3240,87321,1948,,1852,,,,,http://www.redfin.com/CA/Atherton/490-Walsh-Rd-94027/home/1892996,,,N,Y,37.4255174,-122.2262278
PAST SALE,November-15-2016,Single Family Residential,25 Neuman Ln,WOODSIDE,CA,94062,7100000,5,4.5,WOODSIDE,6600,48351,2005,441,1076,,Sold,,,http://www.redfin.com/CA/Woodside/25-Neuman-Ln-94062/home/1584634,MLSListings,ML81613990,N,Y,37.4353763,-122.2575565
PAST SALE,September-21-2016,Single Family Residential,3577 Tripp Rd,WOODSIDE,CA,94062,9750000,5,4.5,WOODSIDE,2940,180991,1975,496,3316,,Sold,,,http://www.redfin.com/CA/Woodside/3577-Tripp-Rd-94062/home/2043219,MLSListings,ML81583775,N,Y,37.4252819,-122.2690497
PAST SALE,September-20-2017,Single Family Residential,2190 Ward Way,WOODSIDE,CA,94062,4075000,4,4.5,WOODSIDE,3560,43560,1953,132,1145,,Sold,,,http://www.redfin.com/CA/Woodside/2190-Ward-Way-94062/home/1389683,MLSListings,ML81670758,N,Y,37.443345,-122.230318
PAST SALE,October-25-2016,Single Family Residential,595 Summit Springs Rd,WOODSIDE,CA,94062,1700000,4,4.5,WOODSIDE,3303,65340,1950,462,515,,Sold,,,http://www.redfin.com/CA/Woodside/595-Summit-Spring-Rd-94062/home/1865081,MLSListings,ML81613039,N,Y,37.4247498,-122.2813512
PAST SALE,October-9-2015,Single Family Residential,1595 Canada Ln,WOODSIDE,CA,94062,6950000,4,4.5,WOODSIDE,4789,73181,2004,844,1451,,Sold,,,http://www.redfin.com/CA/Woodside/1595-Canada-Ln-94062/home/1948034,MLSListings,ML81463249,N,Y,37.4299501,-122.2520662
PAST SALE,December-9-2016,Single Family Residential,460 Walsh Rd,ATHERTON,CA,94027,9800000,5,4.5,ATHERTON,8300,44605,2007,417,1181,,Sold,,,http://www.redfin.com/CA/Atherton/460-Walsh-Rd-94027/home/2100278,MLSListings,ML81626918,N,Y,37.4273377,-122.2239526
PAST SALE,September-19-2017,Single Family Residential,9 Colton Ct,REDWOOD CITY,CA,94062,3475000,5,4.5,REDWOOD CITY,6200,20049,1995,133,560,95,Sold,,,http://www.redfin.com/CA/Redwood-City/9-Colton-Ct-94062/home/875376,MLSListings,ML81635799,N,Y,37.4608148,-122.2770396
PAST SALE,June-8-2016,Single Family Residential,60 Why Worry Ln,WOODSIDE,CA,94062,10250000,4,4.5,WOODSIDE,5814,135036,1989,601,1763,,Sold,,,http://www.redfin.com/CA/Woodside/60-Why-Worry-Ln-94062/home/1135716,MLSListings,ML81563780,N,Y,37.4206466,-122.2657206
PAST SALE,January-24-2018,Single Family Residential,290 Winding Way,WOODSIDE,CA,94062,6000000,5,4.5,WOODSIDE,4830,54624,1926,6,1242,,Sold,,,http://www.redfin.com/CA/Woodside/290-Winding-Way-94062/home/1871492,MLSListings,ML81653271,N,Y,37.417053,-122.2517411
PAST SALE,October-25-2016,Single Family Residential,133 Marva Oaks Dr,WOODSIDE,CA,94062,4400000,4,4.5,WOODSIDE,5461,162291,2016,462,806,,Sold,,,http://www.redfin.com/CA/Woodside/133-Marva-Oaks-Dr-94062/home/1736353,MLSListings,ML81584149,N,Y,37.4448016,-122.2825308
PAST SALE,June-15-2015,Single Family Residential,636 Southdale Way,WOODSIDE,CA,94062,3950000,3,4.5,WOODSIDE,6931,33977,2008,960,570,,Sold,,,http://www.redfin.com/CA/Woodside/636-Southdale-Way-94062/home/1307971,MLSListings,ML81451807,N,Y,37.451773,-122.2743497
PAST SALE,August-19-2017,Single Family Residential,481 W Maple Way,WOODSIDE,CA,94062,5400000,4,5.0,WOODSIDE,5279,43560,2017,164,1023,,Sold,,,http://www.redfin.com/CA/Woodside/481-W-Maple-Way-94062/home/1668204,MLSListings,ML81656631,Y,Y,37.4577833,-122.2783576
PAST SALE,December-30-2016,Single Family Residential,10 Somerset Pl,WOODSIDE,CA,94062,3495000,6,5.0,WOODSIDE,4988,47131,1994,396,701,300,Sold,,,http://www.redfin.com/CA/Woodside/10-Somerset-Pl-94062/home/1837181,MLSListings,ML81593980,N,Y,37.4466509,-122.2710336
PAST SALE,,Single Family Residential,265 Eleanor Dr,Woodside,CA,94062,3790000,3,4.0,,3420,55757,1941,,1108,,,,,http://www.redfin.com/CA/Woodside/265-Eleanor-Dr-94062/home/1028005,,,N,Y,37.4389515,-122.2367182
PAST SALE,October-6-2017,Vacant Land,308 Olive Hill Ln,WOODSIDE,CA,94062,7400000,,,WOODSIDE,,145577,,116,,,Sold,,,http://www.redfin.com/CA/Woodside/308-Olive-Hill-Ln-94062/home/1408084,MLSListings,ML81673908,N,Y,37.4365244,-122.2733345
PAST SALE,January-18-2018,Single Family Residential,29 Eugenia Ln,WOODSIDE,CA,94062,4450000,5,5.0,WOODSIDE,4300,43690,1956,12,1035,,Sold,,,http://www.redfin.com/CA/Woodside/29-Eugenia-Ln-94062/home/1784976,MLSListings,ML81683037,N,Y,37.4388363,-122.2337287
PAST SALE,July-24-2015,Single Family Residential,240 Cinnabar Rd,WOODSIDE,CA,94062,12875000,4,5.0,WOODSIDE,12938,131116,1991,921,995,,Sold,,,http://www.redfin.com/CA/Woodside/240-Cinnabar-Rd-94062/home/1372087,MLSListings,ML81467028,N,Y,37.4492059,-122.254107
PAST SALE,September-26-2016,Single Family Residential,231 Winding Way,WOODSIDE,CA,94062,22000000,6,5.0,WOODSIDE,11400,121968,2016,491,1930,,Sold,,,http://www.redfin.com/CA/Woodside/231-Winding-Way-94062/home/2043226,MLSListings,ML81596027,N,Y,37.4155427,-122.2490489
PAST SALE,November-20-2017,Single Family Residential,1430 Bear Gulch Rd,WOODSIDE,CA,94062,2900000,4,5.0,WOODSIDE,4200,222156,1997,71,690,150,Sold,,,http://www.redfin.com/CA/Redwood-City/1430-Bear-Gulch-Rd-94062/home/1061443,MLSListings,ML81673611,N,Y,37.415018078,-122.2684384
PAST SALE,April-15-2015,Single Family Residential,335 WOODSIDE Dr,Woodside,CA,94062,4000000,3,5.0,Woodside,3700,48800,1939,1021,1081,,Sold,,,http://www.redfin.com/CA/Woodside/335-Woodside-Dr-94062/home/1793822,MLSListings,ML81431482,N,Y,37.4483039,-122.2421432
PAST SALE,December-15-2015,Single Family Residential,555 Manzanita Way,WOODSIDE,CA,94062,8120000,4,5.5,WOODSIDE,6265,223463,1981,777,1296,,Sold,,,http://www.redfin.com/CA/Woodside/555-Manzanita-Way-94062/home/1425834,MLSListings,ML81501403,N,Y,37.4146005,-122.2425845
PAST SALE,June-20-2016,Single Family Residential,255 Mountain Wood Ln,WOODSIDE,CA,94062,13750000,4,5.5,WOODSIDE,5978,171234,1955,589,2300,,Sold,,,http://www.redfin.com/CA/Woodside/255-Mountain-Wood-Ln-94062/home/1609844,MLSListings,ML81586957,N,Y,37.4209652,-122.263373
PAST SALE,July-13-2016,Single Family Residential,65 Skywood Way,WOODSIDE,CA,94062,3850000,5,5.5,WOODSIDE,4940,41817,2003,566,779,,Sold,,,http://www.redfin.com/CA/Woodside/65-Skywood-Way-94062/home/1507263,MLSListings,ML81579510,N,Y,37.3920615,-122.2645488
PAST SALE,May-23-2016,Single Family Residential,3 Vineyard Hill Rd,WOODSIDE,CA,94062,7150000,4,5.5,WOODSIDE,5250,133729,1979,617,1362,,Sold,,,http://www.redfin.com/CA/Woodside/3-Vineyard-Hill-Rd-94062/home/892821,MLSListings,ML81562748,N,Y,37.409455,-122.2494335
PAST SALE,September-11-2015,Single Family Residential,12 Colton Ct,REDWOOD CITY,CA,94062,3200000,5,5.5,REDWOOD CITY,6420,20021,1991,872,498,95,Sold,,,http://www.redfin.com/CA/Redwood-City/12-Colton-Ct-94062/home/1100392,MLSListings,ML81471202,N,Y,37.4604866,-122.2763922
PAST SALE,May-22-2015,Single Family Residential,137 Moore Rd,WOODSIDE,CA,94062,7650000,5,5.5,WOODSIDE,9150,196020,1906,984,836,,Sold,,,http://www.redfin.com/CA/Woodside/137-Moore-Rd-94062/home/894936,MLSListings,ML81459588,N,Y,37.4348514,-122.24043
PAST SALE,,Single Family Residential,410 Mountain Home Rd,Woodside,CA,94062,12500000,4,5.0,,4870,197240,1927,,2567,,,,,http://www.redfin.com/CA/Woodside/410-Mountain-Home-Rd-94062/home/891980,,,N,Y,37.4201148,-122.2562622
PAST SALE,June-3-2015,Single Family Residential,437 Whiskey Hill Rd,WOODSIDE,CA,94062,13990000,6,5.5,WOODSIDE,5900,314067,2004,972,2371,,Sold,,,http://www.redfin.com/CA/Woodside/Undisclosed-address-94062/home/1672763,MLSListings,ML81445612,N,Y,37.423573,-122.243002
PAST SALE,March-22-2016,Single Family Residential,245 Lindenbrook Rd,WOODSIDE,CA,94062,6800000,6,5.5,WOODSIDE,6890,355885,1992,679,987,,Sold,,,http://www.redfin.com/CA/Woodside/245-Lindenbrook-Rd-94062/home/1727278,MLSListings,ML81548031,N,Y,37.435205,-122.249224
PAST SALE,,Single Family Residential,6 Quail Meadows Dr,Woodside,CA,94062,8775000,5,6.0,,8660,147233,1989,,1013,,,,,http://www.redfin.com/CA/Woodside/6-Quail-Meadows-Dr-94062/home/1876952,,,N,Y,37.4308631,-122.2429952
PAST SALE,November-8-2017,Single Family Residential,396 Raymundo Dr,WOODSIDE,CA,94062,10600000,5,5.5,WOODSIDE,6652,135700,1964,83,1594,,Sold,,,http://www.redfin.com/CA/Woodside/396-Raymundo-Dr-94062/home/1686624,MLSListings,ML81678741,N,Y,37.4451397,-122.2853355
PAST SALE,,Single Family Residential,19 Blue Ridge Ln,Woodside,CA,94062,2995000,4,6.0,,4970,130680,1995,,603,,,,,http://www.redfin.com/CA/Woodside/19-Blue-Ridge-Ln-94062/home/892086,,,N,Y,37.4108771,-122.2529016
PAST SALE,,Multi-Family (2-4 Unit),65 Mission Trail Rd,Woodside,CA,94062,2000000,6,6.0,,3480,46740,1986,,575,,,,,http://www.redfin.com/CA/Woodside/65-Mission-Trail-Rd-94062/home/2030049,,,N,Y,37.4417203,-122.2628562
PAST SALE,March-24-2015,Single Family Residential,166 OLIVE HILL Ln,Woodside,CA,94062,9800000,5,6.0,Woodside,9040,130680,2010,1043,1084,,Sold,,,http://www.redfin.com/CA/Woodside/166-Olive-Hill-Ln-94062/home/1308234,MLSListings,ML81438081,N,Y,37.4383926,-122.2667731
PAST SALE,,Single Family Residential,10 Sargent Ln,Atherton,CA,94027,7751500,5,5.0,,4980,105894,1937,,1557,,,,,http://www.redfin.com/CA/Atherton/10-Sargent-Ln-94027/home/2022230,,,N,Y,37.4285796,-122.2251586
PAST SALE,,Single Family Residential,38 Haciendas Dr,Woodside,CA,94062,4350000,4,4.0,,5110,177594,1992,,851,,,,,http://www.redfin.com/CA/Woodside/38-Haciendas-Dr-94062/home/1617780,,,N,Y,37.4319676,-122.2489807
PAST SALE,August-11-2017,Single Family Residential,450 Mountain Home Rd,WOODSIDE,CA,94062,18800000,6,6.5,WOODSIDE,10326,130680,2005,172,1821,,Sold,,,http://www.redfin.com/CA/Woodside/450-Mountain-Home-Rd-94062/home/1992157,MLSListings,ML81643984,N,Y,37.4196647,-122.2553109
PAST SALE,May-19-2016,Single Family Residential,330 Jane Dr,WOODSIDE,CA,94062,4588000,6,7.0,WOODSIDE,7930,130899,1988,621,579,,Sold,,,http://www.redfin.com/CA/Woodside/330-Jane-Dr-94062/home/1959468,MLSListings,ML81518484,N,Y,37.4393185,-122.250421
PAST SALE,April-12-2016,Single Family Residential,201 Mountain Wood Ln,WOODSIDE,CA,94062,14998000,4,7.0,WOODSIDE,16800,365468,2015,658,893,,Sold,,,http://www.redfin.com/CA/Woodside/201-Mountain-Wood-Ln-94062/home/1992161,MLSListings,ML81516863,N,Y,37.418761,-122.25853
PAST SALE,June-27-2016,Single Family Residential,460 Las Pulgas Dr,WOODSIDE,CA,94062,5300000,6,7.5,WOODSIDE,7549,170689,1990,582,702,2124,Sold,,,http://www.redfin.com/CA/Woodside/460-Las-Pulgas-Dr-94062/home/1286366,MLSListings,ML81565073,N,Y,37.4519609,-122.2454485
PAST SALE,July-14-2017,Single Family Residential,237 Mapache Dr,PORTOLA VALLEY,CA,94028,7650000,5,7.5,PORTOLA VALLEY,8100,145054,1974,200,944,140,Sold,,,http://www.redfin.com/CA/Portola-Valley/237-Mapache-Dr-94028/home/2034679,MLSListings,ML81669828,N,Y,37.391596,-122.231239
PAST SALE,,Single Family Residential,389 Moore Rd,Woodside,CA,94062,5200000,9,8.0,,9860,272973,1939,,527,,,,,http://www.redfin.com/CA/Woodside/389-Moore-Rd-94062/home/108551446,,,N,Y,37.430662,-122.234204
PAST SALE,February-9-2016,Single Family Residential,389 Moore Rd,WOODSIDE,CA,94062,5200000,7,8.5,WOODSIDE,11130,270072,1939,721,467,,Sold,,,http://www.redfin.com/CA/Woodside/389-Moore-Rd-94062/home/2025040,MLSListings,ML81534487,N,Y,37.430662,-122.234204
PAST SALE,December-18-2015,Single Family Residential,8 Colton Ct,REDWOOD CITY,CA,94062,3500000,9,9.5,REDWOOD CITY,8000,22781,1999,774,438,95,Sold,,,http://www.redfin.com/CA/Redwood-City/8-Colton-Ct-94062/home/1016168,MLSListings,ML81520094,N,Y,37.460465,-122.2771607
PAST SALE,November-9-2017,Vacant Land,00 Crest Rd,WOODSIDE,CA,94062,2900000,,,WOODSIDE,,43575,,82,,,Sold,,,http://www.redfin.com/CA/Woodside/Crest-Rd-94062/home/143425525,MLSListings,ML81675490,N,Y,37.4460643,-122.2512079
PAST SALE,January-19-2017,Vacant Land,16 Santa Maria Ave,PORTOLA VALLEY,CA,94028,1005000,,,PORTOLA VALLEY,,45302,,376,,,Sold,,,http://www.redfin.com/CA/Portola-Valley/16-Santa-Maria-Ave-94028/home/21618945,MLSListings,ML81548186,N,Y,37.3868053,-122.2372284
PAST SALE,April-4-2016,Vacant Land,none Skyline,WOODSIDE,CA,94062,260000,,,WOODSIDE,,17424,,666,,,Sold,,,http://www.redfin.com/CA/Woodside/none-Skyline-Unknown/home/92910727,MLSListings,ML81498632,N,Y,37.4299388,-122.2538557
PAST SALE,,Other,455 Maple Way,Woodside,CA,94062,1810000,,,,,58893,,,,,,,,http://www.redfin.com/CA/Woodside/455-Maple-Way-94062/home/2100263,,,N,Y,37.456271,-122.277561
PAST SALE,August-4-2017,Vacant Land,0 Manzanita Ave,WOODSIDE,CA,94062,12000,,,WOODSIDE,,5000,,179,,,Sold,,,http://www.redfin.com/CA/Woodside/Manzanita-Way-94062/home/55375831,MLSListings,ML81645127,N,Y,37.4175504,-122.2464713
PAST SALE,June-1-2016,Vacant Land,205 Mountain Wood Ln,WOODSIDE,CA,94062,8250000,,,WOODSIDE,,130680,,608,,167,Sold,,,http://www.redfin.com/CA/Woodside/205-Mountain-Wood-Ln-94062/home/63483316,MLSListings,ML81583198,N,Y,37.4193668,-122.2599335
PAST SALE,May-15-2015,Vacant Land,0 Bear Gulch Rd,WOODSIDE,CA,94062,525000,,,WOODSIDE,,220806,,991,,,Sold,,,http://www.redfin.com/CA/Woodside/0-Bear-Gulch-Rd-94062/home/17495066,MLSListings,ML81454563,N,Y,37.416236,-122.2656516
PAST SALE,December-7-2017,Vacant Land,110 Stadler Dr,WOODSIDE,CA,94062,1405000,,,WOODSIDE,,43560,,54,,,Sold,,,http://www.redfin.com/CA/Woodside/110-Stadler-Dr-94062/home/67373130,MLSListings,ML81645102,N,Y,37.3891166,-122.2666143
PAST SALE,August-5-2015,Vacant Land,0 Fern Trl,WOODSIDE,CA,94062,17500,,,WOODSIDE,,10000,,909,,,Sold,,,http://www.redfin.com/CA/Woodside/0-Woodside-Dr-94062/home/40241837,MLSListings,ML81496819,N,Y,37.4533976,-122.2380905
