SALE TYPE,SOLD DATE,PROPERTY TYPE,ADDRESS,CITY,STATE,ZIP,PRICE,BEDS,BATHS,LOCATION,SQUARE FEET,LOT SIZE,YEAR BUILT,DAYS ON MARKET,$/SQUARE FEET,HOA/MONTH,STATUS,NEXT OPEN HOUSE START TIME,NEXT OPEN HOUSE END TIME,URL (SEE http://www.redfin.com/buy-a-home/comparative-market-analysis FOR INFO ON PRICING),SOURCE,MLS#,FAVORITE,INTERESTED,LATITUDE,LONGITUDE
PAST SALE,,Single Family Residential,14331 Browns Ln,Los Gatos,CA,95032,850000,2,1.0,,816,9523,1948,,1042,,,,,http://www.redfin.com/CA/Los-Gatos/14331-Browns-Ln-95032/home/821385,,,N,Y,37.2603076,-121.9721681
PAST SALE,October-6-2017,Condo/Co-op,576 W Parr Ave #10,LOS GATOS,CA,95032,575000,2,1.0,LOS GATOS,934,1587,1987,116,616,436,Sold,,,http://www.redfin.com/CA/Los-Gatos/576-W-Parr-Ave-95032/unit-10/home/1778505,MLSListings,ML81679631,N,Y,37.2639008,-121.9636119
PAST SALE,December-5-2017,Single Family Residential,1408 Burrows Rd,CAMPBELL,CA,95008,1500000,3,1.0,CAMPBELL,1295,10437,1946,56,1158,,Sold,,,http://www.redfin.com/CA/Campbell/1408-Burrows-Rd-95008/home/818757,MLSListings,ML81684043,N,Y,37.2666762,-121.9725964
PAST SALE,August-25-2017,Single Family Residential,17721 Navajo Trl,LOS GATOS,CA,95033,605000,2,1.0,LOS GATOS,841,3630,1960,158,719,130,Sold,,,http://www.redfin.com/CA/Los-Gatos/17721-Navajo-Trl-95033/home/1247491,MLSListings,ML81668652,N,Y,37.160659,-121.980286
PAST SALE,August-11-2017,Single Family Residential,5486 Sharon Ln,SAN JOSE,CA,95124,1200000,3,1.0,SAN JOSE,1434,6380,1959,172,837,,Sold,,,http://www.redfin.com/CA/San-Jose/5486-Sharon-Ln-95124/home/911653,MLSListings,ML81672145,N,Y,37.2383555,-121.9243346
PAST SALE,October-2-2017,Condo/Co-op,14225 Lora Dr #59,LOS GATOS,CA,95032,575000,2,1.0,LOS GATOS,996,2242,1963,120,577,365,Sold,,,http://www.redfin.com/CA/Los-Gatos/14225-Lora-Dr-95032/unit-59/home/1755792,MLSListings,ML81676919,N,Y,37.262377,-121.976824
PAST SALE,,Single Family Residential,24188 Loma Prieta Ave,Los Gatos,CA,95033,700000,2,1.0,,1133,127977,1953,,618,,,,,http://www.redfin.com/CA/Los-Gatos/24188-Loma-Prieta-Ave-95033/home/1192009,,,N,Y,37.125784,-121.927643
PAST SALE,October-11-2017,Single Family Residential,14270 Arnerich Rd,Los Gatos,CA,95032,1250000,3,1.0,Los Gatos,1466,87120,1921,111,853,,Sold,,,http://www.redfin.com/CA/Los-Gatos/14270-Arnerich-Rd-95032/home/915337,EBRD/CCAR/Bay East,40787794,N,Y,37.2140606,-121.9176642
PAST SALE,November-30-2017,Single Family Residential,15933 Linda Ave,LOS GATOS,CA,95032,1755000,1,1.0,LOS GATOS,720,11628,1948,61,2438,,Sold,,,http://www.redfin.com/CA/Los-Gatos/15933-Linda-Ave-95032/home/910218,MLSListings,ML81685056,N,Y,37.2369329,-121.9488878
PAST SALE,December-26-2017,Condo/Co-op,95 Church St #2104,LOS GATOS,CA,95030,895000,1,1.0,LOS GATOS,1059,2100,1981,35,845,567,Sold,,,http://www.redfin.com/CA/Los-Gatos/95-Church-St-95030/unit-2104/home/864086,MLSListings,ML81675982,N,Y,37.2223445,-121.9792825
PAST SALE,January-19-2018,Single Family Residential,21551 Mary Alice Way,LOS GATOS,CA,95033,780000,3,1.0,LOS GATOS,1060,11409,1934,11,736,89,Sold,,,http://www.redfin.com/CA/Los-Gatos/21551-Mary-Alice-Way-95033/home/12177260,MLSListings,ML81689637,N,Y,37.155005,-121.986135
PAST SALE,September-25-2017,Single Family Residential,17741 Comanche Trl,LOS GATOS,CA,95033,550000,2,1.0,LOS GATOS,549,3956,1935,127,1002,159,Sold,,,http://www.redfin.com/CA/Los-Gatos/17741-Comanche-Trl-95033/home/916663,MLSListings,ML81674021,N,Y,37.163469,-121.980804
PAST SALE,December-22-2017,Condo/Co-op,14225 Lora Dr #90,LOS GATOS,CA,95032,631000,2,1.0,LOS GATOS,1000,2242,1963,39,631,375,Sold,,,http://www.redfin.com/CA/Los-Gatos/14225-Lora-Dr-95032/unit-90/home/1727447,MLSListings,ML81682120,N,Y,37.262377,-121.976824
PAST SALE,November-8-2017,Single Family Residential,15 Loma Alta Ave,LOS GATOS,CA,95030,1358000,3,1.0,LOS GATOS,1276,5500,1925,83,1064,,Sold,,,http://www.redfin.com/CA/Los-Gatos/15-Loma-Alta-Ave-95030/home/1756461,MLSListings,ML81678878,N,Y,37.221856,-121.9717254
PAST SALE,November-28-2017,Single Family Residential,131 Olive St,LOS GATOS,CA,95030,1350000,2,1.0,LOS GATOS,1011,3588,1939,63,1335,,Sold,,,http://www.redfin.com/CA/Los-Gatos/131-Olive-St-95030/home/1663916,MLSListings,ML81667691,N,Y,37.2338616,-121.9804571
PAST SALE,,Single Family Residential,15571 Loma Vista Ave,Los Gatos,CA,95032,475000,2,1.0,,1213,7840,1940,,392,,,,,http://www.redfin.com/CA/Los-Gatos/15571-Loma-Vista-Ave-95032/home/12177232,,,N,Y,37.2421962,-121.9510215
PAST SALE,,Single Family Residential,4 Gem Ave,Los Gatos,CA,95030,2100000,3,2.0,,1850,8250,1946,,1135,,,,,http://www.redfin.com/CA/Los-Gatos/4-Gem-Ave-95030/home/1479471,,,N,Y,37.2260526,-121.9652746
PAST SALE,November-13-2017,Single Family Residential,15415 National Ave,LOS GATOS,CA,95032,1480000,2,1.0,LOS GATOS,1140,23800,1930,78,1298,,Sold,,,http://www.redfin.com/CA/Los-Gatos/15415-National-Ave-95032/home/836267,MLSListings,ML81673539,N,Y,37.2444204,-121.9502187
PAST SALE,January-23-2018,Single Family Residential,13072 Bell Rd,LOS GATOS,CA,95033,820000,1,1.0,LOS GATOS,1091,134600,1979,7,752,,Sold,,,http://www.redfin.com/CA/Los-Gatos/13072-Bell-Rd-95033/home/2433417,MLSListings,ML81686055,N,Y,37.126147,-122.012615
PAST SALE,September-15-2017,Single Family Residential,18475 Circle Dr,LOS GATOS,CA,95033,725000,2,1.0,LOS GATOS,1368,7536,1967,137,530,118,Sold,,,http://www.redfin.com/CA/Los-Gatos/18475-Circle-Dr-95033/home/2400575,MLSListings,ML81675362,N,Y,37.114525,-121.983357
PAST SALE,August-15-2017,Single Family Residential,21516 Old Mine Rd,LOS GATOS,CA,95033,610000,2,1.25,LOS GATOS,1282,23169,1954,168,476,,Sold,,,http://www.redfin.com/CA/Los-Gatos/21516-Old-Mine-Rd-95033/home/917233,MLSListings,ML81669059,N,Y,37.1573648,-121.9681657
PAST SALE,October-31-2017,Single Family Residential,21717 Summit Rd,LOS GATOS,CA,95033,1175000,4,1.5,LOS GATOS,1696,9400,1966,91,693,89,Sold,,,http://www.redfin.com/CA/Los-Gatos/21717-Summit-Rd-95033/home/1206398,MLSListings,ML81677024,N,Y,37.149432,-121.993663
PAST SALE,December-13-2017,Single Family Residential,15785 Linda Ave,LOS GATOS,CA,95032,1600000,3,1.5,LOS GATOS,1507,7980,1952,48,1062,,Sold,,,http://www.redfin.com/CA/Los-Gatos/15785-Linda-Ave-95032/home/1267287,MLSListings,ML81682252,N,Y,37.239127,-121.948886
PAST SALE,August-16-2017,Single Family Residential,15603 Benedict Ln,LOS GATOS,CA,95032,1670000,3,1.5,LOS GATOS,1545,9375,1948,167,1081,,Sold,,,http://www.redfin.com/CA/Los-Gatos/15603-Benedict-Ln-95032/home/1467255,MLSListings,ML81669239,N,Y,37.2419042,-121.9617022
PAST SALE,January-12-2018,Single Family Residential,20915 Comanche Trl,LOS GATOS,CA,95033,632900,4,1.5,LOS GATOS,1866,12960,1926,18,339,159,Sold,,,http://www.redfin.com/CA/Los-Gatos/20915-Comanche-Trl-95033/home/917198,MLSListings,ML81684759,N,Y,37.161884,-121.978156
PAST SALE,December-29-2017,Single Family Residential,16166 Los Gatos Almaden Rd,LOS GATOS,CA,95032,1775000,3,1.5,LOS GATOS,1315,9990,1955,32,1350,,Sold,,,http://www.redfin.com/CA/Los-Gatos/16166-Los-Gatos-Almaden-Rd-95032/home/1028971,MLSListings,ML81686142,N,Y,37.242483,-121.9524703
PAST SALE,,Single Family Residential,16346 Robie Ln,Los Gatos,CA,95032,150000,3,1.0,,1327,11775,1949,,113,,,,,http://www.redfin.com/CA/Los-Gatos/16346-Robie-Ln-95032/home/1496759,,,N,Y,37.2311552,-121.9627189
PAST SALE,December-5-2017,Condo/Co-op,171 Villa Ave,LOS GATOS,CA,95030,1200000,2,1.5,LOS GATOS,1523,870,1979,56,788,375,Sold,,,http://www.redfin.com/CA/Los-Gatos/171-Villa-Ave-95030/home/914607,MLSListings,ML81683151,N,Y,37.220306,-121.975134
PAST SALE,December-28-2017,Condo/Co-op,120 Oak Rim Way #23,LOS GATOS,CA,95032,940000,2,1.5,LOS GATOS,1040,672,1971,33,904,418,Sold,,,http://www.redfin.com/CA/Los-Gatos/120-Oak-Rim-Way-95032/unit-23/home/1204619,MLSListings,ML81685768,N,Y,37.237255,-121.9648648
PAST SALE,September-26-2017,Single Family Residential,18404 Main Blvd,LOS GATOS,CA,95033,768000,3,2.0,LOS GATOS,1590,48675,1975,126,483,118,Sold,,,http://www.redfin.com/CA/Los-Gatos/18404-Main-Blvd-95033/home/2400449,MLSListings,ML81673829,N,Y,37.115969,-121.985373
PAST SALE,November-30-2017,Townhouse,100 Walnut Hill Ct,LOS GATOS,CA,95032,950000,2,2.0,LOS GATOS,1004,3024,1973,61,946,453,Sold,,,http://www.redfin.com/CA/Los-Gatos/100-Walnut-Hill-Ct-95032/home/1444986,MLSListings,ML81683116,N,Y,37.2539981,-121.9637136
PAST SALE,,Condo/Co-op,203 Palmer Dr,Los Gatos,CA,95032,168500,3,2.0,,1856,,1984,,91,,,,,http://www.redfin.com/CA/Los-Gatos/203-Palmer-Dr-95032/home/821476,,,N,Y,37.2584162,-121.9676137
PAST SALE,September-5-2017,Single Family Residential,21440 Shady Ln,LOS GATOS,CA,95033,650000,3,2.0,LOS GATOS,2000,13300,1941,147,325,,Sold,,,http://www.redfin.com/CA/Los-Gatos/21440-Shady-Ln-95033/home/917239,MLSListings,ML81653560,N,Y,37.159192,-121.9683747
PAST SALE,October-12-2017,Single Family Residential,226 Caldwell Ave,LOS GATOS,CA,95032,2096000,4,2.0,LOS GATOS,1908,7700,1928,110,1099,,Sold,,,http://www.redfin.com/CA/Los-Gatos/226-Caldwell-Ave-95032/home/913395,MLSListings,ML81677329,N,Y,37.2276191,-121.9681037
PAST SALE,October-12-2017,Single Family Residential,16759 Frank Ave,LOS GATOS,CA,95032,1537500,3,2.0,LOS GATOS,1372,8970,1946,110,1121,,Sold,,,http://www.redfin.com/CA/Los-Gatos/16759-Frank-Ave-95032/home/1168636,MLSListings,ML81678356,N,Y,37.2390051,-121.962888
PAST SALE,September-29-2017,Single Family Residential,23343 Deerfield Rd,LOS GATOS,CA,95033,1110000,3,2.0,LOS GATOS,2011,46261,1974,123,552,,Sold,,,http://www.redfin.com/CA/Los-Gatos/23343-Deerfield-Rd-95033/home/2404698,MLSListings,ML81675479,N,Y,37.125504,-121.961106
PAST SALE,,Single Family Residential,391 School Ct,Los Gatos,CA,95032,447000,3,2.0,,2026,2772,2017,,221,,,,,http://www.redfin.com/CA/Los-Gatos/391-School-Ct-95032/home/143042126,,,N,Y,37.2621148,-121.9650649
PAST SALE,,Single Family Residential,104 Loma Vista Ct,Los Gatos,CA,95032,928182,4,2.0,,2300,8515,1978,,404,,,,,http://www.redfin.com/CA/Los-Gatos/104-Loma-Vista-Ct-95032/home/927761,,,N,Y,37.2435551,-121.9508117
PAST SALE,August-16-2017,Townhouse,115 Strathmore,LOS GATOS,CA,95032,1141000,3,2.0,LOS GATOS,1420,3500,1977,167,804,530,Sold,,,http://www.redfin.com/CA/Los-Gatos/115-Strathmore-Pl-95032/home/1384522,MLSListings,ML81647307,N,Y,37.2570363,-121.9699153
PAST SALE,,Single Family Residential,1422 Theresa Ave,Campbell,CA,95008,130909,3,2.0,,1835,9450,2009,,71,,,,,http://www.redfin.com/CA/Campbell/1422-Theresa-Ave-95008/home/1838980,,,N,Y,37.266046,-121.963057
PAST SALE,,Single Family Residential,23416 Sunset Dr,Los Gatos,CA,95033,715000,3,2.0,,1823,25439,1973,,392,,,,,http://www.redfin.com/CA/Los-Gatos/23416-Sunset-Dr-95033/home/2405578,,,N,Y,37.1292238,-121.958176
PAST SALE,October-24-2017,Single Family Residential,23380 Morrill Rd,LOS GATOS,CA,95033,1449000,4,2.0,LOS GATOS,2820,145308,1964,98,514,,Sold,,,http://www.redfin.com/CA/Los-Gatos/23380-Morrill-Rd-95033/home/1217628,MLSListings,ML81670075,N,Y,37.1258408,-121.9372052
PAST SALE,October-2-2017,Townhouse,164 Milmar Way,LOS GATOS,CA,95032,980000,3,2.0,LOS GATOS,1494,1400,1972,120,656,365,Sold,,,http://www.redfin.com/CA/Los-Gatos/164-Milmar-Way-95032/home/929947,MLSListings,ML81675352,N,Y,37.24209,-121.945548
PAST SALE,,Single Family Residential,200 Highland Oaks Dr,Los Gatos,CA,95032,1250000,4,2.0,,1232,11500,1957,,1015,,,,,http://www.redfin.com/CA/Los-Gatos/200-Highland-Oaks-Dr-95032/home/1089034,,,N,Y,37.2469139,-121.9602826
PAST SALE,September-22-2017,Single Family Residential,288 Carlton Ave,LOS GATOS,CA,95032,1400000,3,2.0,LOS GATOS,1094,6420,1958,130,1280,,Sold,,,http://www.redfin.com/CA/Los-Gatos/288-Carlton-Ave-95032/home/1266982,MLSListings,ML81675324,N,Y,37.2465961,-121.9541441
PAST SALE,September-30-2017,Single Family Residential,28 Pennsylvania Ave,LOS GATOS,CA,95030,2030000,3,2.0,LOS GATOS,1946,8775,1906,122,1043,,Sold,,,http://www.redfin.com/CA/Los-Gatos/28-Pennsylvania-Ave-95030/home/628701,MLSListings,ML81667854,N,Y,37.2249394,-121.9871269
PAST SALE,October-13-2017,Single Family Residential,17970 Helen Way,LOS GATOS,CA,95033,1020000,2,2.0,LOS GATOS,1257,11200,1967,109,811,89,Sold,,,http://www.redfin.com/CA/Los-Gatos/17970-Helen-Way-95033/home/1158988,MLSListings,ML81678502,N,Y,37.1555535,-121.9861552
PAST SALE,September-11-2017,Condo/Co-op,443 Alberto Way Unit B215,LOS GATOS,CA,95032,600000,2,2.0,LOS GATOS,1076,,1978,141,558,475,Sold,,,http://www.redfin.com/CA/Los-Gatos/443-Alberto-Way-95032/unit-B215/home/586935,MLSListings,ML81674828,N,Y,37.228447,-121.972814
PAST SALE,November-14-2017,Single Family Residential,124 YOSEMITE Way,LOS GATOS,CA,95030,1340000,3,2.0,LOS GATOS,947,4600,1952,77,1415,,Sold,,,http://www.redfin.com/CA/Los-Gatos/124-Yosemite-Way-95030/home/1241523,MLSListings,ML81678413,N,Y,37.2246172,-121.9675014
PAST SALE,September-8-2017,Single Family Residential,116 Arroyo Grande Way,LOS GATOS,CA,95032,1525000,3,2.0,LOS GATOS,1230,7000,1958,144,1240,,Sold,,,http://www.redfin.com/CA/Los-Gatos/116-Arroyo-Grande-Way-95032/home/1403038,MLSListings,ML81672743,N,Y,37.2504525,-121.963912
PAST SALE,August-29-2017,Townhouse,16345 Los Gatos Blvd #27,LOS GATOS,CA,95032,1052000,2,2.0,LOS GATOS,1130,1600,1973,154,931,385,Sold,,,http://www.redfin.com/CA/Los-Gatos/16345-Los-Gatos-Blvd-95032/unit-27/home/914451,MLSListings,ML81669076,N,Y,37.2315902,-121.9668942
PAST SALE,August-16-2017,Single Family Residential,231 Arroyo Grande Way,LOS GATOS,CA,95032,1850000,3,2.0,LOS GATOS,1823,13900,1959,167,1015,,Sold,,,http://www.redfin.com/CA/Los-Gatos/231-Arroyo-Grande-Way-95032/home/1685574,MLSListings,ML81669402,N,Y,37.247904,-121.9626918
PAST SALE,August-24-2017,Single Family Residential,204 Prince St,LOS GATOS,CA,95032,1720000,3,2.0,LOS GATOS,1856,9238,1961,159,927,,Sold,,,http://www.redfin.com/CA/Los-Gatos/204-Prince-St-95032/home/822436,MLSListings,ML81671298,N,Y,37.2626854,-121.9836002
PAST SALE,November-17-2017,Single Family Residential,58 Euclid Ave,LOS GATOS,CA,95030,1699950,3,2.0,LOS GATOS,1510,8379,1962,74,1126,,Sold,,,http://www.redfin.com/CA/Los-Gatos/58-Euclid-Ave-95030/home/1538512,MLSListings,ML81683614,N,Y,37.217797,-121.986217
PAST SALE,December-1-2017,Single Family Residential,50 Clifton Ave,LOS GATOS,CA,95030,1800000,3,2.0,LOS GATOS,1718,28800,1975,60,1048,,Sold,,,http://www.redfin.com/CA/Los-Gatos/50-Clifton-Ave-95030/home/1534769,MLSListings,ML81678440,N,Y,37.2221383,-121.9881692
PAST SALE,August-15-2017,Single Family Residential,229 Gregg Ct,LOS GATOS,CA,95032,1597000,3,2.0,LOS GATOS,1732,7500,1965,168,922,,Sold,,,http://www.redfin.com/CA/Los-Gatos/229-Gregg-Ct-95032/home/1635497,MLSListings,ML81646868,N,Y,37.2413716,-121.9241924
PAST SALE,,Single Family Residential,15839 Orange Blossom Ln,Los Gatos,CA,95032,1300000,3,2.0,,1675,8000,1955,,776,,,,,http://www.redfin.com/CA/Los-Gatos/15839-Orange-Blossom-Ln-95032/home/1544243,,,N,Y,37.2383198,-121.9566028
PAST SALE,September-5-2017,Single Family Residential,15330 Francis Oaks Way,LOS GATOS,CA,95032,1790000,3,2.0,LOS GATOS,2182,41382,1949,147,820,,Sold,,,http://www.redfin.com/CA/Los-Gatos/15330-Francis-Oaks-Way-95032/home/1039166,MLSListings,ML81669449,N,Y,37.2349288,-121.9369634
PAST SALE,,Condo/Co-op,449 Alberto Way Unit D133,Los Gatos,CA,95032,129000,2,2.0,,1076,,1980,,120,,,,,http://www.redfin.com/CA/Los-Gatos/449-Alberto-Way-95032/unit-D133/home/1247369,,,N,Y,37.229163,-121.972229
PAST SALE,December-15-2017,Condo/Co-op,451 Alberto Way #147,LOS GATOS,CA,95032,700000,2,2.0,LOS GATOS,1136,436,1978,46,616,475,Sold,,,http://www.redfin.com/CA/Los-Gatos/451-Alberto-Way-95032/unit-147/home/914526,MLSListings,ML81682656,N,Y,37.22864,-121.97199
PAST SALE,December-28-2017,Single Family Residential,17936 Francis Ct,LOS GATOS,CA,95033,1000000,3,2.0,LOS GATOS,2400,51836,1965,33,417,,Sold,,,http://www.redfin.com/CA/Los-Gatos/17936-Francis-Ct-95030/home/916405,MLSListings,ML81683883,N,Y,37.1564297,-121.9830567
PAST SALE,December-21-2017,Single Family Residential,121 Wood Rd,LOS GATOS,CA,95030,2250000,3,2.0,LOS GATOS,2625,39126,1975,40,857,,Sold,,,http://www.redfin.com/CA/Los-Gatos/121-Wood-Rd-95030/home/874902,MLSListings,ML81677914,N,Y,37.2196621,-121.9882748
PAST SALE,January-25-2018,Single Family Residential,106 Calle Estoria,LOS GATOS,CA,95032,1694000,3,2.0,LOS GATOS,1577,9228,1962,5,1074,,Sold,,,http://www.redfin.com/CA/Los-Gatos/106-Calle-Estoria-95032/home/820509,MLSListings,ML81687191,N,Y,37.2624651,-121.9796088
PAST SALE,,Single Family Residential,102 Calle Estoria,Los Gatos,CA,95032,950000,4,2.0,,1883,10000,1962,,505,,,,,http://www.redfin.com/CA/Los-Gatos/102-Calle-Estoria-95032/home/946410,,,N,Y,37.2621859,-121.9793241
PAST SALE,September-5-2017,Single Family Residential,5299 Kentfield Dr,SAN JOSE,CA,95124,1305000,3,2.0,SAN JOSE,1248,6438,1960,147,1046,,Sold,,,http://www.redfin.com/CA/San-Jose/5299-Kentfield-Dr-95124/home/912641,MLSListings,ML81672608,N,Y,37.2415522,-121.925871
PAST SALE,November-6-2017,Single Family Residential,1641 Elwood Dr,Los Gatos,CA,95032,1605000,4,2.0,Los Gatos,1854,6000,1967,85,866,,Sold,,,http://www.redfin.com/CA/Los-Gatos/1641-Elwood-Dr-95032/home/1456849,CRMLS,PW17229795,N,Y,37.264845,-121.9890789
PAST SALE,January-11-2018,Single Family Residential,227 Nob Hill Way,LOS GATOS,CA,95032,1861200,4,2.0,LOS GATOS,1400,9915,1957,19,1329,,Sold,,,http://www.redfin.com/CA/Los-Gatos/227-Nob-Hill-Way-95032/home/1194273,MLSListings,ML81685932,N,Y,37.2466082,-121.9618701
PAST SALE,,Townhouse,129 El Pinar,Los Gatos,CA,95032,1120000,3,2.0,,1440,2500,1974,,778,,,,,http://www.redfin.com/CA/Los-Gatos/129-El-Pinar-95032/home/1697589,,,N,Y,37.260738,-121.988139
PAST SALE,January-10-2018,Single Family Residential,350 Bella Vista Ave,LOS GATOS,CA,95032,2271500,3,2.0,LOS GATOS,2023,7752,1930,20,1123,,Sold,,,http://www.redfin.com/CA/Los-Gatos/350-Bella-Vista-Ave-95032/home/913401,MLSListings,ML81681844,N,Y,37.2272831,-121.9702881
PAST SALE,September-15-2017,Single Family Residential,16152 Azalea Way,LOS GATOS,CA,95032,2400000,4,2.0,LOS GATOS,1950,8000,1955,137,1231,,Sold,,,http://www.redfin.com/CA/Los-Gatos/16152-Azalea-Way-95032/home/999368,MLSListings,ML81674956,N,Y,37.2402544,-121.9523719
PAST SALE,,Single Family Residential,Francis Ct,Los Gatos,CA,95033,1000000,2,2.0,,1844,51836,1965,,542,,,,,http://www.redfin.com/CA/Los-Gatos/Francis-Ct-95033/home/95955513,,,N,Y,37.1565671,-121.9833255
PAST SALE,December-22-2017,Townhouse,205 Escobar Ave,LOS GATOS,CA,95032,1180000,3,2.0,LOS GATOS,1218,2361,1972,39,969,365,Sold,,,http://www.redfin.com/CA/Los-Gatos/205-Escobar-Ave-95032/home/1373743,MLSListings,ML81685795,N,Y,37.240255,-121.9446448
PAST SALE,December-20-2017,Single Family Residential,1717 Hydrangea Ln,SAN JOSE,CA,95124,1200000,3,2.0,SAN JOSE,1210,6340,1961,41,992,,Sold,,,http://www.redfin.com/CA/San-Jose/1717-Hydrangea-Ln-95124/home/1247567,MLSListings,ML81686709,N,Y,37.2329519,-121.9103119
PAST SALE,September-15-2017,Single Family Residential,105 Belvue Dr,LOS GATOS,CA,95032,1710000,3,2.0,LOS GATOS,1744,10720,1965,137,981,46,Sold,,,http://www.redfin.com/CA/Los-Gatos/105-Belvue-Dr-95032/home/1503368,MLSListings,ML81674565,N,Y,37.2319354,-121.9134655
PAST SALE,September-28-2017,Single Family Residential,100 Smith Ranch Ct,LOS GATOS,CA,95032,1200000,2,2.0,LOS GATOS,1351,4625,2005,124,888,85,Sold,,,http://www.redfin.com/CA/Los-Gatos/100-Smith-Ranch-Ct-95032/home/559938,MLSListings,ML81673753,N,Y,37.2570953,-121.9654725
PAST SALE,,Single Family Residential,375 Knowles Dr,Los Gatos,CA,95032,1754000,3,2.0,,2224,3321,2017,,789,,,,,http://www.redfin.com/CA/Los-Gatos/375-Knowles-Dr-95032/home/142955400,,,N,Y,37.262272,-121.964153
PAST SALE,,Single Family Residential,185 La Canada Ct,Los Gatos,CA,95032,1240000,3,2.0,,1150,6136,1958,,1078,,,,,http://www.redfin.com/CA/Los-Gatos/185-La-Canada-Ct-95032/home/840381,,,N,Y,37.2499892,-121.9619547
PAST SALE,,Single Family Residential,123 Green Hill Way,Los Gatos,CA,95032,1500000,4,2.0,,1314,10350,1957,,1142,,,,,http://www.redfin.com/CA/Los-Gatos/123-Green-Hill-Way-95032/home/1427922,,,N,Y,37.24887,-121.9605457
PAST SALE,January-22-2018,Single Family Residential,17959 Mountain Charlie Rd,LOS GATOS,CA,95033,976250,3,2.0,LOS GATOS,1584,50529,1992,8,616,,Sold,,,http://www.redfin.com/CA/Los-Gatos/17959-Mountain-Charlie-Rd-95033/home/601878,MLSListings,ML81652589,N,Y,37.1493316,-121.9793521
PAST SALE,January-12-2018,Single Family Residential,33200 Loma Chiquita Rd,LOS GATOS,CA,95033,819000,5,2.0,LOS GATOS,1904,217800,1977,18,430,,Sold,,,http://www.redfin.com/CA/Los-Gatos/33200-Loma-Chiquita-Rd-95033/home/668046,MLSListings,ML81667784,N,Y,37.106034,-121.819308
PAST SALE,November-1-2017,Single Family Residential,23640 Old Santa Cruz Hwy,LOS GATOS,CA,95033,875000,4,2.0,LOS GATOS,2127,33323,1960,90,411,,Sold,,,http://www.redfin.com/CA/Los-Gatos/23640-Old-Santa-Cruz-Hwy-95033/home/2402992,MLSListings,ML81655430,N,Y,37.129589,-121.975063
PAST SALE,November-3-2017,Single Family Residential,209 Mary Alice Dr,LOS GATOS,CA,95032,1330000,3,2.0,LOS GATOS,1160,6000,1961,88,1147,,Sold,,,http://www.redfin.com/CA/Los-Gatos/209-Mary-Alice-Dr-95032/home/1477178,MLSListings,ML81680591,N,Y,37.245286,-121.9525195
PAST SALE,January-18-2018,Condo/Co-op,600 Pennsylvania Ave #24,LOS GATOS,CA,95030,926000,2,2.0,LOS GATOS,1440,1383,1962,12,643,430,Sold,,,http://www.redfin.com/CA/Los-Gatos/600-Pennsylvania-Ave-95030/unit-24/home/999294,MLSListings,ML81689442,N,Y,37.226425,-121.992789
PAST SALE,October-16-2017,Single Family Residential,15050 STETSON,LOS GATOS,CA,95033,635000,3,2.0,LOS GATOS,1500,60984,1968,106,423,,Sold,,,http://www.redfin.com/CA/Los-Gatos/15050-Stetson-Rd-95033/home/2406853,MLSListings,ML81671005,N,Y,37.101276,-121.931178
PAST SALE,December-6-2017,Single Family Residential,166 Spreckles Ave,LOS GATOS,CA,95030,2015000,3,2.0,LOS GATOS,1466,22925,1949,55,1374,,Sold,,,http://www.redfin.com/CA/Los-Gatos/166-Spreckles-Ave-95030/home/1310776,MLSListings,ML81677021,N,Y,37.2184481,-121.9655556
PAST SALE,August-7-2017,Single Family Residential,600 Starview Ter,LOS GATOS,CA,95033,1060000,3,2.0,LOS GATOS,1650,50747,1985,176,642,,Sold,,,http://www.redfin.com/CA/Los-Gatos/600-Starview-Ter-95033/home/2406160,MLSListings,ML81653550,N,Y,37.0926761,-121.949794
PAST SALE,,Single Family Residential,1550 Elwood Dr,Los Gatos,CA,95032,1630000,4,2.0,,1854,6000,1967,,879,,,,,http://www.redfin.com/CA/Los-Gatos/1550-Elwood-Dr-95032/home/1234891,,,N,Y,37.2664124,-121.9890277
PAST SALE,January-3-2018,Single Family Residential,33 Ashler Ave,LOS GATOS,CA,95030,1825000,3,2.0,LOS GATOS,1264,5652,1956,27,1444,,Sold,,,http://www.redfin.com/CA/Los-Gatos/33-Ashler-Ave-95030/home/887716,MLSListings,ML81686172,N,Y,37.234332,-121.980022
PAST SALE,December-13-2017,Single Family Residential,17785 Comanche Trl,LOS GATOS,CA,95033,925000,2,2.0,LOS GATOS,1310,20440,1938,48,706,159,Sold,,,http://www.redfin.com/CA/Los-Gatos/17785-Comanche-Trl-95033/home/1770571,MLSListings,ML81682472,N,Y,37.163202,-121.981636
PAST SALE,September-29-2017,Condo/Co-op,102 Cherry Wood Ct,LOS GATOS,CA,95032,865000,2,2.0,LOS GATOS,1461,2040,1972,123,592,358,Sold,,,http://www.redfin.com/CA/Los-Gatos/102-Cherry-Wood-Ct-95032/home/1494567,MLSListings,ML81674934,N,Y,37.2630865,-121.9737474
PAST SALE,,Single Family Residential,360 Bella Vista Ave,Los Gatos,CA,95032,1550000,3,2.0,,1939,23700,1940,,799,,,,,http://www.redfin.com/CA/Los-Gatos/360-Bella-Vista-Ave-95032/home/1758475,,,N,Y,37.227722,-121.970174
PAST SALE,November-28-2017,Single Family Residential,15011 Winchester Blvd,MONTE SERENO,CA,95030,1675000,3,2.0,MONTE SERENO,1862,12220,1968,63,900,,Sold,,,http://www.redfin.com/CA/Los-Gatos/15011-Winchester-Blvd-95030/home/822452,MLSListings,ML81678489,N,Y,37.250257,-121.970128
PAST SALE,,Single Family Residential,266 Kennedy Rd,Los Gatos,CA,95032,1950000,3,2.0,,1593,11625,1956,,1224,,,,,http://www.redfin.com/CA/Los-Gatos/266-Kennedy-Rd-95032/home/775157,,,N,Y,37.226249,-121.963823
PAST SALE,,Single Family Residential,357 Market St,Los Gatos,CA,95032,1686500,3,2.0,,2026,3387,2017,,832,,,,,http://www.redfin.com/CA/Los-Gatos/357-Market-St-95032/home/143042118,,,N,Y,37.2626233,-121.9644593
PAST SALE,October-12-2017,Single Family Residential,260 Garden Hill Dr,LOS GATOS,CA,95032,1575000,2,2.0,LOS GATOS,1272,7000,1959,110,1238,,Sold,,,http://www.redfin.com/CA/Los-Gatos/260-Garden-Hill-Dr-95032/home/1295320,MLSListings,ML81673890,N,Y,37.246776,-121.9631743
PAST SALE,December-15-2017,Single Family Residential,1709 Canna Ln,SAN JOSE,CA,95124,1399999,3,2.0,SAN JOSE,1210,6060,1961,46,1157,,Sold,,,http://www.redfin.com/CA/San-Jose/1709-Canna-Ln-95124/home/919691,MLSListings,ML81684848,N,Y,37.2314887,-121.909904
PAST SALE,October-27-2017,Townhouse,424 Clearview Dr,LOS GATOS,CA,95032,1121000,3,2.0,LOS GATOS,1409,3404,1977,95,796,523,Sold,,,http://www.redfin.com/CA/Los-Gatos/424-Clearview-Dr-95032/home/1127599,MLSListings,ML81675525,N,Y,37.257208,-121.969085
PAST SALE,October-23-2017,Condo/Co-op,14225 Lora Dr #78,LOS GATOS,CA,95032,600000,2,2.0,LOS GATOS,1050,2242,1963,99,571,391,Sold,,,http://www.redfin.com/CA/Los-Gatos/14225-Lora-Dr-95032/unit-78/home/1294906,MLSListings,ML81673207,N,Y,37.262377,-121.976824
PAST SALE,,Single Family Residential,1650 ELWOOD DR,CAMPBELL,CA,95008,1250000,4,2.0,,1854,6000,1966,,674,,,,,http://www.redfin.com/CA/CAMPBELL/1650-ELWOOD-DR-95008/home/1337752,,,N,Y,37.264803,-121.988484
PAST SALE,November-10-2017,Single Family Residential,20741 Bear Creek Rd,LOS GATOS,CA,95033,875000,2,2.0,LOS GATOS,1144,1742400,1972,81,765,,Sold,,,http://www.redfin.com/CA/Los-Gatos/20741-Bear-Creek-Rd-95033/home/2398549,MLSListings,ML81656761,N,Y,37.17257,-122.037181
PAST SALE,,Single Family Residential,4838 Kinghurst Dr,San Jose,CA,95124,1339000,3,2.0,,1300,6386,1959,,1030,,,,,http://www.redfin.com/CA/San-Jose/4838-Kinghurst-Dr-95124/home/1417221,,,N,Y,37.2493954,-121.9482689
PAST SALE,November-8-2017,Single Family Residential,18086 Reed Knoll Rd,LOS GATOS,CA,95033,1238000,3,2.0,LOS GATOS,2489,38071,1993,83,497,220,Sold,,,http://www.redfin.com/CA/Los-Gatos/18086-Reed-Knoll-Rd-95033/home/2394857,MLSListings,ML81678025,N,Y,37.2118759,-122.067607
PAST SALE,,Single Family Residential,5228 Union Ave,San Jose,CA,95124,1367000,4,2.0,,1742,3484,2000,,785,,,,,http://www.redfin.com/CA/San-Jose/5228-Union-Ave-95124/home/1721275,,,N,Y,37.2427628,-121.9309184
PAST SALE,October-19-2017,Townhouse,179 Escobar Ave,LOS GATOS,CA,95032,1038000,3,2.0,LOS GATOS,1218,2666,1972,103,852,365,Sold,,,http://www.redfin.com/CA/Los-Gatos/179-Escobar-Ave-95032/home/1553052,MLSListings,ML81675222,N,Y,37.2407827,-121.9438294
PAST SALE,November-13-2017,Condo/Co-op,95 Church St #2208,LOS GATOS,CA,95030,1228000,2,2.0,LOS GATOS,1545,2100,1981,78,795,750,Sold,,,http://www.redfin.com/CA/Los-Gatos/95-Church-St-95030/unit-2208/home/1016974,MLSListings,ML81682943,N,Y,37.2223445,-121.9792825
PAST SALE,,Single Family Residential,386 School Ct,Los Gatos,CA,95032,447000,3,2.0,,2026,2688,2017,,221,,,,,http://www.redfin.com/CA/Los-Gatos/386-School-Ct-95032/home/143042122,,,N,Y,37.2621148,-121.9650649
PAST SALE,August-22-2017,Single Family Residential,1707 Zinnia Ln,SAN JOSE,CA,95124,1212000,4,2.0,SAN JOSE,1364,7020,1960,161,889,,Sold,,,http://www.redfin.com/CA/San-Jose/1707-Zinnia-Ln-95124/home/851151,MLSListings,ML81669710,N,Y,37.2321836,-121.9096663
PAST SALE,November-1-2017,Condo/Co-op,71 Roberts Rd #5,LOS GATOS,CA,95032,811000,2,2.0,LOS GATOS,1154,,1985,90,703,460,Sold,,,http://www.redfin.com/CA/Los-Gatos/71-Roberts-Rd-95032/unit-5/home/1712478,MLSListings,ML81674976,N,Y,37.2329719,-121.976665
PAST SALE,September-15-2017,Single Family Residential,26751 Adams Rd,LOS GATOS,CA,95033,995000,3,2.0,LOS GATOS,1428,106591,1976,137,697,,Sold,,,http://www.redfin.com/CA/Los-Gatos/26751-Adams-Rd-95033/home/2406994,MLSListings,ML81654715,N,Y,37.103966,-121.906948
PAST SALE,,Single Family Residential,496 Bird Ave,Los Gatos,CA,95032,1650000,2,2.0,,1102,3800,1951,,1497,,,,,http://www.redfin.com/CA/Los-Gatos/496-Bird-Ave-95032/home/1086714,,,N,Y,37.2292651,-121.9768154
PAST SALE,,Single Family Residential,17571 Wedgewood Ave,Los Gatos,CA,95032,1680000,3,2.0,,1880,10100,1947,,894,,,,,http://www.redfin.com/CA/Los-Gatos/17571-Wedgewood-Ave-95032/home/1119801,,,N,Y,37.2606548,-121.9771437
PAST SALE,,Single Family Residential,17650 Kilkenny Rd,Los Gatos,CA,95030,1180000,3,2.0,,1842,47659,1939,,641,,,,,http://www.redfin.com/CA/Los-Gatos/17650-Kilkenny-Rd-95030/home/1700208,,,N,Y,37.2138171,-121.9697778
PAST SALE,October-10-2017,Single Family Residential,16580 Topping Way,LOS GATOS,CA,95032,2180000,4,2.0,LOS GATOS,2233,10275,1949,112,976,,Sold,,,http://www.redfin.com/CA/Los-Gatos/16580-Topping-Way-95032/home/1503420,MLSListings,ML81677015,N,Y,37.2282706,-121.9599201
PAST SALE,October-24-2017,Single Family Residential,20117 Beatty Ridge Rd,LOS GATOS,CA,95033,1030000,3,2.0,LOS GATOS,2072,42689,1978,98,497,240,Sold,,,http://www.redfin.com/CA/Los-Gatos/20117-Beatty-Ridge-Rd-95033/home/2395091,MLSListings,ML81682703,N,Y,37.202424,-122.071827
PAST SALE,August-10-2017,Single Family Residential,18525 Vina Dr,LOS GATOS,CA,95033,570000,3,2.0,LOS GATOS,954,10557,1932,173,597,,Sold,,,http://www.redfin.com/CA/Los-Gatos/18525-Vina-Dr-95033/home/1780864,MLSListings,ML81652982,N,Y,37.2001407,-121.9949795
PAST SALE,January-16-2018,Condo/Co-op,215 Altura Vis,LOS GATOS,CA,95032,1150000,2,2.0,LOS GATOS,1440,2401,1977,14,799,790,Sold,,,http://www.redfin.com/CA/Los-Gatos/215-Altura-Vis-95032/home/1472761,MLSListings,ML81689183,N,Y,37.2562349,-121.988136
PAST SALE,August-14-2017,Single Family Residential,5319 Leigh Ave,SAN JOSE,CA,95124,1300000,3,2.0,SAN JOSE,1740,6820,1958,169,747,,Sold,,,http://www.redfin.com/CA/San-Jose/5319-Leigh-Ave-95124/home/1639109,MLSListings,ML81667802,N,Y,37.2416077,-121.9229933
PAST SALE,,Single Family Residential,496 Wraight Ave,Los Gatos,CA,95032,1725000,2,2.0,,1637,5500,1938,,1054,,,,,http://www.redfin.com/CA/Los-Gatos/496-Wraight-Ave-95032/home/913328,,,N,Y,37.2296215,-121.9775471
PAST SALE,December-14-2017,Single Family Residential,1693 Canna Ln,SAN JOSE,CA,95124,1585000,4,2.0,SAN JOSE,1364,6039,1962,47,1162,,Sold,,,http://www.redfin.com/CA/San-Jose/1693-Canna-Ln-95124/home/1247564,MLSListings,ML81684764,N,Y,37.231502,-121.9090507
PAST SALE,August-15-2017,Single Family Residential,5604 Begonia Dr,SAN JOSE,CA,95124,950000,3,2.0,SAN JOSE,1253,6500,1961,168,758,,Sold,,,http://www.redfin.com/CA/San-Jose/5604-Begonia-Dr-95124/home/890383,MLSListings,ML81652574,N,Y,37.2360691,-121.9105208
PAST SALE,September-15-2017,Mobile/Manufactured Home,14685 Oka Rd #10,LOS GATOS,CA,95032,250000,2,2.0,LOS GATOS,880,,2013,137,284,,Sold,,,http://www.redfin.com/CA/Los-Gatos/14685-Oka-Rd-95032/unit-10/home/143797437,MLSListings,ML81668618,N,Y,37.255659,-121.960259
PAST SALE,September-12-2017,Condo/Co-op,14225 Lora Dr #64,LOS GATOS,CA,95032,555000,2,2.0,LOS GATOS,1050,2242,1963,140,529,398,Sold,,,http://www.redfin.com/CA/Los-Gatos/14225-Lora-Dr-95032/unit-64/home/984451,MLSListings,ML81672792,N,Y,37.262377,-121.976824
PAST SALE,September-25-2017,Single Family Residential,17645 Via Sereno,MONTE SERENO,CA,95030,2140000,4,2.0,MONTE SERENO,1932,8000,1971,127,1108,,Sold,,,http://www.redfin.com/CA/Monte-Sereno/17645-Via-Sereno-95030/home/824026,MLSListings,ML81679285,N,Y,37.2392476,-121.9788428
PAST SALE,January-9-2018,Single Family Residential,5505 Copeland Ct,SAN JOSE,CA,95124,1621000,3,2.0,SAN JOSE,1612,6084,1968,21,1006,,Sold,,,http://www.redfin.com/CA/San-Jose/5505-Copeland-Ct-95124/home/912942,MLSListings,ML81686246,N,Y,37.237492,-121.9193959
PAST SALE,,Single Family Residential,234 Harding Ave,Los Gatos,CA,95030,1600000,3,2.0,,1858,13068,2002,,861,,,,,http://www.redfin.com/CA/Los-Gatos/234-Harding-Ave-95030/home/572990,,,N,Y,37.2247183,-121.9662446
PAST SALE,September-15-2017,Single Family Residential,29 Mariposa Ave,LOS GATOS,CA,95030,1825000,3,2.0,LOS GATOS,1501,8154,1948,137,1216,,Sold,,,http://www.redfin.com/CA/Los-Gatos/29-Mariposa-Ave-95030/home/824084,MLSListings,ML81673481,N,Y,37.2360193,-121.9794167
PAST SALE,August-31-2017,Single Family Residential,18293 Bayview Dr,LOS GATOS,CA,95033,1110000,3,2.0,LOS GATOS,1779,19950,1959,152,624,89,Sold,,,http://www.redfin.com/CA/Los-Gatos/18293-Bayview-Dr-95033/home/1478358,MLSListings,ML81670314,N,Y,37.152516,-121.995836
PAST SALE,August-8-2017,Single Family Residential,20073 Beatty Ridge Rd,LOS GATOS,CA,95033,965000,3,2.0,LOS GATOS,2128,59982,1979,175,453,232,Sold,,,http://www.redfin.com/CA/Los-Gatos/20073-Beatty-Ridge-Rd-95033/home/2395075,MLSListings,ML81668550,N,Y,37.202717,-122.070063
PAST SALE,November-9-2017,Single Family Residential,181 Ivy Hill Way,LOS GATOS,CA,95032,1395000,3,2.0,LOS GATOS,1488,7440,1957,82,938,,Sold,,,http://www.redfin.com/CA/Los-Gatos/181-Ivy-Hill-Way-95032/home/1357504,MLSListings,ML81675024,N,Y,37.2472785,-121.9614141
PAST SALE,December-4-2017,Single Family Residential,5102 Redstone Dr,SAN JOSE,CA,95124,1400000,3,2.0,SAN JOSE,1576,10050,1960,57,888,,Sold,,,http://www.redfin.com/CA/San-Jose/5102-Redstone-Dr-95124/home/1037086,MLSListings,ML81682345,N,Y,37.2453028,-121.9451727
PAST SALE,November-14-2017,Single Family Residential,5125 Kozo Ct,SAN JOSE,CA,95124,1206000,3,2.0,SAN JOSE,1422,3649,1978,77,848,220,Sold,,,http://www.redfin.com/CA/San-Jose/5125-Kozo-Ct-95124/home/1478393,MLSListings,ML81682750,N,Y,37.2444293,-121.9275597
PAST SALE,,Single Family Residential,14410 Blossom Hill Rd,Los Gatos,CA,95032,1000500,4,2.0,,1960,9877,1965,,510,,,,,http://www.redfin.com/CA/Los-Gatos/14410-Blossom-Hill-Rd-95032/home/1317353,,,N,Y,37.235934,-121.918697
PAST SALE,October-10-2017,Single Family Residential,1924 Adelaide Way,SAN JOSE,CA,95124,1240000,3,2.0,SAN JOSE,1740,6400,1959,112,713,,Sold,,,http://www.redfin.com/CA/San-Jose/1924-Adelaide-Way-95124/home/1637176,MLSListings,ML81676282,N,Y,37.2440115,-121.9253775
PAST SALE,October-20-2017,Single Family Residential,223 Westchester Dr,LOS GATOS,CA,95032,1780000,4,2.0,LOS GATOS,2088,8667,1968,102,852,,Sold,,,http://www.redfin.com/CA/Los-Gatos/223-Westchester-Dr-95032/home/1454633,MLSListings,ML81677525,N,Y,37.2422579,-121.9409572
PAST SALE,October-11-2017,Single Family Residential,414 Hershner Way,LOS GATOS,CA,95032,1492000,4,2.0,LOS GATOS,1622,9700,1965,111,920,,Sold,,,http://www.redfin.com/CA/Los-Gatos/414-Hershner-Way-95032/home/1329988,MLSListings,ML81678916,N,Y,37.2421766,-121.9249464
PAST SALE,,Townhouse,191 Escobar Ave,Los Gatos,CA,95032,1050000,3,2.0,,1218,2666,1972,,862,,,,,http://www.redfin.com/CA/Los-Gatos/191-Escobar-Ave-95032/home/1363031,,,N,Y,37.240584,-121.943889
PAST SALE,October-31-2017,Single Family Residential,1875 Blossom Hill Rd,SAN JOSE,CA,95124,1360000,3,2.0,SAN JOSE,2104,10500,1965,91,646,,Sold,,,http://www.redfin.com/CA/San-Jose/1875-Blossom-Hill-Rd-95124/home/1767266,MLSListings,ML81675513,N,Y,37.236476,-121.923213
PAST SALE,November-22-2017,Single Family Residential,15760 El Gato Ln,LOS GATOS,CA,95032,1535000,2,2.0,LOS GATOS,1100,8478,1954,69,1395,,Sold,,,http://www.redfin.com/CA/Los-Gatos/15760-El-Gato-Ln-95032/home/1359720,MLSListings,ML81682548,N,Y,37.239628,-121.9474108
PAST SALE,September-20-2017,Single Family Residential,127 Briarwood Way,LOS GATOS,CA,95032,1625000,3,2.0,LOS GATOS,1612,8448,1965,132,1008,35,Sold,,,http://www.redfin.com/CA/Los-Gatos/127-Briarwood-Way-95032/home/1569372,MLSListings,ML81676482,N,Y,37.2384881,-121.9293593
PAST SALE,September-15-2017,Townhouse,137 Escobar Ave,LOS GATOS,CA,95032,1040000,3,2.0,LOS GATOS,1494,1400,1972,137,696,365,Sold,,,http://www.redfin.com/CA/Los-Gatos/137-Escobar-Ave-95032/home/910393,MLSListings,ML81674098,N,Y,37.242183,-121.942751
PAST SALE,January-9-2018,Single Family Residential,25495 Firhaven Ln,LOS GATOS,CA,95033,890000,4,2.0,LOS GATOS,1427,57761,1963,21,624,,Sold,,,http://www.redfin.com/CA/Los-Gatos/25495-Firhaven-Ln-95033/home/2407254,MLSListings,ML81651415,N,Y,37.101894,-121.901427
PAST SALE,January-5-2018,Mobile/Manufactured Home,14685 Oka Rd #44,LOS GATOS,CA,95032,248000,2,2.0,LOS GATOS,875,,2014,25,283,,Sold,,,http://www.redfin.com/CA/Los-Gatos/14685-Oka-Rd-95032/unit-44/home/69369969,MLSListings,ML81686334,N,Y,37.255659,-121.960259
PAST SALE,August-11-2017,Single Family Residential,26000 Pierce Rd,LOS GATOS,CA,95033,810000,3,2.0,LOS GATOS,1747,179075,1978,172,464,,Sold,,,http://www.redfin.com/CA/Los-Gatos/26000-Pierce-Rd-95033/home/2401418,MLSListings,ML81651927,N,Y,37.124906,-121.991813
PAST SALE,October-17-2017,Single Family Residential,118 Lansberry Ct,LOS GATOS,CA,95032,2165000,4,2.0,LOS GATOS,2176,8000,1970,105,995,,Sold,,,http://www.redfin.com/CA/Los-Gatos/118-Lansberry-Ct-95032/home/1544225,MLSListings,ML81676529,N,Y,37.2320067,-121.9521384
PAST SALE,December-19-2017,Single Family Residential,23596 Sky Vw,LOS GATOS,CA,95033,892366,3,2.5,LOS GATOS,1956,48090,1974,42,456,,Sold,,,http://www.redfin.com/CA/Los-Gatos/23596-Skyview-Ter-95033/home/2404945,MLSListings,ML81647259,N,Y,37.1223272,-121.9566527
PAST SALE,August-10-2017,Single Family Residential,18291 Bayview Dr,LOS GATOS,CA,95033,950000,3,2.5,LOS GATOS,2200,14382,1968,173,432,,Sold,,,http://www.redfin.com/CA/Los-Gatos/18291-Bayview-Dr-95033/home/916201,MLSListings,ML81652321,N,Y,37.1525,-121.99541
PAST SALE,August-21-2017,Single Family Residential,190 Bersano Ln,LOS GATOS,CA,95030,2632500,3,2.5,LOS GATOS,2196,5995,2007,162,1199,227,Sold,,,http://www.redfin.com/CA/Los-Gatos/190-Bersano-Ln-95030/home/23041279,MLSListings,ML81667464,N,Y,37.2452656,-121.9708495
PAST SALE,August-22-2017,Single Family Residential,360 Bachman Ave,LOS GATOS,CA,95030,2600000,3,2.5,LOS GATOS,2259,4828,1987,161,1151,167,Sold,,,http://www.redfin.com/CA/Los-Gatos/360-Bachman-Ave-95030/home/572712,MLSListings,ML81671746,N,Y,37.2297263,-121.98557
PAST SALE,August-17-2017,Single Family Residential,115 Vallecitos Way,LOS GATOS,CA,95032,2320000,4,2.5,LOS GATOS,2313,17754,1963,166,1003,,Sold,,,http://www.redfin.com/CA/Los-Gatos/115-Vallecitos-Way-95032/home/1214966,MLSListings,ML81670196,N,Y,37.2512083,-121.9926304
PAST SALE,August-25-2017,Single Family Residential,112 Granada Way,LOS GATOS,CA,95032,2150000,4,2.5,LOS GATOS,2613,14880,1976,158,823,,Sold,,,http://www.redfin.com/CA/Los-Gatos/112-Granada-Way-95032/home/1076479,MLSListings,ML81670326,N,Y,37.2595175,-121.9811706
PAST SALE,August-28-2017,Townhouse,100 Rio Vis,LOS GATOS,CA,95032,1175000,3,2.5,LOS GATOS,2319,1917,1984,155,507,740,Sold,,,http://www.redfin.com/CA/Los-Gatos/100-Rio-Vis-95032/home/1472755,MLSListings,ML81670350,N,Y,37.26208,-121.990847
PAST SALE,August-16-2017,Single Family Residential,15221 Old Ranch Rd,LOS GATOS,CA,95033,920000,4,2.5,LOS GATOS,2246,184564,1981,167,410,,Sold,,,http://www.redfin.com/CA/Los-Gatos/15221-Old-Ranch-Rd-95033/home/2405368,MLSListings,ML81654245,N,Y,37.142353,-121.997318
PAST SALE,August-24-2017,Single Family Residential,399 School Ct,LOS GATOS,CA,95032,1600069,3,2.5,LOS GATOS,2101,2772,2017,159,762,180,Sold,,,http://www.redfin.com/CA/Los-Gatos/399-School-Ct-95032/home/113618354,MLSListings,ML81644792,N,Y,37.2621148,-121.9650649
PAST SALE,September-8-2017,Townhouse,14587 S Bascom Ave,LOS GATOS,CA,95032,815000,2,2.5,LOS GATOS,1334,529,1980,144,611,412,Sold,,,http://www.redfin.com/CA/Los-Gatos/14587-S-Bascom-Ave-95032/home/1596087,MLSListings,ML81669602,N,Y,37.256526,-121.950054
PAST SALE,October-13-2017,Single Family Residential,205 Belgatos Rd,LOS GATOS,CA,95032,1671000,4,2.5,LOS GATOS,2087,10000,1965,109,801,,Sold,,,http://www.redfin.com/CA/Los-Gatos/205-Belgatos-Rd-95032/home/1729841,MLSListings,ML81676534,N,Y,37.2341397,-121.919857
PAST SALE,November-14-2017,Single Family Residential,26183 Loma Prieta Way,LOS GATOS,CA,95033,1565000,4,2.5,LOS GATOS,2468,230476,1992,77,634,,Sold,,,http://www.redfin.com/CA/Los-Gatos/26183-Loma-Prieta-Way-95033/home/2407751,MLSListings,ML81678088,N,Y,37.1051069,-121.892537
PAST SALE,January-4-2018,Single Family Residential,14560 Blossom Hill Rd,LOS GATOS,CA,95032,1625000,4,2.5,LOS GATOS,2135,11415,1964,26,761,,Sold,,,http://www.redfin.com/CA/Los-Gatos/14560-Blossom-Hill-Rd-95032/home/1060202,MLSListings,ML81685982,N,Y,37.235881,-121.923134
PAST SALE,August-11-2017,Single Family Residential,108 Towne Ter,LOS GATOS,CA,95032,1785000,3,2.5,LOS GATOS,1657,3192,2012,172,1077,,Sold,,,http://www.redfin.com/CA/Los-Gatos/108-Towne-Ter-95032/home/40402181,MLSListings,ML81669748,N,Y,37.2305974,-121.9779758
PAST SALE,November-29-2017,Single Family Residential,16901 Sheldon Rd,LOS GATOS,CA,95030,1550000,2,2.5,LOS GATOS,1059,15840,1993,62,1464,,Sold,,,http://www.redfin.com/CA/Los-Gatos/16901-Sheldon-Rd-95030/home/1373610,MLSListings,ML81680809,N,Y,37.2231995,-122.0007626
PAST SALE,December-6-2017,Townhouse,356 Bean Ave,LOS GATOS,CA,95030,1875000,3,2.5,LOS GATOS,2283,1917,1985,55,821,925,Sold,,,http://www.redfin.com/CA/Los-Gatos/356-Bean-Ave-95030/home/907772,MLSListings,ML81683195,N,Y,37.2267579,-121.986922
PAST SALE,December-12-2017,Single Family Residential,105 Via Santa Maria,LOS GATOS,CA,95030,1850000,4,2.5,LOS GATOS,2160,12309,1965,49,856,,Sold,,,http://www.redfin.com/CA/Los-Gatos/105-Via-Santa-Maria-95030/home/1238525,MLSListings,ML81686913,N,Y,37.224574,-121.9598412
PAST SALE,,Single Family Residential,18298 Montevina Rd,Los Gatos,CA,95033,238000,3,2.0,,2200,6694,1951,,108,,,,,http://www.redfin.com/CA/Los-Gatos/18298-Montevina-Rd-95033/home/1490385,,,N,Y,37.1977682,-121.9951416
PAST SALE,November-13-2017,Condo/Co-op,420 Alberto Way #8,LOS GATOS,CA,95032,770000,2,2.5,LOS GATOS,1120,1120,1970,78,688,468,Sold,,,http://www.redfin.com/CA/Los-Gatos/420-Alberto-Way-95032/unit-8/home/914121,MLSListings,ML81679597,N,Y,37.2272959,-121.9718705
PAST SALE,November-13-2017,Single Family Residential,18800 Blythswood Dr,LOS GATOS,CA,95030,2425000,5,2.5,LOS GATOS,2829,70854,1931,78,857,,Sold,,,http://www.redfin.com/CA/Los-Gatos/18800-Blythswood-Dr-95030/home/1039023,MLSListings,ML81679090,N,Y,37.2394183,-121.9997435
PAST SALE,January-8-2018,Townhouse,18400 Overlook Rd #65,LOS GATOS,CA,95030,1335000,3,2.5,LOS GATOS,1916,1624,1967,22,697,682,Sold,,,http://www.redfin.com/CA/Los-Gatos/18400-Overlook-Rd-95030/unit-65/home/1168497,MLSListings,ML81688285,N,Y,37.2264399,-121.9949
PAST SALE,December-29-2017,Townhouse,435 Alberto Way #11,LOS GATOS,CA,95032,1050000,3,2.5,LOS GATOS,1448,672,1979,32,725,497,Sold,,,http://www.redfin.com/CA/Los-Gatos/435-Alberto-Way-95032/unit-11/home/1519596,MLSListings,ML81683252,N,Y,37.227695,-121.973285
PAST SALE,January-23-2018,Townhouse,16979 Roberts Rd #1,LOS GATOS,CA,95032,1475000,3,2.5,LOS GATOS,2074,4791,1981,7,711,596,Sold,,,http://www.redfin.com/CA/Los-Gatos/16979-Roberts-Rd-95032/unit-1/home/890198,MLSListings,ML81669688,N,Y,37.2351536,-121.967234
PAST SALE,January-19-2018,Single Family Residential,5495 Copeland Ct,SAN JOSE,CA,95124,1680000,4,2.5,SAN JOSE,2441,8000,1968,11,688,,Sold,,,http://www.redfin.com/CA/San-Jose/5495-Copeland-Ct-95124/home/913526,MLSListings,ML81686631,N,Y,37.2379817,-121.919624
PAST SALE,December-4-2017,Single Family Residential,17190 Laurel Rd,LOS GATOS,CA,95033,806000,3,2.5,LOS GATOS,1800,88078,2004,57,448,,Sold,,,http://www.redfin.com/CA/Los-Gatos/17190-Laurel-Rd-95033/home/2403148,MLSListings,ML81682477,N,Y,37.11094,-121.972471
PAST SALE,,Other,23900 Hutchinson Rd,Los Gatos,CA,95033,500000,3,2.0,,1616,134165,1978,,309,,,,,http://www.redfin.com/CA/Los-Gatos/23900-Hutchinson-Rd-95033/home/2401741,,,N,Y,37.125556,-122.005346
PAST SALE,,Other,17265 Debbie Rd,Los Gatos,CA,95033,885000,4,2.5,,2275,167662,1980,,389,,,,,http://www.redfin.com/CA/Los-Gatos/17265-Debbie-Rd-95033/home/2401463,,,N,Y,37.1297762,-122.0077077
PAST SALE,August-8-2017,Townhouse,124 Charter Oaks Cir,LOS GATOS,CA,95032,1150000,3,2.5,LOS GATOS,1691,2016,1973,175,680,453,Sold,,,http://www.redfin.com/CA/Los-Gatos/124-Charter-Oaks-Cir-95032/home/1816670,MLSListings,ML81668253,N,Y,37.253985,-121.964689
PAST SALE,August-24-2017,Townhouse,120 Cherry Wood Ct,LOS GATOS,CA,95032,1070000,4,2.5,LOS GATOS,1454,1680,1972,159,736,358,Sold,,,http://www.redfin.com/CA/Los-Gatos/120-Cherry-Wood-Ct-95032/home/820675,MLSListings,ML81671140,N,Y,37.2632347,-121.9742294
PAST SALE,,Townhouse,15400 Winchester Blvd Apt 17,Los Gatos,CA,95030,1200000,3,2.0,,1800,5971,1972,,667,,,,,http://www.redfin.com/CA/Los-Gatos/15400-Winchester-Blvd-95030/unit-17/home/838031,,,N,Y,37.243912,-121.973144
PAST SALE,October-2-2017,Single Family Residential,1239 Bracebridge Ct,CAMPBELL,CA,95008,1300000,3,2.5,CAMPBELL,2036,3500,1979,120,639,,Sold,,,http://www.redfin.com/CA/Campbell/1239-Bracebridge-Ct-95008/home/819451,MLSListings,ML81673269,N,Y,37.2653723,-121.9723658
PAST SALE,September-29-2017,Single Family Residential,15581 Flintridge Dr,LOS GATOS,CA,95032,1600000,3,2.5,LOS GATOS,2106,8880,1955,123,760,,Sold,,,http://www.redfin.com/CA/Los-Gatos/15581-Flintridge-Dr-95032/home/1385131,MLSListings,ML81670303,N,Y,37.2423492,-121.9647595
PAST SALE,October-25-2017,Townhouse,205 Casitas Bulevar,LOS GATOS,CA,95032,1525000,4,2.5,LOS GATOS,2212,2400,1969,97,689,739,Sold,,,http://www.redfin.com/CA/Los-Gatos/205-Casitas-Bulevar-95032/home/1765536,MLSListings,ML81676915,N,Y,37.262269,-121.986426
PAST SALE,October-30-2017,Townhouse,123 El Pinar,LOS GATOS,CA,95032,1365000,3,2.5,LOS GATOS,2220,2700,1974,92,615,732,Sold,,,http://www.redfin.com/CA/Los-Gatos/123-El-Pinar-95032/home/822304,MLSListings,ML81667687,N,Y,37.260802,-121.988635
PAST SALE,November-9-2017,Townhouse,15400 Winchester Blvd #57,LOS GATOS,CA,95030,1330000,3,2.5,LOS GATOS,1800,5971,1972,82,739,475,Sold,,,http://www.redfin.com/CA/Los-Gatos/15400-Winchester-Blvd-95030/unit-57/home/1152143,MLSListings,ML81681038,N,Y,37.243912,-121.973144
PAST SALE,November-21-2017,Townhouse,231 Casitas Bulevar,LOS GATOS,CA,95032,1149000,3,2.5,LOS GATOS,1639,2100,1969,70,701,747,Sold,,,http://www.redfin.com/CA/Los-Gatos/231-Casitas-Bulevar-95032/home/822328,MLSListings,ML81678138,N,Y,37.261818,-121.986295
PAST SALE,November-28-2017,Townhouse,105 EL ALTILLO,LOS GATOS,CA,95032,1365000,3,2.5,LOS GATOS,2318,2400,1969,63,589,739,Sold,,,http://www.redfin.com/CA/Los-Gatos/105-El-Altillo-95032/home/1582283,MLSListings,ML81679799,N,Y,37.259713,-121.986522
PAST SALE,December-1-2017,Single Family Residential,231 Plaza La Posada,LOS GATOS,CA,95032,2000000,4,2.5,LOS GATOS,2133,10400,1972,60,938,,Sold,,,http://www.redfin.com/CA/Los-Gatos/231-Plaza-La-Posada-95032/home/693483,MLSListings,ML81677243,N,Y,37.2537475,-121.9922773
PAST SALE,December-4-2017,Single Family Residential,369 Market St,LOS GATOS,CA,95032,1685000,3,2.5,LOS GATOS,2026,3386,2017,57,832,176,Sold,,,http://www.redfin.com/CA/Los-Gatos/369-Market-St-95032/home/143042119,MLSListings,ML81681807,N,Y,37.2623657,-121.9647398
PAST SALE,December-15-2017,Single Family Residential,105 Hepplewhite Ct,LOS GATOS,CA,95032,2360000,4,2.5,LOS GATOS,2898,12975,1975,46,814,21,Sold,,,http://www.redfin.com/CA/Los-Gatos/105-Hepplewhite-Ct-95032/home/819961,MLSListings,ML81681031,N,Y,37.2535786,-121.9858297
PAST SALE,December-18-2017,Single Family Residential,219 Casitas Bulevar,LOS GATOS,CA,95032,1550000,3,2.5,LOS GATOS,2175,2312,1969,43,713,,Sold,,,http://www.redfin.com/CA/Los-Gatos/219-Casitas-Bulevar-95032/home/830792,MLSListings,ML81687329,N,Y,37.262046,-121.986374
PAST SALE,November-14-2017,Single Family Residential,364 Market St,LOS GATOS,CA,95032,1780721,3,2.5,LOS GATOS,2224,3059,2017,77,801,180,Sold,,,http://www.redfin.com/CA/Los-Gatos/364-Market-St-95032/home/113618845,MLSListings,ML81644824,N,Y,37.2623258,-121.964536
PAST SALE,,Townhouse,101 Puesta Del Sol,Los Gatos,CA,95032,1625000,3,2.5,,2160,2700,1974,,752,,,,,http://www.redfin.com/CA/Los-Gatos/101-Puesta-Del-Sol-95032/home/552475,,,N,Y,37.2587081,-121.9865247
PAST SALE,,Townhouse,159 Altura Vis,Los Gatos,CA,95032,1450000,3,2.0,,2230,1512,1977,,650,,,,,http://www.redfin.com/CA/Los-Gatos/159-Altura-Vis-95032/home/1141936,,,N,Y,37.2582669,-121.990477
PAST SALE,September-15-2017,Single Family Residential,130 Westhill Dr,LOS GATOS,CA,95032,1886000,3,2.5,LOS GATOS,2057,10375,1964,137,917,,Sold,,,http://www.redfin.com/CA/Los-Gatos/130-Westhill-Dr-95032/home/717123,MLSListings,ML81670667,N,Y,37.2340205,-121.9242674
PAST SALE,September-14-2017,Townhouse,660 W Parr Ave,CAMPBELL,CA,95008,1028800,3,2.5,CAMPBELL,1813,1984,1989,138,567,120,Sold,,,http://www.redfin.com/CA/Campbell/660-W-Parr-Ave-95008/home/785406,MLSListings,ML81672349,N,Y,37.2639325,-121.9618635
PAST SALE,August-11-2017,Single Family Residential,16265 Greenridge Ter,LOS GATOS,CA,95032,2250000,3,2.5,LOS GATOS,2362,78426,1953,172,953,,Sold,,,http://www.redfin.com/CA/Los-Gatos/16265-Greenridge-Ter-95032/home/1780820,MLSListings,ML81652855,N,Y,37.2344767,-121.9352603
PAST SALE,September-26-2017,Single Family Residential,15963 Cherry Blossom Ln,LOS GATOS,CA,95032,2687000,4,2.5,LOS GATOS,3000,11790,1951,126,896,,Sold,,,http://www.redfin.com/CA/Los-Gatos/15963-Cherry-Blossom-Ln-95032/home/909635,MLSListings,ML81672998,N,Y,37.2366466,-121.9577163
PAST SALE,,Single Family Residential,967 Cherrystone Dr,Los Gatos,CA,95032,2140000,4,2.0,,2018,8000,1971,,1060,,,,,http://www.redfin.com/CA/Los-Gatos/967-Cherrystone-Dr-95032/home/717092,,,N,Y,37.2360524,-121.953544
PAST SALE,August-9-2017,Single Family Residential,21670 Oak Flat Rd,LOS GATOS,CA,95033,720000,3,2.5,LOS GATOS,1908,111601,1986,174,377,,Sold,,,http://www.redfin.com/CA/Los-Gatos/21670-Oak-Flat-Rd-95033/home/2401542,MLSListings,ML81647253,N,Y,37.1337764,-122.0015943
PAST SALE,October-4-2017,Single Family Residential,26145 Pierce Rd,LOS GATOS,CA,95033,890000,3,2.5,LOS GATOS,1581,40859,1978,118,563,,Sold,,,http://www.redfin.com/CA/Los-Gatos/26145-Pierce-Rd-95033/home/2401318,MLSListings,ML81674532,N,Y,37.125806,-121.991069
PAST SALE,December-28-2017,Single Family Residential,22120 Oak Flat Rd,LOS GATOS,CA,95033,885000,3,2.5,LOS GATOS,1968,126455,1986,33,450,,Sold,,,http://www.redfin.com/CA/Los-Gatos/22120-Oak-Flat-Rd-95033/home/2401551,MLSListings,ML81680731,N,Y,37.131618,-122.001443
PAST SALE,December-5-2017,Single Family Residential,265 Burrell Ct,LOS GATOS,CA,95033,1269500,5,2.5,LOS GATOS,2082,174850,1978,56,610,,Sold,,,http://www.redfin.com/CA/Los-Gatos/265-Burrell-Ct-95033/home/2406618,MLSListings,ML81680310,N,Y,37.110398,-121.918483
PAST SALE,August-25-2017,Single Family Residential,14731 Golf Links Dr,LOS GATOS,CA,95032,2275000,3,2.5,LOS GATOS,2091,19125,1956,158,1088,,Sold,,,http://www.redfin.com/CA/Los-Gatos/14731-Golf-Links-Dr-95032/home/1299131,MLSListings,ML81671352,N,Y,37.2546159,-121.9709954
PAST SALE,October-18-2017,Single Family Residential,212 Beethoven Ln,LOS GATOS,CA,95032,1555000,4,2.5,LOS GATOS,2116,3767,2006,104,735,80,Sold,,,http://www.redfin.com/CA/Los-Gatos/212-Beethoven-Ln-95032/home/2124204,MLSListings,ML81674856,N,Y,37.2574882,-121.9533243
PAST SALE,October-20-2017,Single Family Residential,375 Knowles Dr Lot 33,LOS GATOS,CA,95032,1753698,4,2.5,LOS GATOS,2224,3321,2017,102,789,180,Sold,,,http://www.redfin.com/CA/Los-Gatos/375-Knowles-Dr-95032/unit-33/home/143316760,MLSListings,ML81670782,N,Y,37.262272,-121.964153
PAST SALE,November-14-2017,Townhouse,105 Palmer Dr,LOS GATOS,CA,95032,1180000,3,2.5,LOS GATOS,1842,831,1984,77,641,555,Sold,,,http://www.redfin.com/CA/Los-Gatos/105-Palmer-Dr-95032/home/1452112,MLSListings,ML81680979,N,Y,37.2589254,-121.9684945
PAST SALE,December-1-2017,Townhouse,16131 Loretta Ln,LOS GATOS,CA,95032,910000,3,2.5,LOS GATOS,1318,529,1980,60,690,412,Sold,,,http://www.redfin.com/CA/Los-Gatos/16131-Loretta-Ln-95032/home/552968,MLSListings,ML81683615,N,Y,37.257611,-121.950201
PAST SALE,December-12-2017,Condo/Co-op,14577 S Bascom Ave,LOS GATOS,CA,95032,900000,3,2.5,LOS GATOS,1318,529,1980,49,683,412,Sold,,,http://www.redfin.com/CA/Los-Gatos/14577-S-Bascom-Ave-95032/home/1675267,MLSListings,ML81682134,N,Y,37.256718,-121.95008
PAST SALE,September-22-2017,Single Family Residential,209 Forrester Rd,LOS GATOS,CA,95032,3400000,4,2.5,LOS GATOS,3589,104979,1980,130,947,,Sold,,,http://www.redfin.com/CA/Los-Gatos/209-Forrester-Rd-95032/home/1145033,MLSListings,ML81645282,N,Y,37.2197764,-121.948268
PAST SALE,November-7-2017,Single Family Residential,15919 Longwood Dr,LOS GATOS,CA,95032,1990000,3,2.5,LOS GATOS,2061,9350,1956,84,966,,Sold,,,http://www.redfin.com/CA/Los-Gatos/15919-Longwood-Dr-95032/home/1359843,MLSListings,ML81680108,N,Y,37.2372087,-121.9516449
PAST SALE,November-14-2017,Single Family Residential,100 Terreno De Flores Cir,LOS GATOS,CA,95032,1500000,3,2.5,LOS GATOS,1919,5184,2003,77,782,187,Sold,,,http://www.redfin.com/CA/Los-Gatos/100-Terreno-De-Flores-Cir-95032/home/888521,MLSListings,ML81681116,N,Y,37.2511133,-121.9527192
PAST SALE,December-6-2017,Townhouse,16157 Loretta Ln,CAMPBELL,CA,95008,865000,3,2.5,CAMPBELL,1318,529,1980,55,656,412,Sold,,,http://www.redfin.com/CA/CAMPBELL/16157-LORETTA-LN-95008/home/956445,MLSListings,ML81680498,N,Y,37.257084,-121.950813
PAST SALE,August-31-2017,Townhouse,18400 Overlook Rd #33,LOS GATOS,CA,95030,1315000,3,2.5,LOS GATOS,1916,1508,1967,152,686,682,Sold,,,http://www.redfin.com/CA/Los-Gatos/18400-Overlook-Rd-95030/unit-33/home/987058,MLSListings,ML81671842,N,Y,37.2264399,-121.9949
PAST SALE,September-6-2017,Townhouse,18400 Overlook Rd #28,LOS GATOS,CA,95030,1335000,3,2.5,LOS GATOS,1916,1624,1967,146,697,682,Sold,,,http://www.redfin.com/CA/Los-Gatos/18400-Overlook-Rd-95030/unit-28/home/1818508,MLSListings,ML81644328,N,Y,37.2264399,-121.9949
PAST SALE,,Other,18704 Favre Ridge Rd,Los Gatos,CA,95033,1600000,3,2.5,,3536,46304,1988,,452,,,,,http://www.redfin.com/CA/Los-Gatos/18704-Favre-Ridge-Rd-95033/home/2395289,,,N,Y,37.193505,-122.062979
PAST SALE,October-17-2017,Single Family Residential,16508 Farvue Ln,LOS GATOS,CA,95030,1930000,2,2.5,LOS GATOS,2464,44100,1972,105,783,,Sold,,,http://www.redfin.com/CA/Los-Gatos/16508-Farvue-Ln-95030/home/908197,MLSListings,ML81672139,N,Y,37.2282007,-122.0021706
PAST SALE,October-23-2017,Single Family Residential,254 University Ave,LOS GATOS,CA,95030,2515000,3,2.5,LOS GATOS,1758,4360,1900,99,1431,,Sold,,,http://www.redfin.com/CA/Los-Gatos/254-University-Ave-95030/home/1544260,MLSListings,ML81679157,N,Y,37.2261724,-121.9802017
PAST SALE,January-4-2018,Townhouse,17574 Bruce Ave,LOS GATOS,CA,95030,1350000,3,2.5,LOS GATOS,1668,817,1978,26,809,440,Sold,,,http://www.redfin.com/CA/Los-Gatos/17574-Bruce-Ave-95030/home/1129332,MLSListings,ML81686272,N,Y,37.237025,-121.977627
PAST SALE,January-4-2018,Single Family Residential,18382 Knuth Rd,LOS GATOS,CA,95033,1286750,3,2.5,LOS GATOS,2375,37374,1988,26,542,240,Sold,,,http://www.redfin.com/CA/Los-Gatos/18382-Knuth-Rd-95033/home/2394870,MLSListings,ML81680461,N,Y,37.20862,-122.064701
PAST SALE,August-23-2017,Townhouse,107 Summerwood Dr,LOS GATOS,CA,95032,1150000,3,2.5,LOS GATOS,1520,1800,1971,160,757,358,Sold,,,http://www.redfin.com/CA/Los-Gatos/107-Summerwood-Dr-95032/home/1098210,MLSListings,ML81669707,N,Y,37.264785,-121.9751434
PAST SALE,August-29-2017,Townhouse,1778 Las Joyas Ct,LOS GATOS,CA,95032,1152000,3,2.5,LOS GATOS,1953,2040,1979,154,590,394,Sold,,,http://www.redfin.com/CA/Los-Gatos/1778-Las-Joyas-Ct-95032/home/996879,MLSListings,ML81671512,N,Y,37.265352,-121.984391
PAST SALE,August-31-2017,Townhouse,117 El Altillo,LOS GATOS,CA,95032,1358000,3,2.5,LOS GATOS,2156,2400,1969,152,630,739,Sold,,,http://www.redfin.com/CA/Los-Gatos/117-El-Altillo-95032/home/1416832,MLSListings,ML81655171,N,Y,37.25969,-121.986921
PAST SALE,,Townhouse,119 Cherry Wood Ct,Los Gatos,CA,95032,950000,3,2.0,,1533,1680,1972,,620,,,,,http://www.redfin.com/CA/Los-Gatos/119-Cherry-Wood-Ct-95032/home/1472769,,,N,Y,37.263592,-121.974042
PAST SALE,September-25-2017,Townhouse,115 Vista Del Lago,LOS GATOS,CA,95032,1250000,3,2.5,LOS GATOS,1848,924,1975,127,676,530,Sold,,,http://www.redfin.com/CA/Los-Gatos/115-Vista-Del-Lago-95032/home/1831106,MLSListings,ML81676421,N,Y,37.259388,-121.988336
PAST SALE,November-1-2017,Single Family Residential,119 Millrich Dr,LOS GATOS,CA,95030,2210000,4,2.5,LOS GATOS,2074,8610,1976,90,1066,,Sold,,,http://www.redfin.com/CA/Los-Gatos/119-Millrich-Dr-95030/home/1201596,MLSListings,ML81679283,N,Y,37.246857,-121.974243
PAST SALE,November-3-2017,Single Family Residential,115 Old Adobe Rd,LOS GATOS,CA,95032,1840000,4,2.5,LOS GATOS,2331,21000,1960,88,789,,Sold,,,http://www.redfin.com/CA/Los-Gatos/115-Old-Adobe-Rd-95032/home/946402,MLSListings,ML81669723,N,Y,37.258079,-121.9919492
PAST SALE,August-10-2017,Single Family Residential,120 Pinta Ct,LOS GATOS,CA,95030,1965000,3,2.5,LOS GATOS,2800,30000,1967,173,702,,Sold,,,http://www.redfin.com/CA/Los-Gatos/120-Pinta-Ct-95030/home/555465,MLSListings,ML81655356,N,Y,37.2224833,-121.9609336
PAST SALE,October-6-2017,Townhouse,152 Maggi Ct,LOS GATOS,CA,95032,1550000,3,2.5,LOS GATOS,1650,1306,1998,116,939,405,Sold,,,http://www.redfin.com/CA/Los-Gatos/152-Maggi-Ct-95032/home/1758555,MLSListings,ML81680537,N,Y,37.2264632,-121.970818
PAST SALE,,Townhouse,16931 Roberts Rd,Los Gatos,CA,95032,1100000,3,2.0,,1895,2291,2000,,580,,,,,http://www.redfin.com/CA/Los-Gatos/16931-Roberts-Rd-95032/home/1396175,,,N,Y,37.234856,-121.965562
PAST SALE,September-29-2017,Townhouse,16979 Roberts Rd #6,LOS GATOS,CA,95032,1250000,3,2.5,LOS GATOS,1835,2960,1981,123,681,596,Sold,,,http://www.redfin.com/CA/Los-Gatos/16979-Roberts-Rd-95032/unit-6/home/915244,MLSListings,ML81675183,N,Y,37.2351536,-121.967234
PAST SALE,October-5-2017,Townhouse,16345 Los Gatos Blvd #51,LOS GATOS,CA,95032,1200000,3,2.5,LOS GATOS,1260,1600,1973,117,952,385,Sold,,,http://www.redfin.com/CA/Los-Gatos/16345-Los-Gatos-Blvd-95032/unit-51/home/1609202,MLSListings,ML81675077,N,Y,37.2315902,-121.9668942
PAST SALE,October-19-2017,Single Family Residential,308 Escobar Ave,LOS GATOS,CA,95032,1830000,4,2.5,LOS GATOS,2344,8008,1977,103,781,,Sold,,,http://www.redfin.com/CA/Los-Gatos/308-Escobar-Ave-95032/home/1051892,MLSListings,ML81669301,N,Y,37.240632,-121.9463806
PAST SALE,October-26-2017,Townhouse,2029 Los Gatos Almaden Rd,SAN JOSE,CA,95124,965000,3,2.5,SAN JOSE,1467,1200,1980,96,658,384,Sold,,,http://www.redfin.com/CA/San-Jose/2029-Los-Gatos-Almaden-Rd-95124/home/836918,MLSListings,ML81678185,N,Y,37.243684,-121.932625
PAST SALE,November-1-2017,Single Family Residential,102 Ross Creek Ct,LOS GATOS,CA,95032,1870000,4,2.5,LOS GATOS,2150,8363,1977,90,870,,Sold,,,http://www.redfin.com/CA/Los-Gatos/102-Ross-Creek-Ct-95032/home/911425,MLSListings,ML81675813,N,Y,37.2429518,-121.9416526
PAST SALE,November-8-2017,Single Family Residential,2239 Blossom Hill Rd,SAN JOSE,CA,95124,1749000,3,2.5,SAN JOSE,2748,26795,1986,83,636,,Sold,,,http://www.redfin.com/CA/San-Jose/2239-Blossom-Hill-Rd-95124/home/912106,MLSListings,ML81676226,N,Y,37.236558,-121.939262
PAST SALE,November-8-2017,Single Family Residential,16990 Frank Ave,LOS GATOS,CA,95032,2075000,4,2.5,LOS GATOS,2041,7938,1968,83,1017,,Sold,,,http://www.redfin.com/CA/Los-Gatos/16990-Frank-Ave-95032/home/1247355,MLSListings,ML81680358,N,Y,37.2390599,-121.9670639
PAST SALE,November-29-2017,Single Family Residential,293 Marchmont Dr,LOS GATOS,CA,95032,2245000,5,2.5,LOS GATOS,2478,10250,1965,62,906,,Sold,,,http://www.redfin.com/CA/Los-Gatos/293-Marchmont-Dr-95032/home/1317470,MLSListings,ML81680102,N,Y,37.2278682,-121.9543396
PAST SALE,November-27-2017,Single Family Residential,400 Los Gatos Blvd,LOS GATOS,CA,95032,1700000,3,2.5,LOS GATOS,1388,7800,1948,64,1225,,Sold,,,http://www.redfin.com/CA/Los-Gatos/400-Los-Gatos-Blvd-95032/home/1419355,MLSListings,ML81683349,N,Y,37.2274608,-121.9674571
PAST SALE,December-5-2017,Townhouse,15400 Winchester Blvd #24,LOS GATOS,CA,95030,1427000,3,2.5,LOS GATOS,1800,5971,1972,56,793,475,Sold,,,http://www.redfin.com/CA/Los-Gatos/15400-Winchester-Blvd-95030/unit-24/home/1741611,MLSListings,ML81684760,N,Y,37.243912,-121.973144
PAST SALE,December-5-2017,Single Family Residential,105 Lansberry Ct,LOS GATOS,CA,95032,2775000,3,2.5,LOS GATOS,2572,9147,1997,56,1079,,Sold,,,http://www.redfin.com/CA/Los-Gatos/105-Lansberry-Ct-95032/home/911207,MLSListings,ML81686384,N,Y,37.2315636,-121.9528854
PAST SALE,,Single Family Residential,960 Cherrystone Dr,Los Gatos,CA,95032,2450000,4,2.0,,2320,10486,1961,,1056,,,,,http://www.redfin.com/CA/Los-Gatos/960-Cherrystone-Dr-95032/home/911866,,,N,Y,37.2354381,-121.9540506
PAST SALE,September-25-2017,Single Family Residential,14940 Blossom Hill Rd,LOS GATOS,CA,95032,2200000,3,2.5,LOS GATOS,2936,60086,1937,127,749,,Sold,,,http://www.redfin.com/CA/Los-Gatos/14940-Blossom-Hill-Rd-95032/home/912142,MLSListings,ML81674658,N,Y,37.235616,-121.930244
PAST SALE,September-28-2017,Single Family Residential,15860 Union Ave,LOS GATOS,CA,95032,2368000,4,3.0,LOS GATOS,2933,18730,1975,124,807,,Sold,,,http://www.redfin.com/CA/Los-Gatos/15860-Union-Ave-95032/home/1779711,MLSListings,ML81674990,N,Y,37.2382066,-121.9308001
PAST SALE,January-9-2018,Single Family Residential,26050 Pierce Rd,LOS GATOS,CA,95033,1175000,4,3.0,LOS GATOS,3270,267066,1980,21,359,,Sold,,,http://www.redfin.com/CA/Los-Gatos/26050-Pierce-Rd-95033/home/2401391,MLSListings,ML81679744,N,Y,37.125547,-121.990088
PAST SALE,December-8-2017,Single Family Residential,4 N Name Rd,LOS GATOS,CA,95033,1085000,4,3.0,LOS GATOS,2377,88993,1977,53,456,,Sold,,,http://www.redfin.com/CA/Los-Gatos/4-No-Name-Rd-95033/home/2401680,MLSListings,ML81681620,N,Y,37.121085,-122.005375
PAST SALE,November-30-2017,Single Family Residential,208 Calle Marguerita,LOS GATOS,CA,95032,1855000,5,3.0,LOS GATOS,2238,11092,1962,61,829,,Sold,,,http://www.redfin.com/CA/Los-Gatos/208-Calle-Marguerita-95032/home/955939,MLSListings,ML81684444,N,Y,37.2619355,-121.9789623
PAST SALE,October-27-2017,Townhouse,202 Altura Vis,LOS GATOS,CA,95032,1215000,3,3.0,LOS GATOS,2053,1971,1977,95,592,789,Sold,,,http://www.redfin.com/CA/Los-Gatos/202-Altura-Vis-95032/home/612091,MLSListings,ML81676556,N,Y,37.256789,-121.989194
PAST SALE,August-30-2017,Single Family Residential,15990 Rose Ave,LOS GATOS,CA,95030,2550000,3,3.0,LOS GATOS,3208,29630,1946,153,795,,Sold,,,http://www.redfin.com/CA/Los-Gatos/15990-Rose-Ave-95030/home/739910,MLSListings,ML81649358,N,Y,37.2366227,-121.9831178
PAST SALE,December-15-2017,Single Family Residential,16500 Mozart Ave,LOS GATOS,CA,95032,2150000,3,3.0,LOS GATOS,2672,18300,1950,46,805,,Sold,,,http://www.redfin.com/CA/Los-Gatos/16500-W-Mozart-Ave-95032/home/1778976,MLSListings,ML81683000,N,Y,37.2592273,-121.9590501
PAST SALE,October-27-2017,Single Family Residential,108 Belcrest Dr,LOS GATOS,CA,95032,1665000,5,3.0,LOS GATOS,2448,9875,1965,95,680,46,Sold,,,http://www.redfin.com/CA/Los-Gatos/108-Belcrest-Dr-95032/home/1767287,MLSListings,ML81676545,N,Y,37.2298597,-121.9137365
PAST SALE,August-3-2017,Single Family Residential,204 Belgatos Rd,LOS GATOS,CA,95032,1635000,6,3.0,LOS GATOS,2448,10000,1964,180,668,42,Sold,,,http://www.redfin.com/CA/Los-Gatos/204-Belgatos-Rd-95032/home/875006,MLSListings,ML81641020,N,Y,37.2340259,-121.9192563
PAST SALE,August-11-2017,Townhouse,150 Calle Larga,LOS GATOS,CA,95032,1147500,3,3.0,LOS GATOS,2035,2835,1980,172,564,596,Sold,,,http://www.redfin.com/CA/Los-Gatos/150-Calle-Larga-95032/home/1501097,MLSListings,ML81655029,N,Y,37.2632776,-121.9870872
PAST SALE,December-28-2017,Single Family Residential,5212 Union Ave,SAN JOSE,CA,95124,1399000,4,3.0,SAN JOSE,2005,3564,2000,33,698,,Sold,,,http://www.redfin.com/CA/San-Jose/5212-Union-Ave-95124/home/1032190,MLSListings,ML81685749,N,Y,37.2432315,-121.9307167
PAST SALE,August-30-2017,Vacant Land,709 More Ave,LOS GATOS,CA,95032,2300000,,,LOS GATOS,,20850,,153,,,Sold,,,http://www.redfin.com/CA/Los-Gatos/709-More-Ave-95032/home/984401,MLSListings,ML81671307,N,Y,37.2508131,-121.987442
PAST SALE,August-7-2017,Single Family Residential,106 Costances Ct,LOS GATOS,CA,95032,2755000,4,3.0,LOS GATOS,3001,11237,2014,176,918,75,Sold,,,http://www.redfin.com/CA/Los-Gatos/106-Costances-Ct-95032/home/40185249,MLSListings,ML81656730,N,Y,37.2375111,-121.9498692
PAST SALE,September-29-2017,Single Family Residential,2182 Nimrick Ln,SAN JOSE,CA,95124,1287500,4,3.0,SAN JOSE,1700,23000,1963,123,757,,Sold,,,http://www.redfin.com/CA/San-Jose/2182-Nimrick-Ln-95124/home/1238290,MLSListings,ML81675921,N,Y,37.236564,-121.937472
PAST SALE,October-24-2017,Single Family Residential,211 Westhill Dr,LOS GATOS,CA,95032,2315000,4,3.0,LOS GATOS,2856,13939,1977,98,811,,Sold,,,http://www.redfin.com/CA/Los-Gatos/211-Westhill-Dr-95032/home/1301773,MLSListings,ML81676779,N,Y,37.2320951,-121.9205942
PAST SALE,November-9-2017,Single Family Residential,140 TWIN OAKS Dr,LOS GATOS,CA,95032,2700000,5,3.0,LOS GATOS,2929,21125,1968,82,922,,Sold,,,http://www.redfin.com/CA/Los-Gatos/140-Twin-Oaks-Dr-95032/home/1666036,MLSListings,ML81680954,N,Y,37.2233374,-121.9545206
PAST SALE,November-22-2017,Single Family Residential,327 Carlton Ave,LOS GATOS,CA,95032,2039000,4,3.0,LOS GATOS,3066,11040,1981,69,665,,Sold,,,http://www.redfin.com/CA/Los-Gatos/327-Carlton-Ave-95032/home/1166475,MLSListings,ML81671844,N,Y,37.2475096,-121.9517508
PAST SALE,August-8-2017,Single Family Residential,21392 Madrone Dr,LOS GATOS,CA,95033,1170000,6,3.0,LOS GATOS,3092,25560,1926,175,378,89,Sold,,,http://www.redfin.com/CA/Los-Gatos/21392-Madrone-Dr-95033/home/1744164,MLSListings,ML81654686,N,Y,37.1594537,-121.9873043
PAST SALE,August-14-2017,Single Family Residential,17024 Pine Ave,LOS GATOS,CA,95032,2820000,4,3.0,LOS GATOS,3107,10018,1994,169,908,,Sold,,,http://www.redfin.com/CA/Los-Gatos/17024-Pine-Ave-95032/home/912832,MLSListings,ML81652008,N,Y,37.2285224,-121.9681585
PAST SALE,October-23-2017,Single Family Residential,16130 Lilac Ln,LOS GATOS,CA,95032,2200000,4,3.0,LOS GATOS,2210,11122,1953,99,995,,Sold,,,http://www.redfin.com/CA/Los-Gatos/16130-Lilac-Ln-95032/home/1261756,MLSListings,ML81677990,N,Y,37.2364169,-121.9518468
PAST SALE,August-11-2017,Single Family Residential,5276 Kentfield Dr,SAN JOSE,CA,95124,1630000,4,3.0,SAN JOSE,2404,6438,1960,172,678,,Sold,,,http://www.redfin.com/CA/San-Jose/5276-Kentfield-Dr-95124/home/1503363,MLSListings,ML81656315,N,Y,37.2420264,-121.9253479
PAST SALE,August-22-2017,Single Family Residential,15909 Linda Ave,LOS GATOS,CA,95032,3175000,4,3.0,LOS GATOS,3014,17753,2007,161,1053,,Sold,,,http://www.redfin.com/CA/Los-Gatos/15909-Linda-Ave-95032/home/1131549,MLSListings,ML81670341,N,Y,37.2372524,-121.9489292
PAST SALE,,Single Family Residential,15790 Gum Tree Ln,Los Gatos,CA,95032,520000,4,3.0,,2839,203927,1976,,183,,,,,http://www.redfin.com/CA/Los-Gatos/15790-Gum-Tree-Ln-95032/home/1850822,,,N,Y,37.2288976,-121.9443761
PAST SALE,September-27-2017,Single Family Residential,201 University Ave,LOS GATOS,CA,95030,3250000,4,3.0,LOS GATOS,2948,5566,2017,125,1102,,Sold,,,http://www.redfin.com/CA/Los-Gatos/201-University-Ave-95030/home/912023,MLSListings,ML81673845,N,Y,37.2248506,-121.9813226
PAST SALE,December-15-2017,Single Family Residential,339 Market St,LOS GATOS,CA,95032,1756051,4,3.0,LOS GATOS,2165,2843,2017,46,811,180,Sold,,,http://www.redfin.com/CA/LOS-GATOS/339-Market-St-95032/home/112928049,MLSListings,ML81635932,N,Y,37.262323,-121.963232
PAST SALE,September-11-2017,Single Family Residential,20284 Bear Creek Rd,LOS GATOS,CA,95033,1182500,4,3.0,LOS GATOS,2432,59677,1978,141,486,,Sold,,,http://www.redfin.com/CA/Los-Gatos/20284-Bear-Creek-Rd-95033/home/2429077,MLSListings,ML81647295,N,Y,37.1663605,-122.0267223
PAST SALE,,Other,24320 Mountain Charlie Rd,Los Gatos,CA,95033,700000,4,3.0,,2636,217582,1980,,266,,,,,http://www.redfin.com/CA/Los-Gatos/24320-Mountain-Charlie-Rd-95033/home/2400241,,,N,Y,37.1170029,-121.990719
PAST SALE,September-12-2017,Single Family Residential,112 Bacigalupi Dr,LOS GATOS,CA,95032,1850000,4,3.0,LOS GATOS,2460,7000,1968,140,752,46,Sold,,,http://www.redfin.com/CA/Los-Gatos/112-Bacigalupi-Dr-95032/home/1863712,MLSListings,ML81674272,N,Y,37.2338606,-121.9139141
PAST SALE,,Single Family Residential,14155 Capri Dr,Los Gatos,CA,95032,1800000,4,3.0,,2165,2389,2017,,831,,,,,http://www.redfin.com/CA/Los-Gatos/14155-Capri-Dr-95032/home/143042116,,,N,Y,37.2624183,-121.9632378
PAST SALE,October-27-2017,Single Family Residential,158 Lester Ln,LOS GATOS,CA,95032,1480000,4,3.0,LOS GATOS,1414,6222,1958,95,1047,,Sold,,,http://www.redfin.com/CA/Los-Gatos/158-Lester-Ln-95032/home/1664218,MLSListings,ML81678323,N,Y,37.2454666,-121.9528875
PAST SALE,November-12-2017,Single Family Residential,301 Johnson Ave,LOS GATOS,CA,95030,2185000,5,3.0,LOS GATOS,1796,6250,1900,79,1217,,Sold,,,http://www.redfin.com/CA/Los-Gatos/301-Johnson-Ave-95030/home/914997,MLSListings,ML81684599,N,Y,37.2188247,-121.9701614
PAST SALE,January-11-2018,Single Family Residential,23341 Deerfield Rd,LOS GATOS,CA,95033,875000,4,3.0,LOS GATOS,2105,60766,1961,19,416,,Sold,,,http://www.redfin.com/CA/Los-Gatos/23341-Deerfield-Rd-95033/home/2404704,MLSListings,ML81680128,N,Y,37.125517,-121.961456
PAST SALE,October-25-2017,Single Family Residential,328 Market St,LOS GATOS,CA,95032,1807509,4,3.0,LOS GATOS,2165,2976,2016,97,835,180,Sold,,,http://www.redfin.com/CA/Los-Gatos/328-Market-St-95032/home/112742180,MLSListings,ML81634218,N,Y,37.2623258,-121.964536
PAST SALE,October-6-2017,Single Family Residential,17341 E Vineland Ave,LOS GATOS,CA,95030,2520000,4,3.0,LOS GATOS,2871,11040,1971,116,878,,Sold,,,http://www.redfin.com/CA/Los-Gatos/17341-E-Vineland-Ave-95030/home/840033,MLSListings,ML81677489,N,Y,37.2433346,-121.9732917
PAST SALE,August-22-2017,Single Family Residential,15461 National Ave,LOS GATOS,CA,95032,1465000,3,3.0,LOS GATOS,2729,6970,2008,161,537,,Sold,,,http://www.redfin.com/CA/Los-Gatos/15461-National-Ave-95032/home/17293431,MLSListings,ML81669124,N,Y,37.2440787,-121.9496306
PAST SALE,October-20-2017,Single Family Residential,16000 Glen Una Dr,LOS GATOS,CA,95030,3850000,4,3.0,LOS GATOS,3918,104864,1974,102,983,,Sold,,,http://www.redfin.com/CA/Los-Gatos/16000-Glen-Una-Dr-95030/home/112191911,MLSListings,ML81648378,N,Y,37.2363612,-122.0223389
PAST SALE,August-8-2017,Townhouse,405 Clearview Dr,LOS GATOS,CA,95032,1360000,4,3.0,LOS GATOS,2122,2220,1977,175,641,524,Sold,,,http://www.redfin.com/CA/Los-Gatos/405-Clearview-Dr-95032/home/1193493,MLSListings,ML81651609,N,Y,37.2577,-121.97005
PAST SALE,October-27-2017,Single Family Residential,30 Tait Ave,LOS GATOS,CA,95030,2000000,3,3.0,LOS GATOS,1785,5220,1910,95,1120,,Sold,,,http://www.redfin.com/CA/Los-Gatos/30-Tait-Ave-95030/home/1060042,MLSListings,ML81674703,N,Y,37.2244233,-121.9852742
PAST SALE,November-9-2017,Single Family Residential,21117 Brush Rd,LOS GATOS,CA,95033,2380000,4,3.0,LOS GATOS,3400,90608,1979,82,700,,Sold,,,http://www.redfin.com/CA/Los-Gatos/21117-Brush-Rd-95033/home/1552319,MLSListings,ML81684424,N,Y,37.168838,-121.997675
PAST SALE,September-7-2017,Single Family Residential,17120 La Rinconada Dr,MONTE SERENO,CA,95030,1725000,6,3.0,MONTE SERENO,2758,7144,1961,145,625,,Sold,,,http://www.redfin.com/CA/Monte-Sereno/17120-La-Rinconada-Dr-95030/home/1536102,MLSListings,ML81670367,N,Y,37.25074,-121.969648
PAST SALE,September-15-2017,Single Family Residential,103 Leewood Ct,LOS GATOS,CA,95032,2220000,5,3.0,LOS GATOS,3086,10000,1997,137,719,,Sold,,,http://www.redfin.com/CA/Los-Gatos/103-Leewood-Ct-95032/home/890071,MLSListings,ML81656644,N,Y,37.2369096,-121.9305821
PAST SALE,November-9-2017,Single Family Residential,103 Shire Ct,LOS GATOS,CA,95032,2669550,3,3.0,LOS GATOS,2655,10405,1977,82,1005,,Sold,,,http://www.redfin.com/CA/Los-Gatos/103-Shire-Ct-95032/home/1777474,MLSListings,ML81676961,N,Y,37.2523011,-121.9848402
PAST SALE,September-25-2017,Single Family Residential,15760 Eucalyptus Dr,LOS GATOS,CA,95030,2350000,4,3.0,LOS GATOS,2450,50025,1955,127,959,,Sold,,,http://www.redfin.com/CA/Los-Gatos/15760-Eucalyptus-Dr-95030/home/1026713,MLSListings,ML81656081,N,Y,37.2393499,-121.9946628
PAST SALE,September-13-2017,Single Family Residential,17025 Pine Ave,LOS GATOS,CA,95032,3130000,5,3.0,LOS GATOS,2577,12414,2005,139,1215,,Sold,,,http://www.redfin.com/CA/Los-Gatos/17025-Pine-Ave-95032/home/2121628,MLSListings,ML81676794,N,Y,37.2289329,-121.9676637
PAST SALE,,Single Family Residential,104 Clover Way,Los Gatos,CA,95032,2400000,4,3.0,,2773,15400,1963,,865,,,,,http://www.redfin.com/CA/Los-Gatos/104-Clover-Way-95032/home/749494,,,N,Y,37.2259789,-121.9557379
PAST SALE,,Single Family Residential,1667 Glenrock Ct,San Jose,CA,95124,1925000,4,3.0,,3414,8160,1981,,564,,,,,http://www.redfin.com/CA/San-Jose/1667-Glenrock-Ct-95124/home/833529,,,N,Y,37.2289035,-121.9087373
PAST SALE,,Multi-Family (2-4 Unit),228 Union Ave,Los Gatos,CA,95032,1400000,,,,1974,7038,1963,,709,,,,,http://www.redfin.com/CA/Los-Gatos/228-Union-Ave-95032/home/1678216,,,N,Y,37.241088,-121.930858
PAST SALE,November-16-2017,Single Family Residential,216 Danville Dr,LOS GATOS,CA,95032,1658880,3,3.0,LOS GATOS,2056,7980,1962,75,807,,Sold,,,http://www.redfin.com/CA/Los-Gatos/216-Danville-Dr-95032/home/890036,MLSListings,ML81680918,N,Y,37.2378378,-121.9338903
PAST SALE,,Townhouse,156 Calle Larga,Los Gatos,CA,95032,1450000,2,3.0,,2035,2835,1980,,713,,,,,http://www.redfin.com/CA/Los-Gatos/156-Calle-Larga-95032/home/1504871,,,N,Y,37.263044,-121.9869889
PAST SALE,September-19-2017,Single Family Residential,253 Las Miradas Dr,LOS GATOS,CA,95032,1750000,5,3.0,LOS GATOS,1820,6072,1959,133,962,,Sold,,,http://www.redfin.com/CA/Los-Gatos/253-Las-Miradas-Dr-95032/home/873124,MLSListings,ML81671244,N,Y,37.2477398,-121.9641314
PAST SALE,December-22-2017,Single Family Residential,18351 Overlook Rd,LOS GATOS,CA,95030,2527000,4,3.0,LOS GATOS,2338,7000,2002,39,1081,,Sold,,,http://www.redfin.com/CA/Los-Gatos/18351-Overlook-Rd-95030/home/804559,MLSListings,ML81682660,N,Y,37.2276117,-121.9937276
PAST SALE,October-5-2017,Single Family Residential,5530 Blossom Tree Ln,SAN JOSE,CA,95124,1700000,4,3.0,SAN JOSE,1550,7098,1960,117,1097,,Sold,,,http://www.redfin.com/CA/San-Jose/5530-Blossom-Tree-Ln-95124/home/601706,MLSListings,ML81676538,N,Y,37.2376877,-121.9372216
PAST SALE,September-7-2017,Single Family Residential,222 Mattson Ave,LOS GATOS,CA,95032,1710000,4,3.0,LOS GATOS,1948,7990,1961,145,878,,Sold,,,http://www.redfin.com/CA/Los-Gatos/222-Mattson-Ave-95032/home/1402480,MLSListings,ML81672135,N,Y,37.2617676,-121.982514
PAST SALE,December-22-2017,Single Family Residential,15955 Cerro Vista Ct,LOS GATOS,CA,95032,3200000,4,3.5,LOS GATOS,5033,47044,1991,39,636,,Sold,,,http://www.redfin.com/CA/Los-Gatos/15955-Cerro-Vista-Ct-95032/home/758611,MLSListings,ML81681026,N,Y,37.2263779,-121.950616
PAST SALE,August-16-2017,Single Family Residential,15401 Shannon Rd,LOS GATOS,CA,95032,3600000,4,3.5,LOS GATOS,3716,40800,1975,167,969,,Sold,,,http://www.redfin.com/CA/Los-Gatos/15401-Shannon-Rd-95032/home/696307,MLSListings,ML81669365,N,Y,37.228432,-121.937585
PAST SALE,December-28-2017,Single Family Residential,125 Verde Ct,LOS GATOS,CA,95032,2425000,4,3.5,LOS GATOS,2581,8064,2000,33,940,,Sold,,,http://www.redfin.com/CA/Los-Gatos/125-Verde-Ct-95032/home/1522417,MLSListings,ML81686924,N,Y,37.2420507,-121.9475011
PAST SALE,,Single Family Residential,116 Boyer Ln,Los Gatos,CA,95030,2400000,4,3.0,,2653,3920,2001,,905,,,,,http://www.redfin.com/CA/Los-Gatos/116-Boyer-Ln-95030/home/1473579,,,N,Y,37.22706,-121.978577
PAST SALE,September-29-2017,Single Family Residential,17923 Foster Rd,LOS GATOS,CA,95030,3375000,4,3.5,LOS GATOS,3358,216800,2011,123,1005,,Sold,,,http://www.redfin.com/CA/Los-Gatos/17923-Foster-Rd-95030/home/41396878,MLSListings,ML81674092,N,Y,37.208625,-121.972307
PAST SALE,September-19-2017,Single Family Residential,18615 Farragut Ln,LOS GATOS,CA,95030,2361250,4,3.5,LOS GATOS,2221,50032,1949,133,1063,,Sold,,,http://www.redfin.com/CA/Los-Gatos/18615-Farragut-Ln-95030/home/555260,MLSListings,ML81670219,N,Y,37.2380846,-121.9978414
PAST SALE,October-3-2017,Single Family Residential,19162 Old Vineyard Rd,LOS GATOS,CA,95033,1575000,4,3.5,LOS GATOS,3405,31842,1979,119,463,240,Sold,,,http://www.redfin.com/CA/Los-Gatos/19162-Old-Vineyard-Rd-95033/home/2394956,MLSListings,ML81656750,N,Y,37.205495,-122.064407
PAST SALE,September-15-2017,Single Family Residential,440 San Benito Ave,LOS GATOS,CA,95030,2200000,4,3.5,LOS GATOS,2902,7200,1925,137,758,,Sold,,,http://www.redfin.com/CA/Los-Gatos/440-San-Benito-Ave-95030/home/1616494,MLSListings,ML81646859,N,Y,37.231572,-121.981911
PAST SALE,December-6-2017,Single Family Residential,159 College Ave,LOS GATOS,CA,95030,2770000,4,3.5,LOS GATOS,3450,14374,1991,55,803,,Sold,,,http://www.redfin.com/CA/Los-Gatos/159-College-Ave-95030/home/992129,MLSListings,ML81673400,N,Y,37.2167791,-121.9834582
PAST SALE,September-27-2017,Single Family Residential,528 Roxbury Ln,LOS GATOS,CA,95032,1685000,3,3.5,LOS GATOS,1752,8470,1961,125,962,,Sold,,,http://www.redfin.com/CA/Los-Gatos/528-Roxbury-Ln-95032/home/927355,MLSListings,ML81674736,N,Y,37.259748,-121.9822832
PAST SALE,September-18-2017,Single Family Residential,15140 Elm Park,MONTE SERENO,CA,95030,2917500,3,3.5,MONTE SERENO,2585,46609,1960,134,1129,,Sold,,,http://www.redfin.com/CA/Monte-Sereno/15140-Elm-Park-95030/home/1402539,MLSListings,ML81678390,N,Y,37.2490184,-121.9847844
PAST SALE,January-21-2018,Single Family Residential,18765 Favre Ridge Rd,LOS GATOS,CA,95033,1600000,4,3.5,LOS GATOS,4257,37331,1984,9,376,220,Sold,,,http://www.redfin.com/CA/Los-Gatos/18765-Favre-Ridge-Rd-95033/home/2395294,MLSListings,ML81689715,N,Y,37.192368,-122.059759
PAST SALE,September-26-2017,Single Family Residential,320 Santa Rosa Dr,LOS GATOS,CA,95032,3250000,4,3.5,LOS GATOS,5291,76230,1985,126,614,20,Sold,,,http://www.redfin.com/CA/Los-Gatos/320-Santa-Rosa-Dr-95032/home/1068997,MLSListings,ML81668449,N,Y,37.2234128,-121.9205768
PAST SALE,November-20-2017,Single Family Residential,14340 Mulberry Dr,LOS GATOS,CA,95032,2275000,4,3.5,LOS GATOS,2414,9920,1945,71,942,,Sold,,,http://www.redfin.com/CA/Los-Gatos/14340-Mulberry-Dr-95032/home/821397,MLSListings,ML81681028,N,Y,37.259834,-121.974873
PAST SALE,January-10-2018,Single Family Residential,22077 Old Santa Cruz Hwy,LOS GATOS,CA,95033,1157000,4,3.5,LOS GATOS,2188,88471,1965,20,529,,Sold,,,http://www.redfin.com/CA/Los-Gatos/22077-Old-Santa-Cruz-Hwy-95033/home/1442421,MLSListings,ML81684682,N,Y,37.151082,-121.9754857
PAST SALE,November-29-2017,Single Family Residential,17422 Pleasant View Ave,MONTE SERENO,CA,95030,2840000,5,3.5,MONTE SERENO,2988,11253,2005,62,950,,Sold,,,http://www.redfin.com/CA/Monte-Sereno/17422-Pleasant-View-Ave-95030/home/839829,MLSListings,ML81678549,N,Y,37.241137,-121.9751222
PAST SALE,December-19-2017,Single Family Residential,159 Teresita Way,LOS GATOS,CA,95032,2750000,4,3.5,LOS GATOS,4308,40000,1968,42,638,,Sold,,,http://www.redfin.com/CA/Los-Gatos/159-Teresita-Way-95032/home/1743353,MLSListings,ML81678465,N,Y,37.216109,-121.9521952
PAST SALE,December-18-2017,Single Family Residential,16340 Soda Springs Rd,LOS GATOS,CA,95033,1565000,4,3.5,LOS GATOS,2922,275299,2001,43,536,,Sold,,,http://www.redfin.com/CA/Los-Gatos/16340-Soda-Springs-Rd-95033/home/917582,MLSListings,ML81646982,N,Y,37.177355,-121.951098
PAST SALE,August-4-2017,Single Family Residential,15827 Linda Ave,LOS GATOS,CA,95032,1975000,4,3.5,LOS GATOS,2782,7150,1952,179,710,,Sold,,,http://www.redfin.com/CA/Los-Gatos/15827-Linda-Ave-95032/home/1691820,MLSListings,ML81668371,N,Y,37.23858,-121.948757
PAST SALE,November-20-2017,Single Family Residential,16420 W LA CHIQUITA Ave,LOS GATOS,CA,95032,3150000,4,3.5,LOS GATOS,3976,10150,2001,71,792,,Sold,,,http://www.redfin.com/CA/Los-Gatos/16420-W-La-Chiquita-Ave-95032/home/637947,MLSListings,ML81685289,N,Y,37.2295998,-121.9600338
PAST SALE,September-1-2017,Single Family Residential,66 Alpine Ave,LOS GATOS,CA,95030,3460000,4,3.5,LOS GATOS,3962,15352,1996,151,873,,Sold,,,http://www.redfin.com/CA/Los-Gatos/66-Alpine-Ave-95030/home/913534,MLSListings,ML81669272,N,Y,37.218853,-121.9727933
PAST SALE,September-26-2017,Single Family Residential,17770 Vista,MONTE SERENO,CA,95030,2450000,4,3.5,MONTE SERENO,2735,7360,1949,126,896,,Sold,,,http://www.redfin.com/CA/Monte-Sereno/17770-Vista-Ave-95030/home/1228282,MLSListings,ML81672140,N,Y,37.2386258,-121.9817549
PAST SALE,August-25-2017,Single Family Residential,155 Teresita Way,LOS GATOS,CA,95032,2150000,5,3.5,LOS GATOS,3277,34650,1973,158,656,,Sold,,,http://www.redfin.com/CA/Los-Gatos/155-Teresita-Way-95032/home/915063,MLSListings,ML81667724,N,Y,37.2157642,-121.9519387
PAST SALE,October-10-2017,Single Family Residential,1498 Vale Ave,CAMPBELL,CA,95008,1500000,4,3.5,CAMPBELL,2095,11250,1947,112,716,,Sold,,,http://www.redfin.com/CA/Campbell/1498-Vale-Ave-95008/home/1636836,MLSListings,ML81672473,N,Y,37.2653171,-121.9660539
PAST SALE,October-3-2017,Single Family Residential,19740 Oakmont Dr,LOS GATOS,CA,95033,1525000,3,3.5,LOS GATOS,2452,32400,1920,119,622,,Sold,,,http://www.redfin.com/CA/Los-Gatos/19740-Oakmont-Dr-95033/home/1387721,MLSListings,ML81673185,N,Y,37.175108,-121.98762
PAST SALE,September-12-2017,Single Family Residential,17295 Melody Ln,LOS GATOS,CA,95033,1277000,5,3.5,LOS GATOS,3056,47518,1957,140,418,,Sold,,,http://www.redfin.com/CA/Los-Gatos/17295-Melody-Ln-95033/home/1154511,MLSListings,ML81674342,N,Y,37.1443341,-121.9750102
PAST SALE,September-8-2017,Single Family Residential,16250 Brooke Acres Dr,LOS GATOS,CA,95032,3150000,4,3.5,LOS GATOS,4207,59939,1969,144,749,,Sold,,,http://www.redfin.com/CA/Los-Gatos/16250-Brooke-Acres-Dr-95032/home/913872,MLSListings,ML81669324,N,Y,37.2220992,-121.9524763
PAST SALE,October-31-2017,Single Family Residential,169 Longmeadow Dr,LOS GATOS,CA,95032,3000000,4,3.5,LOS GATOS,3816,18200,1959,91,786,,Sold,,,http://www.redfin.com/CA/Los-Gatos/169-Longmeadow-Dr-95032/home/913846,MLSListings,ML81677389,N,Y,37.226771,-121.955577
PAST SALE,August-3-2017,Single Family Residential,122 Verde Ct,LOS GATOS,CA,95032,2110000,4,3.5,LOS GATOS,2581,8007,2000,180,818,,Sold,,,http://www.redfin.com/CA/Los-Gatos/122-Verde-Ct-95032/home/1721269,MLSListings,ML81667191,N,Y,37.2422713,-121.9469941
PAST SALE,October-31-2017,Single Family Residential,124 Verde Ct,LOS GATOS,CA,95032,2125000,4,3.5,LOS GATOS,2751,8712,2000,91,772,,Sold,,,http://www.redfin.com/CA/Los-Gatos/124-Verde-Ct-95032/home/726563,MLSListings,ML81668717,N,Y,37.2420576,-121.9469271
PAST SALE,September-28-2017,Single Family Residential,16611 Madrone Ave,LOS GATOS,CA,95030,3998000,5,4.0,LOS GATOS,4863,16117,2009,124,822,,Sold,,,http://www.redfin.com/CA/Los-Gatos/16611-Madrone-Ave-95030/home/1144725,MLSListings,ML81643489,N,Y,37.2269417,-121.9961311
PAST SALE,December-18-2017,Single Family Residential,22645 Summit Rd,LOS GATOS,CA,95033,1750000,4,4.0,LOS GATOS,3645,74487,1995,43,480,,Sold,,,http://www.redfin.com/CA/Los-Gatos/22645-Summit-Rd-95033/home/1238631,MLSListings,ML81684739,N,Y,37.1407092,-121.9705967
PAST SALE,September-25-2017,Single Family Residential,16194 Lilac Ln,LOS GATOS,CA,95032,2192000,5,4.0,LOS GATOS,2474,8200,1955,127,886,,Sold,,,http://www.redfin.com/CA/Los-Gatos/16194-Lilac-Ln-95032/home/910233,MLSListings,ML81672802,N,Y,37.2363146,-121.952946
PAST SALE,November-22-2017,Single Family Residential,234 Hernandez Ave,LOS GATOS,CA,95030,3148000,5,4.0,LOS GATOS,3860,13658,1992,69,816,,Sold,,,http://www.redfin.com/CA/Los-Gatos/234-Hernandez-Ave-95030/home/1553036,MLSListings,ML81669993,N,Y,37.227962,-121.995728
PAST SALE,December-6-2017,Single Family Residential,17333 Old Ranch Rd,LOS GATOS,CA,95033,1350000,4,4.0,LOS GATOS,2845,285100,1979,55,475,,Sold,,,http://www.redfin.com/CA/Los-Gatos/17333-Old-Ranch-Rd-95033/home/2405272,MLSListings,ML81651881,N,Y,37.1390581,-122.0069775
PAST SALE,October-13-2017,Single Family Residential,119 Old Adobe Rd,LOS GATOS,CA,95032,2201000,5,4.0,LOS GATOS,3300,13000,1962,109,667,,Sold,,,http://www.redfin.com/CA/Los-Gatos/119-Old-Adobe-Rd-95032/home/677189,MLSListings,ML81674089,N,Y,37.2578078,-121.9916075
PAST SALE,December-15-2017,Single Family Residential,512 Nino Ave,LOS GATOS,CA,95032,2675000,4,4.0,LOS GATOS,2605,8850,1966,46,1027,,Sold,,,http://www.redfin.com/CA/Los-Gatos/512-Nino-Ave-95032/home/1373825,MLSListings,ML81680935,N,Y,37.2318979,-121.9691041
PAST SALE,January-19-2018,Single Family Residential,15081 Larga Vista Dr,LOS GATOS,CA,95032,2550006,5,4.0,LOS GATOS,4086,20475,1997,11,624,,Sold,,,http://www.redfin.com/CA/Los-Gatos/15081-Larga-Vista-Dr-95032/home/753487,MLSListings,ML81681719,N,Y,37.2348608,-121.9328301
PAST SALE,September-22-2017,Single Family Residential,15091 Becky Ln,MONTE SERENO,CA,95030,2800000,5,4.5,MONTE SERENO,4869,45302,1993,130,575,,Sold,,,http://www.redfin.com/CA/Monte-Sereno/15091-Becky-Ln-95030/home/824322,MLSListings,ML81672684,N,Y,37.2497141,-121.9936011
PAST SALE,November-17-2017,Single Family Residential,16204 George St,LOS GATOS,CA,95032,2489000,4,4.5,LOS GATOS,3139,3852,2013,74,793,166,Sold,,,http://www.redfin.com/CA/Los-Gatos/16204-George-St-95032/home/45446263,MLSListings,ML81685145,N,Y,37.2333361,-121.9652069
PAST SALE,September-7-2017,Single Family Residential,15951 Linda Ave,LOS GATOS,CA,95032,2990008,4,4.5,LOS GATOS,3131,10141,2017,145,955,,Sold,,,http://www.redfin.com/CA/Los-Gatos/15951-Linda-Ave-95032/home/842393,MLSListings,ML81648427,N,Y,37.2366586,-121.9485904
PAST SALE,November-1-2017,Single Family Residential,149 Wissahickon Ave,LOS GATOS,CA,95030,3200000,4,4.5,LOS GATOS,4064,8000,1995,90,787,,Sold,,,http://www.redfin.com/CA/Los-Gatos/149-Wissahickon-Ave-95030/home/1538330,MLSListings,ML81671976,N,Y,37.2280059,-121.9925984
PAST SALE,September-26-2017,Single Family Residential,17655 Tourney Rd,LOS GATOS,CA,95030,3310000,5,4.5,LOS GATOS,5217,84506,1980,126,634,,Sold,,,http://www.redfin.com/CA/Los-Gatos/17655-Tourney-Rd-95030/home/1052131,MLSListings,ML81651578,N,Y,37.2126646,-121.9677294
PAST SALE,September-25-2017,Single Family Residential,16625 Englewood Ave,LOS GATOS,CA,95032,2875000,4,4.5,LOS GATOS,3587,10017,2002,127,802,,Sold,,,http://www.redfin.com/CA/Los-Gatos/16625-Englewood-Ave-95032/home/1793974,MLSListings,ML81673787,N,Y,37.2271525,-121.964272
PAST SALE,November-28-2017,Single Family Residential,15270 Oak Ridge Way,LOS GATOS,CA,95030,4400000,5,4.5,LOS GATOS,5000,21860,2004,63,880,,Sold,,,http://www.redfin.com/CA/Los-Gatos/15270-Oak-Ridge-Way-95030/home/1664230,MLSListings,ML81651306,N,Y,37.246458,-121.9694881
PAST SALE,September-13-2017,Single Family Residential,14910 Sky Ln,LOS GATOS,CA,95032,3000000,4,4.5,LOS GATOS,3664,71874,1955,139,819,,Sold,,,http://www.redfin.com/CA/Los-Gatos/14910-Sky-Ln-95032/home/1373951,MLSListings,ML81674734,N,Y,37.2268154,-121.9297743
PAST SALE,September-7-2017,Single Family Residential,17259 Clearview Dr,LOS GATOS,CA,95032,4000000,5,4.5,LOS GATOS,4177,14536,2017,145,958,,Sold,,,http://www.redfin.com/CA/Los-Gatos/17259-Clearview-Dr-95032/home/1063338,MLSListings,ML81672212,N,Y,37.2579363,-121.9714119
PAST SALE,September-7-2017,Single Family Residential,15258 BLACKBERRY HILL Rd,LOS GATOS,CA,95030,2550000,5,4.5,LOS GATOS,5686,240058,2017,145,448,,Sold,,,http://www.redfin.com/CA/Los-Gatos/15258-Blackberry-Hill-Rd-95030/home/113106208,MLSListings,ML81646174,N,Y,37.2048919,-121.9516005
PAST SALE,December-18-2017,Single Family Residential,109 Chippendale Ct,LOS GATOS,CA,95032,2455000,6,4.5,LOS GATOS,4105,14500,1977,43,598,21,Sold,,,http://www.redfin.com/CA/Los-Gatos/109-Chippendale-Ct-95032/home/1805943,MLSListings,ML81679889,N,Y,37.2530198,-121.9825652
PAST SALE,October-13-2017,Single Family Residential,20170 Thompson Rd,LOS GATOS,CA,95033,1887500,4,4.5,LOS GATOS,4090,190792,1992,109,461,,Sold,,,http://www.redfin.com/CA/Los-Gatos/20170-Thompson-Rd-95033/home/113788829,MLSListings,ML81648367,N,Y,37.181749,-122.024742
PAST SALE,October-4-2017,Single Family Residential,14938 Larga Vista Dr,LOS GATOS,CA,95032,3750000,5,4.5,LOS GATOS,5034,470012,2003,118,745,,Sold,,,http://www.redfin.com/CA/Los-Gatos/14938-Larga-Vista-Dr-95032/home/1800290,MLSListings,ML81668778,N,Y,37.2315518,-121.9311833
PAST SALE,December-28-2017,Single Family Residential,19 Grove St,LOS GATOS,CA,95030,3225000,4,4.5,LOS GATOS,4927,9900,2002,33,655,,Sold,,,http://www.redfin.com/CA/Los-Gatos/19-Grove-St-95030/home/653705,MLSListings,ML81683094,N,Y,37.2189094,-121.9753063
PAST SALE,December-14-2017,Single Family Residential,14930 Larga Vista Dr,LOS GATOS,CA,95032,3993000,4,4.5,LOS GATOS,5275,55147,2004,47,757,,Sold,,,http://www.redfin.com/CA/Los-Gatos/14930-Larga-Vista-Dr-95032/home/1297539,MLSListings,ML81679967,N,Y,37.2347504,-121.9296258
PAST SALE,November-21-2017,Single Family Residential,16040 Greenridge Ter,LOS GATOS,CA,95032,2350000,5,4.5,LOS GATOS,3540,46173,1959,70,664,,Sold,,,http://www.redfin.com/CA/Los-Gatos/16040-Greenridge-Ter-95032/home/1220054,MLSListings,ML81675807,N,Y,37.2336733,-121.9337342
PAST SALE,November-3-2017,Single Family Residential,241 Plaza La Posada,LOS GATOS,CA,95032,2735000,5,5.0,LOS GATOS,5586,10000,1990,88,490,,Sold,,,http://www.redfin.com/CA/Los-Gatos/241-Plaza-La-Posada-95032/home/1501082,MLSListings,ML81651850,N,Y,37.2533374,-121.9919136
PAST SALE,September-8-2017,Single Family Residential,20702 Santa Cruz Hwy,LOS GATOS,CA,95033,1950000,5,5.0,LOS GATOS,5084,77536,1997,144,384,,Sold,,,http://www.redfin.com/CA/Los-Gatos/20702-Santa-Cruz-Hwy-95033/home/1639225,MLSListings,ML81635845,N,Y,37.1691031,-121.9912792
PAST SALE,,Single Family Residential,20201 Thompson Rd,Los Gatos,CA,95033,2300000,,,,,506250,1930,,,,,,,http://www.redfin.com/CA/Los-Gatos/20201-Thompson-Rd-95033/home/1168805,,,N,Y,37.1893052,-122.0225179
PAST SALE,,Single Family Residential,16135 Cerro Vista Dr,Los Gatos,CA,95032,5750000,5,5.0,,5517,445183,2007,,1042,,,,,http://www.redfin.com/CA/Los-Gatos/16135-Cerro-Vista-Dr-95032/home/1459532,,,N,Y,37.222453,-121.948973
PAST SALE,December-14-2017,Single Family Residential,16440 S Kennedy Rd,LOS GATOS,CA,95030,5500000,5,5.0,LOS GATOS,7313,43586,1988,47,752,,Sold,,,http://www.redfin.com/CA/Los-Gatos/16440-S-Kennedy-Rd-95030/home/614551,MLSListings,ML81681743,N,Y,37.2213137,-121.9578389
PAST SALE,November-3-2017,Single Family Residential,112 Harwood Ct,LOS GATOS,CA,95032,3250000,5,5.0,LOS GATOS,6181,165092,1984,88,526,22,Sold,,,http://www.redfin.com/CA/Los-Gatos/112-Harwood-Ct-95032/home/912756,MLSListings,ML81670501,N,Y,37.2274741,-121.9155566
