SALE TYPE,SOLD DATE,PROPERTY TYPE,ADDRESS,CITY,STATE,ZIP,PRICE,BEDS,BATHS,LOCATION,SQUARE FEET,LOT SIZE,YEAR BUILT,DAYS ON MARKET,$/SQUARE FEET,HOA/MONTH,STATUS,NEXT OPEN HOUSE START TIME,NEXT OPEN HOUSE END TIME,URL (SEE http://www.redfin.com/buy-a-home/comparative-market-analysis FOR INFO ON PRICING),SOURCE,MLS#,FAVORITE,INTERESTED,LATITUDE,LONGITUDE
PAST SALE,July-14-2016,Condo/Co-op,320 Peninsula Ave #211,San Mateo,CA,94401,680000,2,2.0,San Mateo,930,,1987,565,731,375,Sold,,,http://www.redfin.com/CA/San-Mateo/320-Peninsula-Ave-94401/unit-211/home/1074686,San Francisco MLS,444556,N,Y,37.5776793,-122.3377658
PAST SALE,December-29-2017,Multi-Family (2-4 Unit),489 Rollins Rd,BURLINGAME,CA,94010,1288000,3,,BURLINGAME,1528,4094,1950,32,843,,Sold,,,http://www.redfin.com/CA/Burlingame/489-Rollins-Rd-94010/home/691596,MLSListings,ML81687136,N,Y,37.586513,-122.3413995
PAST SALE,November-7-2017,Single Family Residential,1460 Balboa Ave,BURLINGAME,CA,94010,2135000,3,1.0,BURLINGAME,1850,7000,1936,84,1154,,Sold,,,http://www.redfin.com/CA/Burlingame/1460-Balboa-Ave-94010/home/678003,MLSListings,ML81679659,Y,Y,37.5881595,-122.3747271
PAST SALE,August-31-2017,Condo/Co-op,1500 Broadway #306,BURLINGAME,CA,94010,860000,2,2.0,BURLINGAME,1222,17670,1973,152,704,455,Sold,,,http://www.redfin.com/CA/Burlingame/1500-Broadway-94010/unit-306/home/1508796,MLSListings,ML81668746,N,Y,37.5841049,-122.3667227
PAST SALE,May-16-2016,Single Family Residential,1463 Vancouver Ave,Burlingame,CA,94010,3300000,5,4.5,Burlingame,3121,6875,2001,624,1057,,Sold,,,http://www.redfin.com/CA/Burlingame/1463-Vancouver-Ave-94010/home/2028605,San Francisco MLS,443381,N,Y,37.5845822,-122.3781123
PAST SALE,October-10-2017,Single Family Residential,717 Neuchatel Ave,BURLINGAME,CA,94010,1450000,2,1.0,BURLINGAME,940,3441,1926,112,1543,,Sold,,,http://www.redfin.com/CA/Burlingame/717-Neuchatel-Ave-94010/home/687860,MLSListings,ML81676096,N,Y,37.5817315,-122.35286
PAST SALE,June-7-2016,Condo/Co-op,904 Bayswater Ave #3,Burlingame,CA,94010,1058000,2,2.5,Burlingame,1454,,2014,602,728,675,Sold,,,http://www.redfin.com/CA/Burlingame/904-Bayswater-Ave-94010/unit-3/home/61707649,San Francisco MLS,443602,N,Y,37.579044,-122.34028
PAST SALE,August-1-2017,Condo/Co-op,530 El Camino Real #301,BURLINGAME,CA,94010,1040000,2,2.0,BURLINGAME,1377,42608,2000,182,755,321,Sold,,,http://www.redfin.com/CA/Burlingame/530-El-Camino-Real-94010/unit-301/home/1003994,MLSListings,ML81667565,N,Y,37.5778647,-122.3539293
PAST SALE,August-8-2017,Condo/Co-op,300 Murchison Dr #223,MILLBRAE,CA,94030,685000,1,1.0,MILLBRAE,734,72970,1989,175,933,431,Sold,,,http://www.redfin.com/CA/Millbrae/300-Murchison-Dr-94030/unit-223/home/1720676,MLSListings,ML81668953,N,Y,37.5948231,-122.3882851
PAST SALE,,Single Family Residential,825 Edgehill Dr,Burlingame,CA,94010,1300000,2,1.0,,1190,8190,1917,,1092,,,,,http://www.redfin.com/CA/Burlingame/825-Edgehill-Dr-94010/home/689257,,,N,Y,37.5834302,-122.3556282
PAST SALE,November-29-2016,Single Family Residential,1440 Alvarado Ave,BURLINGAME,CA,94010,2400000,4,3.5,BURLINGAME,2820,5732,1952,427,851,,Sold,,,http://www.redfin.com/CA/Burlingame/1440-Alvarado-Ave-94010/home/1800427,MLSListings,ML81628288,N,Y,37.5797823,-122.3813131
PAST SALE,April-21-2016,Multi-Family (5+ Unit),527 Rollins Rd,BURLINGAME,CA,94010,2450000,10,,BURLINGAME,5872,12872,1944,649,417,,Sold,,,http://www.redfin.com/CA/Burlingame/527-Rollins-Rd-94010/home/688883,MLSListings,ML81548115,N,Y,37.5862736,-122.3436546
PAST SALE,,Single Family Residential,2967 Dolores Way,Burlingame,CA,94010,370500,4,2.0,,2110,7675,1964,,176,,,,,http://www.redfin.com/CA/Burlingame/2967-Dolores-Way-94010/home/1982941,,,N,Y,37.5829142,-122.3996779
PAST SALE,February-27-2017,Single Family Residential,1566 Alturas Dr,BURLINGAME,CA,94010,2106000,3,2.5,BURLINGAME,2300,11315,1972,337,916,,Sold,,,http://www.redfin.com/CA/Burlingame/1566-Alturas-Dr-94010/home/1564963,MLSListings,ML81635321,Y,Y,37.5772623,-122.3955358
PAST SALE,November-8-2016,Single Family Residential,79 Loma Vista Dr,BURLINGAME,CA,94010,1810000,4,3.0,BURLINGAME,2091,6080,1947,448,866,,Sold,,,http://www.redfin.com/CA/Burlingame/79-Loma-Vista-Dr-94010/home/1256010,MLSListings,ML81627373,Y,Y,37.5728709,-122.3964246
PAST SALE,February-27-2017,Condo/Co-op,735 El Camino Real #203,BURLINGAME,CA,94010,760000,2,1.0,BURLINGAME,1001,,1981,337,759,570,Sold,,,http://www.redfin.com/CA/Burlingame/735-El-Camino-Real-94010/unit-203/home/2049863,MLSListings,ML81638366,N,Y,37.5786302,-122.3570773
PAST SALE,July-22-2016,Single Family Residential,1830 Ashton Ave,BURLINGAME,CA,94010,2213000,4,3.0,BURLINGAME,2430,8030,1957,557,911,,Sold,,,http://www.redfin.com/CA/Burlingame/1830-S-Ashton-Ave-94010/home/670352,MLSListings,ML81589389,N,Y,37.588814,-122.391002
PAST SALE,April-1-2016,Single Family Residential,524 Francisco Dr,BURLINGAME,CA,94010,2040000,3,2.0,BURLINGAME,2105,6250,1930,669,969,,Sold,,,http://www.redfin.com/CA/Burlingame/524-Francisco-Dr-94010/home/690323,MLSListings,ML81563363,Y,Y,37.585966,-122.3476457
PAST SALE,August-23-2016,Condo/Co-op,107 El Camino Real #204,BURLINGAME,CA,94010,1205000,3,3.0,BURLINGAME,1633,20381,2000,525,738,661,Sold,,,http://www.redfin.com/CA/Burlingame/107-El-Camino-Real-94010/unit-204/home/1245602,MLSListings,ML81595224,N,Y,37.5751014,-122.3461273
PAST SALE,May-12-2016,Single Family Residential,20 Country Club Dr,HILLSBOROUGH,CA,94010,4400000,3,2.5,HILLSBOROUGH,3480,26453,1956,628,1264,,Sold,,,http://www.redfin.com/CA/Hillsborough/20-Country-Club-Dr-94010/home/1247226,MLSListings,ML81580233,N,Y,37.5724265,-122.3553369
PAST SALE,July-7-2016,Condo/Co-op,777 Morrell Ave #103,BURLINGAME,CA,94010,612000,1,1.0,BURLINGAME,880,871,1982,572,695,506,Sold,,,http://www.redfin.com/CA/Burlingame/777-Morrell-Ave-94010/unit-103/home/976363,MLSListings,ML81585311,N,Y,37.5866034,-122.3511408
PAST SALE,,Multi-Family (2-4 Unit),625 California Dr,Burlingame,CA,94010,1750000,2,1.0,,840,6222,1914,,2083,,,,,http://www.redfin.com/CA/Burlingame/625-California-Dr-94010/home/1782253,,,N,Y,37.582078,-122.3510439
PAST SALE,June-10-2016,Condo/Co-op,1226 N El Camino Real. #303,BURLINGAME,CA,94010,1365000,2,2.0,BURLINGAME,1591,15336,2010,599,858,526,Sold,,,http://www.redfin.com/CA/Burlingame/1226-El-Camino-Real-94010/unit-303/home/28642670,MLSListings,ML81579458,N,Y,37.5850025,-122.367363
PAST SALE,,Single Family Residential,5 Winchester Pl,Burlingame,CA,94010,1200000,2,1.0,,1030,2480,1930,,1165,,,,,http://www.redfin.com/CA/Burlingame/5-Winchester-Pl-94010/home/1468184,,,N,Y,37.5865529,-122.3491481
PAST SALE,,Condo/Co-op,1209 Oak Grove Ave Unit 304 1209,Burlingame,CA,94010,779000,2,2.0,,1052,,1979,,740,,,,,http://www.redfin.com/CA/Burlingame/1209-Oak-Grove-Ave-94010/unit-304-1209/home/1102942,,,N,Y,37.5816841,-122.3513601
PAST SALE,October-31-2016,Single Family Residential,2990 Trousdale Dr,BURLINGAME,CA,94010,2250000,4,2.5,BURLINGAME,2400,10711,1964,456,938,,Sold,,,http://www.redfin.com/CA/Burlingame/2990-Trousdale-Dr-94010/home/2038794,MLSListings,ML81614269,Y,Y,37.5819057,-122.3985936
PAST SALE,August-19-2016,Single Family Residential,2204 Davis Dr,BURLINGAME,CA,94010,1690000,3,2.0,BURLINGAME,1720,5775,1950,529,983,,Sold,,,http://www.redfin.com/CA/Burlingame/2204-Davis-Dr-94010/home/1170092,MLSListings,ML81594397,N,Y,37.5878698,-122.38491
PAST SALE,April-13-2016,Single Family Residential,125 Alturas Dr,BURLINGAME,CA,94010,2280000,4,3.5,BURLINGAME,2870,12816,1928,657,794,,Sold,,,http://www.redfin.com/CA/Burlingame/125-Alturas-Dr-94010/home/1151304,MLSListings,ML81545844,N,Y,37.5732687,-122.3919975
PAST SALE,March-30-2016,Single Family Residential,117 Occidental Ave,BURLINGAME,CA,94010,1861000,3,1.5,BURLINGAME,1150,7248,1917,671,1618,,Sold,,,http://www.redfin.com/CA/Burlingame/117-Occidental-Ave-94010/home/1848844,MLSListings,ML81577632,N,Y,37.5716078,-122.3501056
PAST SALE,June-17-2016,Condo/Co-op,525 Almer Rd #310,BURLINGAME,CA,94010,1117500,2,2.0,BURLINGAME,1644,,1975,592,680,559,Sold,,,http://www.redfin.com/CA/Burlingame/525-Almer-Rd-94010/unit-310/home/972362,MLSListings,ML81584198,N,Y,37.5783309,-122.3532843
PAST SALE,,Multi-Family (2-4 Unit),1225 Floribunda Ave,Burlingame,CA,94010,3000000,4,3.0,,2243,8200,2015,,1337,,,,,http://www.redfin.com/CA/Burlingame/1225-Floribunda-Ave-94010/home/688360,,,N,Y,37.580848,-122.350289
PAST SALE,August-8-2016,Condo/Co-op,833 N Humboldt St #209,SAN MATEO,CA,94401,570000,1,1.0,SAN MATEO,693,,1965,540,823,399,Sold,,,http://www.redfin.com/CA/San-Mateo/833-N-Humboldt-St-94401/unit-209/home/17308081,MLSListings,ML81588701,N,Y,37.580688,-122.331245
PAST SALE,May-9-2016,Single Family Residential,1817 Hunt Dr,BURLINGAME,CA,94010,2010000,4,3.0,BURLINGAME,2680,11900,1965,631,750,,Sold,,,http://www.redfin.com/CA/Burlingame/1817-Hunt-Dr-94010/home/1875096,MLSListings,ML81577646,Y,Y,37.5819204,-122.4008064
PAST SALE,,Condo/Co-op,380 Vallejo Dr Apt 124,Millbrae,CA,94030,438000,1,1.0,,764,,1973,,573,,,,,http://www.redfin.com/CA/Millbrae/380-Vallejo-Dr-94030/unit-124/home/1464453,,,N,Y,37.5827685,-122.4036234
PAST SALE,March-14-2017,Single Family Residential,807 Acacia Dr,BURLINGAME,CA,94010,1525000,2,1.0,BURLINGAME,1080,4620,1925,322,1412,,Sold,,,http://www.redfin.com/CA/Burlingame/807-Acacia-Dr-94010/home/1683671,MLSListings,ML81636119,Y,Y,37.5817229,-122.3569548
PAST SALE,September-15-2016,Single Family Residential,748 Farringdon Ln,BURLINGAME,CA,94010,1375000,2,1.0,BURLINGAME,1230,4970,1922,502,1118,,Sold,,,http://www.redfin.com/CA/Burlingame/748-Farringdon-Ln-94010/home/2047394,MLSListings,ML81597560,N,Y,37.5818271,-122.3550324
PAST SALE,,Single Family Residential,1489 Murchison Dr,Millbrae,CA,94030,1730000,4,2.0,,1930,7957,1964,,896,,,,,http://www.redfin.com/CA/Millbrae/1489-Murchison-Dr-94030/home/672879,,,N,Y,37.5834827,-122.4018421
PAST SALE,May-24-2016,Single Family Residential,604 Burlingame Ave,BURLINGAME,CA,94010,1945000,3,2.0,BURLINGAME,1240,5000,1936,616,1569,,Sold,,,http://www.redfin.com/CA/Burlingame/604-Burlingame-Ave-94010/home/1791323,MLSListings,ML81582680,N,Y,37.5835259,-122.3404369
PAST SALE,October-17-2016,Single Family Residential,205 Bayswater Ave,BURLINGAME,CA,94010,3050000,4,3.0,BURLINGAME,2689,5061,2016,470,1134,,Sold,,,http://www.redfin.com/CA/Burlingame/205-Bayswater-Ave-94010/home/1822213,MLSListings,ML81613493,N,Y,37.5829641,-122.3338917
PAST SALE,June-6-2016,Single Family Residential,748 Plymouth Way,BURLINGAME,CA,94010,1987000,4,2.0,BURLINGAME,1620,6098,1945,603,1227,,Sold,,,http://www.redfin.com/CA/Burlingame/748-Plymouth-Way-94010/home/1521730,MLSListings,ML81583170,Y,Y,37.5838836,-122.345208
PAST SALE,August-12-2016,Single Family Residential,225 Dwight Rd,BURLINGAME,CA,94010,2965000,4,3.5,BURLINGAME,2981,10454,1937,536,995,,Sold,,,http://www.redfin.com/CA/Burlingame/225-Dwight-Rd-94010/home/689846,MLSListings,ML81596318,N,Y,37.5835943,-122.3385308
PAST SALE,August-25-2016,Single Family Residential,518 Bayswater Ave,BURLINGAME,CA,94010,1925000,4,2.5,BURLINGAME,1970,5797,1906,523,977,,Sold,,,http://www.redfin.com/CA/Burlingame/518-Bayswater-Ave-94010/home/690923,MLSListings,ML81594278,N,Y,37.5813227,-122.3370307
PAST SALE,June-14-2016,Townhouse,1137 Paloma Ave Unit J,BURLINGAME,CA,94010,1100000,2,2.5,BURLINGAME,1285,17249,2007,595,856,327,Sold,,,http://www.redfin.com/CA/Burlingame/1137-Paloma-Ave-94010/unit-J/home/17307285,MLSListings,ML81590955,N,Y,37.5851002,-122.3647734
PAST SALE,,Single Family Residential,103 Valdeflores Dr,Burlingame,CA,94010,1800000,2,2.0,,1890,11270,1949,,952,,,,,http://www.redfin.com/CA/Burlingame/103-Valdeflores-Dr-94010/home/1274036,,,N,Y,37.5768143,-122.3910157
PAST SALE,,Condo/Co-op,88 S Broadway Unit 3211,Millbrae,CA,94030,1100000,2,2.0,,1414,,2007,,778,,,,,http://www.redfin.com/CA/Millbrae/88-S-Broadway-94030/unit-3211/home/17307579,,,N,Y,37.5972985,-122.3879682
PAST SALE,August-4-2016,Multi-Family (2-4 Unit),1113-15 Rhinette Ave,BURLINGAME,CA,94010,1600000,5,,BURLINGAME,2730,5998,1912,544,586,,Sold,,,http://www.redfin.com/CA/Burlingame/1115-Rhinette-Ave-94010/home/108195276,MLSListings,ML81592390,N,Y,37.5873424,-122.3647674
PAST SALE,,Single Family Residential,1608 Ralston Ave,Burlingame,CA,94010,2300000,3,3.0,,2130,4560,1925,,1080,,,,,http://www.redfin.com/CA/Burlingame/1608-Ralston-Ave-94010/home/1834804,,,N,Y,37.5737463,-122.3511181
PAST SALE,August-9-2016,Single Family Residential,35 Sheldon Way,HILLSBOROUGH,CA,94010,5700000,5,6.5,HILLSBOROUGH,4840,21784,1970,539,1178,,Sold,,,http://www.redfin.com/CA/Hillsborough/35-Sheldon-Way-94010/home/1773407,MLSListings,ML81599580,N,Y,37.5787184,-122.3745268
PAST SALE,July-12-2016,Single Family Residential,2618 Trousdale Dr,BURLINGAME,CA,94010,2006240,3,2.0,BURLINGAME,1940,10375,1959,567,1034,,Sold,,,http://www.redfin.com/CA/Burlingame/2618-Trousdale-Dr-94010/home/1247041,MLSListings,ML81590235,N,Y,37.5860568,-122.3903363
PAST SALE,July-14-2017,Single Family Residential,2977 Mariposa,BURLINGAME,CA,94010,2475000,4,3.0,BURLINGAME,2157,7800,1964,200,1147,,Sold,,,http://www.redfin.com/CA/Burlingame/2977-Mariposa-Dr-94010/home/2008510,MLSListings,ML81655313,N,Y,37.5823117,-122.3985026
PAST SALE,June-14-2017,Single Family Residential,3035 Trousdale Dr,BURLINGAME,CA,94010,2400000,4,3.0,BURLINGAME,2220,12054,1964,230,1081,,Sold,,,http://www.redfin.com/CA/Burlingame/3035-Trousdale-Dr-94010/home/676263,MLSListings,ML81651200,N,Y,37.5813213,-122.3993852
PAST SALE,September-1-2017,Single Family Residential,2657 Martinez Dr,BURLINGAME,CA,94010,2200000,3,2.0,BURLINGAME,1740,8400,1959,151,1264,,Sold,,,http://www.redfin.com/CA/Burlingame/2657-Martinez-Dr-94010/home/672124,MLSListings,ML81671811,Y,Y,37.5849135,-122.3883858
PAST SALE,September-25-2017,Condo/Co-op,88 S Broadway St #1302,MILLBRAE,CA,94030,1450000,2,2.0,MILLBRAE,1715,13631,2007,127,845,687,Sold,,,http://www.redfin.com/CA/Millbrae/88-S-Broadway-94030/unit-1302/home/17307383,MLSListings,ML81669679,N,Y,37.5972985,-122.3879682
PAST SALE,September-18-2017,Single Family Residential,875 Pinon Ave,MILLBRAE,CA,94030,1725000,3,2.0,MILLBRAE,1520,9900,1955,134,1135,,Sold,,,http://www.redfin.com/CA/Millbrae/875-Pinon-Ave-94030/home/1707843,MLSListings,ML81678572,N,Y,37.588468,-122.390047
PAST SALE,October-22-2017,Condo/Co-op,88 S Broadway #1306,MILLBRAE,CA,94030,1450000,2,2.0,MILLBRAE,1711,13631,2007,100,847,687,Sold,,,http://www.redfin.com/CA/Millbrae/88-S-Broadway-94030/unit-1306/home/17307741,MLSListings,ML81676662,N,Y,37.5972985,-122.3879682
PAST SALE,,Single Family Residential,2837 Las Piedras Dr,Burlingame,CA,94010,2838000,4,3.5,,3304,8000,1964,,859,,,,,http://www.redfin.com/CA/Burlingame/2837-Las-Piedras-Dr-94010/home/1869495,,,N,Y,37.5842997,-122.3960823
PAST SALE,June-23-2017,Single Family Residential,1457 Murchison Dr,MILLBRAE,CA,94030,1850000,5,3.0,MILLBRAE,2520,7592,1964,221,734,,Sold,,,http://www.redfin.com/CA/Millbrae/1457-Murchison-Dr-94030/home/2052091,MLSListings,ML81650271,N,Y,37.5841247,-122.4024002
PAST SALE,March-23-2017,Condo/Co-op,1550 Frontera Way #309,MILLBRAE,CA,94030,830000,2,2.0,MILLBRAE,1150,,1973,313,722,470,Sold,,,http://www.redfin.com/CA/Millbrae/1550-Frontera-Way-94030/unit-309/home/2038050,MLSListings,ML81638622,N,Y,37.5827529,-122.402997
PAST SALE,April-19-2017,Condo/Co-op,300 Murchison Dr #107,MILLBRAE,CA,94030,858000,2,2.0,MILLBRAE,1060,,1989,286,809,505,Sold,,,http://www.redfin.com/CA/Millbrae/300-Murchison-Dr-94030/unit-107/home/1745053,MLSListings,ML81642272,N,Y,37.5948231,-122.3882851
PAST SALE,April-27-2017,Single Family Residential,2846 Las Piedras Dr,BURLINGAME,CA,94010,2200000,3,2.5,BURLINGAME,2100,8160,1962,278,1048,,Sold,,,http://www.redfin.com/CA/Burlingame/2846-Las-Piedras-Dr-94010/home/1358046,MLSListings,ML81640005,Y,Y,37.5846281,-122.3965122
PAST SALE,June-15-2017,Single Family Residential,1842 Hunt Dr,BURLINGAME,CA,94010,2020000,4,2.0,BURLINGAME,1990,7700,1964,229,1015,,Sold,,,http://www.redfin.com/CA/Burlingame/1842-Hunt-Dr-94010/home/2038793,MLSListings,ML81654102,N,Y,37.5826068,-122.4008375
PAST SALE,June-15-2017,Condo/Co-op,380 Vallejo Dr #229,MILLBRAE,CA,94030,835000,2,2.0,MILLBRAE,1150,144626,1973,229,726,470,Sold,,,http://www.redfin.com/CA/Millbrae/380-Vallejo-Dr-94030/unit-229/home/1627041,MLSListings,ML81650257,N,Y,37.5827685,-122.4036234
PAST SALE,November-18-2016,Single Family Residential,864 N Claremont St,SAN MATEO,CA,94401,1200000,4,2.0,SAN MATEO,1387,7104,1944,438,865,,Sold,,,http://www.redfin.com/CA/San-Mateo/864-N-Claremont-St-94401/home/2054097,MLSListings,ML81600715,N,Y,37.5795344,-122.3348649
PAST SALE,November-13-2017,Condo/Co-op,845 N Humboldt St #306,SAN MATEO,CA,94401,615000,1,1.0,SAN MATEO,693,1114920,1965,78,887,420,Sold,,,http://www.redfin.com/CA/San-Mateo/845-N-Humboldt-St-94401/unit-306/home/17308346,MLSListings,ML81682183,N,Y,37.580688,-122.331245
PAST SALE,,Multi-Family (2-4 Unit),817 N Delaware St,San Mateo,CA,94401,1848000,5,4.0,,2455,6251,1927,,753,,,,,http://www.redfin.com/CA/San-Mateo/817-N-Delaware-St-94401/home/2044092,,,N,Y,37.5790713,-122.3334834
PAST SALE,April-28-2016,Condo/Co-op,928 Peninsula Ave #304,SAN MATEO,CA,94401,610000,1,1.0,SAN MATEO,758,,1965,642,805,398,Sold,,,http://www.redfin.com/CA/San-Mateo/928-Peninsula-Ave-94401/unit-304/home/17308212,MLSListings,ML81565649,N,Y,37.580688,-122.331245
PAST SALE,November-22-2016,Single Family Residential,785 Willborough Rd,BURLINGAME,CA,94010,1575785,3,2.0,BURLINGAME,1610,3040,1931,434,979,,Sold,,,http://www.redfin.com/CA/Burlingame/785-Willborough-Rd-94010/home/1724387,MLSListings,ML81628470,N,Y,37.5823511,-122.354387
PAST SALE,August-18-2017,Condo/Co-op,902 Peninsula Ave #205,SAN MATEO,CA,94401,612000,1,1.0,SAN MATEO,693,1114920,1965,165,883,409,Sold,,,http://www.redfin.com/CA/San-Mateo/902-Peninsula-Ave-94401/unit-205/home/17308619,MLSListings,ML81670902,N,Y,37.5810706,-122.3326397
PAST SALE,November-16-2017,Condo/Co-op,835 N Humboldt St #202,SAN MATEO,CA,94401,610300,1,1.0,SAN MATEO,758,1114920,1965,75,805,420,Sold,,,http://www.redfin.com/CA/San-Mateo/835-N-Humboldt-St-94401/unit-202/home/12447945,MLSListings,ML81680844,N,Y,37.5814613,-122.3305426
PAST SALE,June-2-2017,Multi-Family (2-4 Unit),817-819 N Delaware St,SAN MATEO,CA,94401,1848000,5,,SAN MATEO,2455,6250,1927,242,753,,Sold,,,http://www.redfin.com/CA/San-Mateo/819-N-Delaware-St-94401/home/102822769,MLSListings,ML81650158,N,Y,37.5791753,-122.3336249
PAST SALE,May-4-2017,Single Family Residential,3037 Rivera Dr,BURLINGAME,CA,94010,2050000,3,2.5,BURLINGAME,2520,7930,1962,271,813,,Sold,,,http://www.redfin.com/CA/Burlingame/3037-Rivera-Dr-94010/home/1548038,MLSListings,ML81643884,Y,Y,37.5792252,-122.395284
PAST SALE,May-17-2017,Single Family Residential,3066 Hillside Dr,BURLINGAME,CA,94010,2400000,4,4.0,BURLINGAME,3645,10640,1951,258,658,,Sold,,,http://www.redfin.com/CA/Burlingame/3066-Hillside-Dr-94010/home/677769,MLSListings,ML81642406,Y,Y,37.575106,-122.3930528
PAST SALE,June-21-2016,Single Family Residential,325 Clarendon Rd,BURLINGAME,CA,94010,1950000,3,2.0,BURLINGAME,1990,8197,1948,588,980,,Sold,,,http://www.redfin.com/CA/Burlingame/325-Clarendon-Rd-94010/home/1012658,MLSListings,ML81583199,N,Y,37.5842463,-122.3407234
PAST SALE,August-15-2016,Single Family Residential,394 Lexington Way,BURLINGAME,CA,94010,1950000,3,2.0,BURLINGAME,1611,5201,1946,533,1210,,Sold,,,http://www.redfin.com/CA/Burlingame/394-Lexington-Way-94010/home/1034577,MLSListings,ML81597406,N,Y,37.5857976,-122.340962
PAST SALE,,Single Family Residential,124 Los Robles Dr,Burlingame,CA,94010,664500,4,3.0,,2950,14400,1964,,225,,,,,http://www.redfin.com/CA/Burlingame/124-Los-Robles-Dr-94010/home/1386200,,,N,Y,37.5772965,-122.3885839
PAST SALE,June-30-2017,Condo/Co-op,320 Peninsula Ave #405,SAN MATEO,CA,94401,700000,2,2.0,SAN MATEO,930,,1987,214,753,389,Sold,,,http://www.redfin.com/CA/San-Mateo/320-Peninsula-Ave-94401/unit-405/home/1922364,MLSListings,ML81654184,N,Y,37.5776793,-122.3377658
PAST SALE,July-7-2017,Condo/Co-op,80 El Camino Real Unit A,BURLINGAME,CA,94010,730000,2,1.0,BURLINGAME,884,6843,1972,207,826,375,Sold,,,http://www.redfin.com/CA/Burlingame/80-El-Camino-Real-94010/unit-A/home/113702784,MLSListings,ML81646088,N,Y,37.575212,-122.344497
PAST SALE,June-6-2017,Condo/Co-op,320 Peninsula Ave #407,SAN MATEO,CA,94401,660000,2,2.0,SAN MATEO,930,,1987,238,710,389,Sold,,,http://www.redfin.com/CA/San-Mateo/320-Peninsula-Ave-94401/unit-407/home/1165369,MLSListings,ML81649072,N,Y,37.5776793,-122.3377658
PAST SALE,July-31-2017,Condo/Co-op,320 Peninsula Ave #410,SAN MATEO,CA,94401,660000,2,2.0,SAN MATEO,930,50207,1987,183,710,389,Sold,,,http://www.redfin.com/CA/San-Mateo/320-Peninsula-Ave-94401/unit-410/home/981597,MLSListings,ML81654077,N,Y,37.5776793,-122.3377658
PAST SALE,September-14-2017,Condo/Co-op,800 N El Camino Real #104,SAN MATEO,CA,94401,830000,2,2.0,SAN MATEO,1378,,1990,138,602,550,Sold,,,http://www.redfin.com/CA/San-Mateo/800-N-El-Camino-Real-94401/unit-104/home/113818139,MLSListings,ML81675553,N,Y,37.573696,-122.340681
PAST SALE,April-21-2017,Single Family Residential,117 Dwight Rd,BURLINGAME,CA,94010,1070000,2,1.0,BURLINGAME,940,3125,1910,284,1138,,Sold,,,http://www.redfin.com/CA/Burlingame/117-Dwight-Rd-94010/home/690675,MLSListings,ML81641739,Y,Y,37.5820457,-122.3368374
PAST SALE,September-11-2017,Townhouse,33 Park Rd #5,BURLINGAME,CA,94010,1320000,2,2.5,BURLINGAME,1380,652,1978,141,957,425,Sold,,,http://www.redfin.com/CA/Burlingame/33-Park-Rd-94010/unit-5/home/1023973,MLSListings,ML81677438,N,Y,37.57547,-122.344096
PAST SALE,October-13-2017,Condo/Co-op,320 Peninsula Ave #307,SAN MATEO,CA,94401,675000,2,2.0,SAN MATEO,930,50207,1987,109,726,389,Sold,,,http://www.redfin.com/CA/San-Mateo/320-Peninsula-Ave-94401/unit-307/home/2003324,MLSListings,ML81676684,N,Y,37.5776793,-122.3377658
PAST SALE,,Townhouse,38 Lorton Ave Apt C,Burlingame,CA,94010,1475000,3,2.5,,1600,7500,1999,,922,,,,,http://www.redfin.com/CA/Burlingame/38-Lorton-Ave-94010/unit-C/home/1560128,,,N,Y,37.5764787,-122.3426788
PAST SALE,,Condo/Co-op,828 N El Camino Real Unit 8,San Mateo,CA,94401,2750000,1,1.0,,827,,1974,,3325,,,,,http://www.redfin.com/CA/San-Mateo/828-N-El-Camino-Real-94401/unit-8/home/1242825,,,N,Y,37.5741317,-122.3413784
PAST SALE,December-29-2017,Multi-Family (2-4 Unit),812 Bayswater Ave,BURLINGAME,CA,94010,2760000,4,,BURLINGAME,3458,5000,1962,32,798,,Sold,,,http://www.redfin.com/CA/Burlingame/812-Bayswater-Ave-94010/home/1925258,MLSListings,ML81682278,N,Y,37.5795183,-122.3396191
PAST SALE,July-8-2016,Townhouse,1233 Bellevue Ave #5,BURLINGAME,CA,94010,1201000,2,2.5,BURLINGAME,1560,12519,1985,571,770,680,Sold,,,http://www.redfin.com/CA/Burlingame/1233-Bellevue-Ave-94010/unit-5/home/980023,MLSListings,ML81591423,N,Y,37.5795914,-122.3485188
PAST SALE,May-12-2017,Single Family Residential,215 Chapin Ln,BURLINGAME,CA,94010,2800000,2,2.0,BURLINGAME,2040,6600,1947,263,1373,,Sold,,,http://www.redfin.com/CA/Burlingame/215-Chapin-Ln-94010/home/1121441,MLSListings,ML81645065,Y,Y,37.5723895,-122.351606
PAST SALE,,Multi-Family (2-4 Unit),511 California Dr,Burlingame,CA,94010,1827000,4,4.0,,3936,6426,1924,,464,,,,,http://www.redfin.com/CA/Burlingame/511-California-Dr-94010/home/2026532,,,N,Y,37.5813506,-122.3497959
PAST SALE,August-1-2017,Single Family Residential,1501 Cypress Ave,BURLINGAME,CA,94010,1610000,4,3.0,BURLINGAME,1810,6300,1916,182,890,,Sold,,,http://www.redfin.com/CA/Burlingame/1501-Cypress-Ave-94010/home/684188,MLSListings,ML81667382,N,Y,37.5746828,-122.3452285
PAST SALE,,Multi-Family (2-4 Unit),1124 Douglas Ave,Burlingame,CA,94010,2000000,5,3.0,,4646,5966,1904,,430,,,,,http://www.redfin.com/CA/Burlingame/1124-Douglas-Ave-94010/home/2031522,,,N,Y,37.5807601,-122.3498941
PAST SALE,August-18-2017,Single Family Residential,720 Crescent Ave,SAN MATEO,CA,94402,3525000,4,2.0,SAN MATEO,2500,8525,1953,165,1410,,Sold,,,http://www.redfin.com/CA/San-Mateo/720-Crescent-Ave-94402/home/2058878,MLSListings,ML81669805,N,Y,37.5713023,-122.3448242
PAST SALE,July-28-2017,Single Family Residential,747 Occidental Ave,SAN MATEO,CA,94402,1850000,3,1.5,SAN MATEO,1300,7000,1923,186,1423,,Sold,,,http://www.redfin.com/CA/San-Mateo/747-Occidental-Ave-94402/home/1170570,MLSListings,ML81652477,N,Y,37.570365,-122.3496526
PAST SALE,,Single Family Residential,133 Crescent Ave,Burlingame,CA,94010,2550000,4,1.0,,1630,10150,1916,,1564,,,,,http://www.redfin.com/CA/Burlingame/133-Crescent-Ave-94010/home/2004880,,,N,Y,37.5730167,-122.3482675
PAST SALE,September-26-2017,Condo/Co-op,904 Peninsula Ave #203,SAN MATEO,CA,94401,440000,0,1.0,SAN MATEO,492,1114920,1965,126,894,302,Sold,,,http://www.redfin.com/CA/San-Mateo/904-Peninsula-Ave-94401/unit-203/home/17308040,MLSListings,ML81674655,N,Y,37.582056,-122.3322199
PAST SALE,September-26-2017,Condo/Co-op,1435 Bellevue Ave #102,BURLINGAME,CA,94010,1058000,2,2.0,BURLINGAME,1729,35965,1979,126,612,703,Sold,,,http://www.redfin.com/CA/Burlingame/1435-Bellevue-Ave-94010/unit-102/home/1670437,MLSListings,ML81655282,N,Y,37.578431,-122.3511056
PAST SALE,March-24-2017,Condo/Co-op,747 El Camino Real #7,BURLINGAME,CA,94010,1000000,2,2.5,BURLINGAME,1389,9226,1981,312,720,300,Sold,,,http://www.redfin.com/CA/Burlingame/747-El-Camino-Real-94010/unit-7/home/1374338,MLSListings,ML81637861,N,Y,37.5788122,-122.3573911
PAST SALE,March-31-2017,Single Family Residential,1125 Hamilton Ln,BURLINGAME,CA,94010,1725000,3,2.0,BURLINGAME,1380,5000,1941,305,1250,,Sold,,,http://www.redfin.com/CA/Burlingame/1125-Hamilton-Ln-94010/home/2010863,MLSListings,ML81639460,Y,Y,37.592234,-122.3774145
PAST SALE,March-22-2017,Condo/Co-op,530 El Camino Real #307,BURLINGAME,CA,94010,1309888,3,3.0,BURLINGAME,1536,42608,2000,314,853,333,Sold,,,http://www.redfin.com/CA/Burlingame/530-El-Camino-Real-94010/unit-307/home/1245776,MLSListings,ML81637874,N,Y,37.5778647,-122.3539293
PAST SALE,April-26-2017,Single Family Residential,835 Acacia Dr,BURLINGAME,CA,94010,2250000,4,2.5,BURLINGAME,2600,6110,1914,279,865,,Sold,,,http://www.redfin.com/CA/Burlingame/835-Acacia-Dr-94010/home/687476,MLSListings,ML81642824,Y,Y,37.5824122,-122.3578908
PAST SALE,March-24-2017,Single Family Residential,1411 De Soto Ave,BURLINGAME,CA,94010,2210000,3,1.5,BURLINGAME,1680,6100,1922,312,1315,,Sold,,,http://www.redfin.com/CA/Burlingame/1411-De-Soto-Ave-94010/home/1935107,MLSListings,ML81637005,Y,Y,37.5829122,-122.3770072
PAST SALE,,Single Family Residential,2525 Adeline Dr,Burlingame,CA,94010,1998000,4,2.0,,2180,5168,1941,,917,,,,,http://www.redfin.com/CA/Burlingame/2525-Adeline-Dr-94010/home/1902710,,,N,Y,37.5819483,-122.3816755
PAST SALE,,Condo/Co-op,1137 Paloma Ave Apt A,Burlingame,CA,94010,1150000,2,2.0,,1285,,2007,,895,,,,,http://www.redfin.com/CA/Burlingame/1137-Paloma-Ave-94010/unit-A/home/17307737,,,N,Y,37.5851002,-122.3647734
PAST SALE,June-5-2017,Single Family Residential,2120 Carmelita Ave,BURLINGAME,CA,94010,1998000,2,1.0,BURLINGAME,1180,5450,1925,239,1693,,Sold,,,http://www.redfin.com/CA/Hillsborough/2120-Carmelita-Ave-94010/home/1791244,MLSListings,ML81646853,N,Y,37.5783677,-122.3684827
PAST SALE,June-5-2017,Single Family Residential,1609 Sanchez Ave,BURLINGAME,CA,94010,2700000,4,3.0,BURLINGAME,2160,7050,1910,239,1250,,Sold,,,http://www.redfin.com/CA/Burlingame/1609-Sanchez-Ave-94010/home/1862659,MLSListings,ML81648204,Y,Y,37.5807505,-122.3628471
PAST SALE,July-17-2017,Condo/Co-op,1273 El Camino Real #4,BURLINGAME,CA,94010,965000,2,2.0,BURLINGAME,1150,6826,1996,197,839,280,Sold,,,http://www.redfin.com/CA/Burlingame/1273-El-Camino-Real-94010/unit-4/home/1252507,MLSListings,ML81654847,N,Y,37.585458,-122.36906
PAST SALE,June-7-2017,Single Family Residential,1204 Drake Ave,BURLINGAME,CA,94010,3000000,4,3.0,BURLINGAME,3098,6000,1921,237,968,,Sold,,,http://www.redfin.com/CA/Burlingame/1204-Drake-Ave-94010/home/2050264,MLSListings,ML81651039,Y,Y,37.5817772,-122.3688017
PAST SALE,June-9-2017,Single Family Residential,1100 Lincoln Ave,BURLINGAME,CA,94010,1650000,3,2.0,BURLINGAME,1350,4788,1921,235,1222,,Sold,,,http://www.redfin.com/CA/Burlingame/1100-Lincoln-Ave-94010/home/1012272,MLSListings,ML81649007,N,Y,37.5885032,-122.3664137
PAST SALE,July-22-2017,Single Family Residential,1625 Lassen Way,BURLINGAME,CA,94010,3050000,4,3.0,BURLINGAME,2475,5500,2007,192,1232,,Sold,,,http://www.redfin.com/CA/Burlingame/1625-Lassen-Way-94010/home/1908027,MLSListings,ML81656541,Y,Y,37.5892652,-122.3811085
PAST SALE,July-20-2017,Single Family Residential,1338 Castillo Ave,BURLINGAME,CA,94010,3250000,4,4.5,BURLINGAME,3860,6000,1992,194,842,,Sold,,,http://www.redfin.com/CA/Burlingame/1338-Castillo-Ave-94010/home/1658209,MLSListings,ML81653934,Y,Y,37.5806128,-122.3775479
PAST SALE,May-12-2017,Single Family Residential,1341 Vancouver Ave,BURLINGAME,CA,94010,1808000,2,1.0,BURLINGAME,1310,6000,1921,263,1380,,Sold,,,http://www.redfin.com/CA/Burlingame/1341-Vancouver-Ave-94010/home/681913,MLSListings,ML81644312,Y,Y,37.5820868,-122.3737643
PAST SALE,June-28-2017,Single Family Residential,1104 Clovelly Ln,BURLINGAME,CA,94010,1585000,3,1.0,BURLINGAME,1350,5560,1942,216,1174,,Sold,,,http://www.redfin.com/CA/Burlingame/1104-Clovelly-Ln-94010/home/1368810,MLSListings,ML81648750,N,Y,37.5933538,-122.378121
PAST SALE,August-9-2017,Condo/Co-op,1237 Capuchino Ave #9,BURLINGAME,CA,94010,1182000,2,2.0,BURLINGAME,1186,12000,2001,174,997,580,Sold,,,http://www.redfin.com/CA/Burlingame/1237-Capuchino-Ave-94010/unit-9/home/1805550,MLSListings,ML81669886,N,Y,37.5856161,-122.3674042
PAST SALE,,Single Family Residential,705 Walnut Ave,Burlingame,CA,94010,1765000,2,2.0,,1570,8190,1953,,1124,,,,,http://www.redfin.com/CA/Burlingame/705-Walnut-Ave-94010/home/1106909,,,N,Y,37.5778357,-122.3580576
PAST SALE,August-10-2017,Single Family Residential,1272 Cabrillo Ave,BURLINGAME,CA,94010,3125000,4,4.0,BURLINGAME,2730,14400,1916,173,1145,,Sold,,,http://www.redfin.com/CA/Burlingame/1272-Cabrillo-Ave-94010/home/1869596,MLSListings,ML81667446,Y,Y,37.5837591,-122.3706126
PAST SALE,September-5-2017,Single Family Residential,1433 Bernal Ave,BURLINGAME,CA,94010,3200000,5,3.0,BURLINGAME,2820,5400,2003,147,1135,,Sold,,,http://www.redfin.com/CA/Burlingame/1433-Bernal-Ave-94010/home/1614710,MLSListings,ML81676548,N,Y,37.5845881,-122.3764265
PAST SALE,April-27-2017,Condo/Co-op,1469 El Camino Real #8,BURLINGAME,CA,94010,705000,2,1.0,BURLINGAME,806,10293,1979,278,875,270,Sold,,,http://www.redfin.com/CA/Burlingame/1469-El-Camino-Real-94010/unit-8/home/17307660,MLSListings,ML81644182,N,Y,37.5886938,-122.3744889
PAST SALE,July-7-2017,Single Family Residential,2015 Ray Dr,BURLINGAME,CA,94010,2105000,4,3.0,BURLINGAME,2103,4860,1949,207,1001,,Sold,,,http://www.redfin.com/CA/Burlingame/2015-Ray-Dr-94010/home/1376721,MLSListings,ML81654170,Y,Y,37.5872984,-122.3813025
PAST SALE,,Single Family Residential,1328 Columbus Ave,Burlingame,CA,94010,2750000,3,3.0,,2450,6000,1927,,1122,,,,,http://www.redfin.com/CA/Burlingame/1328-Columbus-Ave-94010/home/1057497,,,N,Y,37.5811349,-122.3748057
PAST SALE,,Single Family Residential,729 Walnut Ave,Burlingame,CA,94010,1860000,2,1.0,,1240,8050,1908,,1500,,,,,http://www.redfin.com/CA/Burlingame/729-Walnut-Ave-94010/home/1170347,,,N,Y,37.5784548,-122.3588831
PAST SALE,April-24-2017,Single Family Residential,853 Paloma Ave,BURLINGAME,CA,94010,1610000,2,1.0,BURLINGAME,1110,4640,1922,281,1450,,Sold,,,http://www.redfin.com/CA/Burlingame/853-Paloma-Ave-94010/home/2058850,MLSListings,ML81642597,N,Y,37.5820327,-122.3588879
PAST SALE,April-4-2017,Single Family Residential,717 Acacia Dr,BURLINGAME,CA,94010,2350000,4,3.0,BURLINGAME,2660,6600,1922,301,883,,Sold,,,http://www.redfin.com/CA/Burlingame/717-Acacia-Dr-94010/home/1468168,MLSListings,ML81639249,Y,Y,37.5800795,-122.3555259
PAST SALE,,Single Family Residential,789 Willborough Rd,Burlingame,CA,94010,1501000,2,1.0,,1370,2730,1935,,1096,,,,,http://www.redfin.com/CA/Burlingame/789-Willborough-Rd-94010/home/687854,,,N,Y,37.5824065,-122.3545295
PAST SALE,June-2-2017,Condo/Co-op,525 Almer Rd #104,BURLINGAME,CA,94010,1160000,2,2.0,BURLINGAME,1353,,1975,242,857,506,Sold,,,http://www.redfin.com/CA/Burlingame/525-Almer-Rd-94010/unit-303/home/113609903,MLSListings,ML81644322,N,Y,37.5783309,-122.3532843
PAST SALE,October-6-2017,Single Family Residential,1435 Benito Ave,BURLINGAME,CA,94010,3650000,4,4.0,BURLINGAME,2881,5734,2014,116,1267,,Sold,,,http://www.redfin.com/CA/Burlingame/1435-Benito-Ave-94010/home/684401,MLSListings,ML81678045,Y,Y,37.5800366,-122.3809292
PAST SALE,June-5-2017,Single Family Residential,1701 Davis Dr,BURLINGAME,CA,94010,1900000,3,2.0,BURLINGAME,1670,5400,1950,239,1138,,Sold,,,http://www.redfin.com/CA/Burlingame/1701-Davis-Dr-94010/home/1683437,MLSListings,ML81648989,Y,Y,37.5905964,-122.3820583
PAST SALE,February-24-2017,Single Family Residential,1609 Quesada Way,BURLINGAME,CA,94010,2050000,3,2.0,BURLINGAME,1660,5565,1949,340,1235,,Sold,,,http://www.redfin.com/CA/Burlingame/1609-Quesada-Way-94010/home/2047355,MLSListings,ML81636932,Y,Y,37.5872913,-122.3836096
PAST SALE,,Multi-Family (2-4 Unit),456 Studio Cir,San Mateo,CA,94401,2200000,9,6.0,,5820,6954,1962,,378,,,,,http://www.redfin.com/CA/San-Mateo/456-Studio-Cir-94401/home/1987426,,,N,Y,37.5783539,-122.3356892
PAST SALE,February-13-2017,Condo/Co-op,820 N Delaware St #309,SAN MATEO,CA,94401,500000,1,1.0,SAN MATEO,693,,1965,351,722,410,Sold,,,http://www.redfin.com/CA/San-Mateo/820-N-Delaware-St-94401/unit-309/home/12447948,MLSListings,ML81636224,N,Y,37.580688,-122.331245
PAST SALE,July-29-2016,Condo/Co-op,934 Peninsula Ave #309,SAN MATEO,CA,94401,537500,1,1.0,SAN MATEO,772,,1965,550,696,392,Sold,,,http://www.redfin.com/CA/San-Mateo/934-Peninsula-Ave-94401/unit-309/home/17308277,MLSListings,ML81588779,N,Y,37.580688,-122.331245
PAST SALE,January-19-2018,Single Family Residential,1248 Paloma Ave,BURLINGAME,CA,94010,1650000,2,1.0,BURLINGAME,1180,6000,1920,11,1398,,Sold,,,http://www.redfin.com/CA/Burlingame/1248-Paloma-Ave-94010/home/1548104,MLSListings,ML81686814,N,Y,37.586816,-122.3668366
PAST SALE,November-24-2017,Condo/Co-op,1500 Willow Ave #302,BURLINGAME,CA,94010,862000,2,2.0,BURLINGAME,1032,15426,1981,67,835,338,Sold,,,http://www.redfin.com/CA/Burlingame/1500-Willow-Ave-94010/unit-302/home/1680994,MLSListings,ML81680312,N,Y,37.5795729,-122.3585077
PAST SALE,December-23-2016,Single Family Residential,1421 Balboa Ave,BURLINGAME,CA,94010,2128000,4,2.0,BURLINGAME,2360,6000,1902,403,902,,Sold,,,http://www.redfin.com/CA/Burlingame/1421-Balboa-Ave-94010/home/1180869,MLSListings,ML81632046,Y,Y,37.5870587,-122.3735959
PAST SALE,September-30-2016,Single Family Residential,1661 Westmoor Rd,BURLINGAME,CA,94010,1370000,2,1.0,BURLINGAME,1030,5248,1942,487,1330,,Sold,,,http://www.redfin.com/CA/Burlingame/1661-Westmoor-Rd-94010/home/673642,MLSListings,ML81600699,N,Y,37.5924578,-122.3798844
PAST SALE,,Single Family Residential,1537 Meadow Ln,Burlingame,CA,94010,1050000,2,1.0,,1070,4950,1942,,981,,,,,http://www.redfin.com/CA/Burlingame/1537-Meadow-Ln-94010/home/673915,,,N,Y,37.5911709,-122.3759333
PAST SALE,September-15-2016,Single Family Residential,1262 Balboa Ave,BURLINGAME,CA,94010,2875000,4,3.5,BURLINGAME,2510,9226,1915,502,1145,,Sold,,,http://www.redfin.com/CA/Burlingame/1262-Balboa-Ave-94010/home/1494631,MLSListings,ML81598580,N,Y,37.5849205,-122.3689551
PAST SALE,July-13-2016,Single Family Residential,1654 Escalante Way,BURLINGAME,CA,94010,2308000,4,2.0,BURLINGAME,2110,7775,1965,566,1094,,Sold,,,http://www.redfin.com/CA/Burlingame/1654-Escalante-Way-94010/home/2019232,MLSListings,ML81590257,N,Y,37.5783772,-122.3984248
PAST SALE,August-24-2016,Single Family Residential,1136 Cambridge Rd,BURLINGAME,CA,94010,2600000,4,2.5,BURLINGAME,2706,7200,1930,524,961,,Sold,,,http://www.redfin.com/CA/Burlingame/1136-Cambridge-Rd-94010/home/673846,MLSListings,ML81596384,N,Y,37.5899896,-122.3734472
PAST SALE,June-13-2016,Single Family Residential,2022 Ray Dr,BURLINGAME,CA,94010,2500000,3,3.0,BURLINGAME,2790,5501,1949,596,896,,Sold,,,http://www.redfin.com/CA/Burlingame/2022-Ray-Dr-94010/home/1159052,MLSListings,ML81585677,N,Y,37.5871989,-122.3818968
PAST SALE,February-3-2016,Single Family Residential,1509 easton,BURLINGAME,CA,94010,1350000,2,1.0,BURLINGAME,1170,7250,1925,727,1154,,Sold,,,http://www.redfin.com/CA/Burlingame/1509-Easton-Dr-94010/home/1589904,MLSListings,ML81534690,N,Y,37.5855885,-122.3697217
PAST SALE,October-18-2016,Single Family Residential,2005 Ray Dr,BURLINGAME,CA,94010,2425000,4,3.5,BURLINGAME,2820,5501,1947,469,860,,Sold,,,http://www.redfin.com/CA/Burlingame/2005-Ray-Dr-94010/home/1414249,MLSListings,ML81613759,N,Y,37.5875402,-122.3810276
PAST SALE,April-29-2016,Single Family Residential,1149 Drake Ave,BURLINGAME,CA,94010,2400000,4,3.0,BURLINGAME,2137,5758,1924,641,1123,,Sold,,,http://www.redfin.com/CA/Burlingame/1149-Drake-Ave-94010/home/1675324,MLSListings,ML81577115,Y,Y,37.5811388,-122.3685069
PAST SALE,October-26-2016,Condo/Co-op,747 El Camino Real #5,BURLINGAME,CA,94010,925000,2,2.5,BURLINGAME,1389,9226,1981,461,666,300,Sold,,,http://www.redfin.com/CA/Burlingame/747-El-Camino-Real-94010/unit-5/home/1745575,MLSListings,ML81601349,N,Y,37.5788122,-122.3573911
PAST SALE,,Condo/Co-op,88 S Broadway Unit 1207,Millbrae,CA,94030,1500000,2,2.0,,1874,,2007,,800,,,,,http://www.redfin.com/CA/Millbrae/88-S-Broadway-94030/unit-1207/home/17307609,,,N,Y,37.5972985,-122.3879682
PAST SALE,January-6-2017,Single Family Residential,340 Bloomfield Rd,BURLINGAME,CA,94010,1955000,3,2.0,BURLINGAME,1640,5000,1948,389,1192,,Sold,,,http://www.redfin.com/CA/Burlingame/340-Bloomfield-Rd-94010/home/2054086,MLSListings,ML81633015,N,Y,37.5839527,-122.341658
PAST SALE,March-18-2016,Single Family Residential,12 Kenmar Way,Burlingame,CA,94010,2625000,4,3.5,Burlingame,3688,10960,1954,683,712,,Sold,,,http://www.redfin.com/CA/Burlingame/12-Kenmar-Way-94010/home/1848784,San Francisco MLS,441812,Y,Y,37.5762059,-122.3841972
PAST SALE,November-28-2016,Single Family Residential,1268 Balboa Ave,BURLINGAME,CA,94010,2200000,7,3.0,BURLINGAME,2780,9374,1920,428,791,,Sold,,,http://www.redfin.com/CA/Burlingame/1268-Balboa-Ave-94010/home/1843590,MLSListings,ML81626910,N,Y,37.585109,-122.3692224
PAST SALE,March-10-2016,Single Family Residential,912 Park Ave,BURLINGAME,CA,94010,1370000,2,1.0,BURLINGAME,1080,6000,1926,691,1269,,Sold,,,http://www.redfin.com/CA/Burlingame/912-Park-Ave-94010/home/2040568,MLSListings,ML81546080,N,Y,37.5848415,-122.3517864
PAST SALE,January-11-2017,Single Family Residential,321 Concord Way,BURLINGAME,CA,94010,2200000,4,2.0,BURLINGAME,1920,5000,1920,384,1146,,Sold,,,http://www.redfin.com/CA/Burlingame/321-Concord-Way-94010/home/1848880,MLSListings,ML81631354,N,Y,37.5852476,-122.3384786
PAST SALE,September-27-2016,Single Family Residential,60 Crystal Ter,BURLINGAME,CA,94010,1838000,4,2.5,BURLINGAME,2370,9600,1976,490,776,,Sold,,,http://www.redfin.com/CA/Burlingame/60-Crystal-Ter-94010/home/677749,MLSListings,ML81592526,N,Y,37.5713087,-122.3939073
PAST SALE,April-28-2016,Townhouse,1405 El Camino Real Unit A,BURLINGAME,CA,94010,1145000,3,3.0,BURLINGAME,1820,1935,2004,642,629,300,Sold,,,http://www.redfin.com/CA/Burlingame/1405-El-Camino-Real-94010/unit-A/home/1009762,MLSListings,ML81564654,N,Y,37.5874555,-122.3724513
PAST SALE,January-11-2017,Townhouse,1444 El Camino Real #3,BURLINGAME,CA,94010,745000,2,1.5,BURLINGAME,1100,7039,1987,384,677,672,Sold,,,http://www.redfin.com/CA/Burlingame/1444-El-Camino-Real-94010/unit-3/home/1712813,MLSListings,ML81629264,N,Y,37.588239,-122.372552
PAST SALE,March-8-2016,Townhouse,1404 El Camino Real #3,BURLINGAME,CA,94010,1165000,2,2.5,BURLINGAME,1567,7017,1999,693,743,149,Sold,,,http://www.redfin.com/CA/Burlingame/1404-El-Camino-Real-94010/unit-3/home/1138700,MLSListings,ML81548689,N,Y,37.5874234,-122.3712286
PAST SALE,,Single Family Residential,2705 Easton Dr,Burlingame,CA,94010,2347000,3,2.0,,2300,8190,1925,,1020,,,,,http://www.redfin.com/CA/Burlingame/2705-Easton-Dr-94010/home/1978653,,,N,Y,37.5780867,-122.3776283
PAST SALE,September-27-2016,Single Family Residential,229 Bloomfield Rd,BURLINGAME,CA,94010,2200000,4,2.0,BURLINGAME,2020,7501,1936,490,1089,,Sold,,,http://www.redfin.com/CA/Burlingame/229-Bloomfield-Rd-94010/home/1358306,MLSListings,ML81611579,N,Y,37.5823827,-122.3404938
PAST SALE,February-24-2017,Single Family Residential,1850 Ralston Ave,HILLSBOROUGH,CA,94010,3300000,3,2.5,HILLSBOROUGH,2380,23250,1959,340,1387,,Sold,,,http://www.redfin.com/CA/Hillsborough/1850-Ralston-Ave-94010/home/1800417,MLSListings,ML81637711,N,Y,37.572637,-122.353798
PAST SALE,March-10-2016,Condo/Co-op,800 N N El Camino Real #206,SAN MATEO,CA,94401,790000,2,2.0,SAN MATEO,1379,26358,1984,691,573,500,Sold,,,http://www.redfin.com/CA/San-Mateo/800-N-El-Camino-Real-94401/unit-206/home/983624,MLSListings,ML81548312,N,Y,37.573696,-122.340681
PAST SALE,,Single Family Residential,450 Bloomfield Rd,Burlingame,CA,94010,1830000,3,2.0,,1480,5000,1948,,1236,,,,,http://www.redfin.com/CA/Burlingame/450-Bloomfield-Rd-94010/home/1460012,,,N,Y,37.5855324,-122.3433848
PAST SALE,November-8-2016,Condo/Co-op,853 Woodside Way #134,SAN MATEO,CA,94401,640000,2,2.0,SAN MATEO,894,,1982,448,716,339,Sold,,,http://www.redfin.com/CA/San-Mateo/853-Woodside-Way-94401/unit-134/home/1586180,MLSListings,ML81626945,N,Y,37.5777758,-122.336975
PAST SALE,November-21-2016,Single Family Residential,23 Dwight Rd,BURLINGAME,CA,94010,1830000,4,2.0,BURLINGAME,2249,4961,1915,435,814,,Sold,,,http://www.redfin.com/CA/Burlingame/23-Dwight-Rd-94010/home/690878,MLSListings,ML81625698,N,Y,37.5809601,-122.3355278
PAST SALE,October-18-2016,Single Family Residential,134 Channing Rd,BURLINGAME,CA,94010,1675000,3,1.5,BURLINGAME,2100,6094,1908,469,798,,Sold,,,http://www.redfin.com/CA/Burlingame/134-Channing-Rd-94010/home/1514158,MLSListings,ML81613629,N,Y,37.5837032,-122.3352855
PAST SALE,,Multi-Family (2-4 Unit),441 Rollins Rd,Burlingame,CA,94010,548500,4,2.0,,1597,5500,1944,,343,,,,,http://www.redfin.com/CA/Burlingame/441-Rollins-Rd-94010/home/691632,,,N,Y,37.5864119,-122.3394948
PAST SALE,May-4-2016,Single Family Residential,18 Dwight Rd,BURLINGAME,CA,94010,1825000,4,3.0,BURLINGAME,2460,5797,1927,636,742,,Sold,,,http://www.redfin.com/CA/Burlingame/18-Dwight-Rd-94010/home/693274,MLSListings,ML81548188,N,Y,37.5811031,-122.3349776
PAST SALE,September-13-2016,Single Family Residential,409 Burlingame Ave,BURLINGAME,CA,94010,2450000,4,3.0,BURLINGAME,2083,4691,1938,504,1176,,Sold,,,http://www.redfin.com/CA/Burlingame/409-Burlingame-Ave-94010/home/1078775,MLSListings,ML81598904,Y,Y,37.5844166,-122.3383126
PAST SALE,,Single Family Residential,1525 Eastmoor Rd,Burlingame,CA,94010,700000,3,1.0,,1570,5150,1947,,446,,,,,http://www.redfin.com/CA/Burlingame/1525-Eastmoor-Rd-94010/home/2036489,,,N,Y,37.5915145,-122.3750365
PAST SALE,December-22-2016,Single Family Residential,2720 Trousdale Dr,BURLINGAME,CA,94010,1850000,3,2.5,BURLINGAME,2050,14562,1959,404,902,,Sold,,,http://www.redfin.com/CA/Burlingame/2720-Trousdale-Dr-94010/home/1118185,MLSListings,ML81628506,Y,Y,37.5842475,-122.3930769
PAST SALE,November-14-2016,Single Family Residential,213 Los Robles Dr,BURLINGAME,CA,94010,1600000,2,1.5,BURLINGAME,1640,18199,1951,442,976,,Sold,,,http://www.redfin.com/CA/Burlingame/213-Los-Robles-Dr-94010/home/1414472,MLSListings,ML81600855,N,Y,37.5735733,-122.3893278
PAST SALE,May-27-2016,Single Family Residential,1245 Cabrillo Ave,BURLINGAME,CA,94010,2325000,4,2.0,BURLINGAME,2250,6150,1907,613,1033,,Sold,,,http://www.redfin.com/CA/Burlingame/1245-Cabrillo-Ave-94010/home/1539228,MLSListings,ML81580644,N,Y,37.5829124,-122.3698596
PAST SALE,September-2-2016,Single Family Residential,1810 Barroilhet Ave,BURLINGAME,CA,94010,2220400,3,1.0,BURLINGAME,1570,7144,1927,515,1414,,Sold,,,http://www.redfin.com/CA/Burlingame/1810-Barroilhet-Ave-94010/home/1368927,MLSListings,ML81600745,N,Y,37.5705097,-122.3512605
PAST SALE,October-6-2016,Single Family Residential,1517 Burlingame Ave,BURLINGAME,CA,94010,2920000,4,3.0,BURLINGAME,2660,8250,1920,481,1098,,Sold,,,http://www.redfin.com/CA/Burlingame/1517-Burlingame-Ave-94010/home/1957659,MLSListings,ML81614451,N,Y,37.5756482,-122.3501704
PAST SALE,May-19-2016,Single Family Residential,1566 Cypress Ave,BURLINGAME,CA,94010,1725000,3,2.0,BURLINGAME,1580,6298,1921,621,1092,,Sold,,,http://www.redfin.com/CA/Burlingame/1566-Cypress-Ave-94010/home/1547998,MLSListings,ML81584100,N,Y,37.5727876,-122.3465196
PAST SALE,March-8-2016,Single Family Residential,124 Pepper Ave,BURLINGAME,CA,94010,2750000,3,2.5,BURLINGAME,2110,11900,1932,693,1303,,Sold,,,http://www.redfin.com/CA/Burlingame/124-Pepper-Ave-94010/home/1890609,MLSListings,ML81550337,N,Y,37.5715011,-122.3509597
PAST SALE,October-26-2016,Single Family Residential,141 Costa Rica Ave,BURLINGAME,CA,94010,2600000,5,4.5,BURLINGAME,3150,6420,2001,461,825,,Sold,,,http://www.redfin.com/CA/Burlingame/141-Costa-Rica-Ave-94010/home/1978664,MLSListings,ML81628867,N,Y,37.5727375,-122.3494515
PAST SALE,November-1-2016,Single Family Residential,1704 Barroilhet Ave,BURLINGAME,CA,94010,2401000,4,2.5,BURLINGAME,1904,4748,1937,455,1261,,Sold,,,http://www.redfin.com/CA/Burlingame/1704-Barroilhet-Ave-94010/home/1106915,MLSListings,ML81627595,N,Y,37.5709708,-122.3501089
PAST SALE,December-23-2016,Single Family Residential,1133 Palm Dr,BURLINGAME,CA,94010,2650000,5,3.0,BURLINGAME,3013,8680,1924,403,880,,Sold,,,http://www.redfin.com/CA/Burlingame/1133-Palm-Dr-94010/home/1897062,MLSListings,ML81631460,N,Y,37.582495,-122.354795
PAST SALE,May-6-2016,Single Family Residential,1108 Vancouver Ave,BURLINGAME,CA,94010,3250000,5,4.5,BURLINGAME,2960,6000,2002,634,1098,,Sold,,,http://www.redfin.com/CA/Burlingame/1108-Vancouver-Ave-94010/home/1170291,MLSListings,ML81578060,N,Y,37.57934,-122.367931
PAST SALE,,Single Family Residential,1704 Sebastian Dr,Burlingame,CA,94010,1850000,4,2.0,,2330,10605,1965,,794,,,,,http://www.redfin.com/CA/Burlingame/1704-Sebastian-Dr-94010/home/1972801,,,N,Y,37.5816859,-122.3948804
PAST SALE,February-18-2016,Single Family Residential,1810 Capistrano Way,BURLINGAME,CA,94010,1950000,4,2.5,BURLINGAME,2400,9844,1964,712,813,,Sold,,,http://www.redfin.com/CA/Burlingame/1810-Capistrano-Way-94010/home/1639076,MLSListings,ML81547083,N,Y,37.5831029,-122.3972635
PAST SALE,July-14-2017,Multi-Family (2-4 Unit),545 Rollins Rd,Burlingame,CA,94010,1242500,4,2.0,Burlingame,1597,5500,1944,200,778,,Sold,,,http://www.redfin.com/CA/Burlingame/545-Rollins-Rd-94010/home/2047391,San Francisco MLS,458024,N,Y,37.5865328,-122.3442295
PAST SALE,August-17-2017,Single Family Residential,800 Maple Ave,BURLINGAME,CA,94010,2225000,4,2.5,BURLINGAME,2040,6000,1928,166,1091,,Sold,,,http://www.redfin.com/CA/Burlingame/800-Maple-Ave-94010/home/1121522,MLSListings,ML81669926,N,Y,37.5856665,-122.3505238
PAST SALE,,Single Family Residential,514 Corbitt Dr,Burlingame,CA,94010,2000000,4,3.0,,2948,7500,1932,,678,,,,,http://www.redfin.com/CA/Burlingame/514-Corbitt-Dr-94010/home/687972,,,N,Y,37.5862692,-122.3487226
PAST SALE,October-18-2017,Single Family Residential,489 Bloomfield Rd,BURLINGAME,CA,94010,2225000,3,2.5,BURLINGAME,1801,5750,1949,104,1235,,Sold,,,http://www.redfin.com/CA/Burlingame/489-Bloomfield-Rd-94010/home/2024268,MLSListings,ML81677339,N,Y,37.5862721,-122.3447944
PAST SALE,November-2-2016,Condo/Co-op,835 N Humboldt St #312,SAN MATEO,CA,94401,510000,1,1.0,SAN MATEO,693,,1965,454,736,410,Sold,,,http://www.redfin.com/CA/San-Mateo/835-N-Humboldt-St-94401/unit-312/home/17308388,MLSListings,ML81626119,N,Y,37.5814613,-122.3305426
PAST SALE,April-19-2017,Condo/Co-op,845 Woodside Way #112,SAN MATEO,CA,94401,702112,2,2.0,SAN MATEO,894,,1982,286,785,346,Sold,,,http://www.redfin.com/CA/San-Mateo/845-Woodside-Way-94401/unit-112/home/2041733,MLSListings,ML81641755,N,Y,37.5774548,-122.3362262
PAST SALE,April-27-2017,Condo/Co-op,320 Peninsula Ave #322,SAN MATEO,CA,94401,637500,2,2.0,SAN MATEO,930,,1987,278,685,389,Sold,,,http://www.redfin.com/CA/San-Mateo/320-Peninsula-Ave-94401/unit-322/home/1053432,MLSListings,ML81635640,N,Y,37.5776793,-122.3377658
PAST SALE,June-30-2017,Condo/Co-op,821 N Humboldt St #308,SAN MATEO,CA,94401,912000,2,2.0,SAN MATEO,1204,1114920,1965,214,757,584,Sold,,,http://www.redfin.com/CA/San-Mateo/821-N-Humboldt-St-94401/unit-308/home/17308496,MLSListings,ML81651553,N,Y,37.580688,-122.331245
PAST SALE,,Condo/Co-op,821 N Humboldt St Apt 302,San Mateo,CA,94401,377000,1,1.0,,758,,1965,,497,,,,,http://www.redfin.com/CA/San-Mateo/821-N-Humboldt-St-94401/unit-302/home/17308433,,,N,Y,37.580688,-122.331245
PAST SALE,June-15-2017,Condo/Co-op,835 N Humboldt St #208,SAN MATEO,CA,94401,740000,2,1.0,SAN MATEO,903,1114920,1965,229,819,528,Sold,,,http://www.redfin.com/CA/San-Mateo/835-N-Humboldt-St-94401/unit-208/home/17308446,MLSListings,ML81651222,N,Y,37.5814613,-122.3305426
PAST SALE,July-20-2017,Single Family Residential,121 Victoria Rd,BURLINGAME,CA,94010,1900000,3,2.0,BURLINGAME,1670,6000,1925,194,1138,,Sold,,,http://www.redfin.com/CA/Burlingame/121-Victoria-Rd-94010/home/1460123,MLSListings,ML81667325,N,Y,37.5842949,-122.3339346
PAST SALE,,Single Family Residential,3 Victoria Rd,Burlingame,CA,94010,1645000,2,1.0,,1000,5184,1939,,1645,,,,,http://www.redfin.com/CA/Burlingame/3-Victoria-Rd-94010/home/1740176,,,N,Y,37.5825345,-122.3319191
PAST SALE,August-1-2017,Single Family Residential,2833 Rivera Dr,BURLINGAME,CA,94010,2400000,4,2.5,BURLINGAME,2050,11680,1959,182,1171,,Sold,,,http://www.redfin.com/CA/Burlingame/2833-Rivera-Dr-94010/home/1292440,MLSListings,ML81668849,Y,Y,37.5819698,-122.3934083
PAST SALE,,Single Family Residential,908 N Humboldt St,San Mateo,CA,94401,400000,2,1.0,,1190,7650,1925,,336,,,,,http://www.redfin.com/CA/San-Mateo/908-N-Humboldt-St-94401/home/1034598,,,N,Y,37.583632,-122.331056
PAST SALE,March-23-2017,Single Family Residential,10 Peninsula Ave,BURLINGAME,CA,94010,1450000,3,2.5,BURLINGAME,1530,5184,1925,313,948,,Sold,,,http://www.redfin.com/CA/Burlingame/10-Peninsula-Ave-94010/home/2052130,MLSListings,ML81638373,Y,Y,37.5828851,-122.3314244
PAST SALE,January-4-2018,Single Family Residential,208 Peninsula Ave,BURLINGAME,CA,94010,1840000,2,1.0,BURLINGAME,840,4876,1910,26,2190,,Sold,,,http://www.redfin.com/CA/Burlingame/208-Peninsula-Ave-94010/home/693342,MLSListings,ML81688010,N,Y,37.5818519,-122.3328954
PAST SALE,May-12-2017,Single Family Residential,216 Victoria Rd,BURLINGAME,CA,94010,1550000,2,1.0,BURLINGAME,1500,6250,1932,263,1033,,Sold,,,http://www.redfin.com/CA/Burlingame/216-Victoria-Rd-94010/home/1369012,MLSListings,ML81641654,Y,Y,37.5857339,-122.334879
PAST SALE,March-30-2017,Single Family Residential,7 El Camino Real,BURLINGAME,CA,94010,1525000,2,2.0,BURLINGAME,1440,5760,1920,306,1059,,Sold,,,http://www.redfin.com/CA/Burlingame/7-El-Camino-Real-94010/home/2056123,MLSListings,ML81639231,N,Y,37.574188,-122.34273
PAST SALE,April-14-2017,Single Family Residential,19 E Carol Ave,BURLINGAME,CA,94010,2850000,3,3.0,BURLINGAME,2096,6000,2013,291,1360,,Sold,,,http://www.redfin.com/CA/Burlingame/19-E-Carol-Ave-94010/home/1565048,MLSListings,ML81644557,N,Y,37.5740709,-122.3437054
PAST SALE,March-31-2016,Multi-Family (2-4 Unit),521-523 Rollins Rd,BURLINGAME,CA,94010,1150000,4,,BURLINGAME,1597,5500,1944,670,720,,Sold,,,http://www.redfin.com/CA/Burlingame/521-Rollins-Rd-94010/home/2036651,MLSListings,ML81546413,N,Y,37.5864913,-122.3433664
PAST SALE,,Condo/Co-op,828 N El Camino Real Unit 6 828,San Mateo,CA,94401,540000,1,1.0,,833,,1974,,648,,,,,http://www.redfin.com/CA/San-Mateo/828-N-El-Camino-Real-94401/unit-6-828/home/1922218,,,N,Y,37.5741317,-122.3413784
PAST SALE,July-7-2017,Single Family Residential,720 Burlingame Ave,BURLINGAME,CA,94010,2010000,2,1.0,BURLINGAME,1710,5000,1936,207,1175,,Sold,,,http://www.redfin.com/CA/Burlingame/720-Burlingame-Ave-94010/home/1107029,MLSListings,ML81654094,N,Y,37.5825655,-122.3417598
PAST SALE,October-5-2017,Condo/Co-op,107 El Camino Real #101,BURLINGAME,CA,94010,740000,1,1.0,BURLINGAME,819,,2000,117,904,484,Sold,,,http://www.redfin.com/CA/Burlingame/107-El-Camino-Real-94010/unit-101/home/1004822,MLSListings,ML81675497,N,Y,37.5751014,-122.3461273
PAST SALE,December-15-2017,Townhouse,38 Lorton Ave Unit B,BURLINGAME,CA,94010,1625000,3,2.5,BURLINGAME,1789,7500,1999,46,908,400,Sold,,,http://www.redfin.com/CA/Burlingame/38-Lorton-Ave-94010/unit-B/home/1438849,MLSListings,ML81683884,N,Y,37.5764787,-122.3426788
PAST SALE,November-27-2017,Condo/Co-op,30 Lorton Ave #303,BURLINGAME,CA,94010,1170000,2,2.0,BURLINGAME,1219,14900,1986,64,960,600,Sold,,,http://www.redfin.com/CA/Burlingame/30-Lorton-Ave-94010/unit-303/home/1688586,MLSListings,ML81683744,N,Y,37.5763309,-122.3425314
PAST SALE,June-30-2017,Condo/Co-op,828 N El Camino Real #6,SAN MATEO,CA,94401,540000,1,1.0,SAN MATEO,776,18759,1974,214,696,485,Sold,,,http://www.redfin.com/CA/San-Mateo/828-N-El-Camino-Real-94401/unit-6/home/113739559,MLSListings,ML81653173,N,Y,37.5741317,-122.3413784
PAST SALE,January-22-2018,Single Family Residential,434 Bloomfield Rd,BURLINGAME,CA,94010,2310000,2,2.0,BURLINGAME,1560,5000,1938,8,1481,,Sold,,,http://www.redfin.com/CA/Burlingame/434-Bloomfield-Rd-94010/home/691463,MLSListings,ML81689733,N,Y,37.5847737,-122.3425341
PAST SALE,December-26-2017,Single Family Residential,620 Trenton Way,BURLINGAME,CA,94010,2125000,3,2.0,BURLINGAME,1500,7750,1949,35,1417,,Sold,,,http://www.redfin.com/CA/Burlingame/620-Trenton-Way-94010/home/688873,MLSListings,ML81687790,N,Y,37.5862089,-122.3431918
PAST SALE,December-6-2017,Multi-Family (2-4 Unit),119 Highland Ave,BURLINGAME,CA,94010,3025000,5,,BURLINGAME,4899,7500,1908,55,617,,Sold,,,http://www.redfin.com/CA/Burlingame/119-Highland-Ave-94010/home/1292836,MLSListings,ML81674255,N,Y,37.5777342,-122.3432615
PAST SALE,July-22-2016,Single Family Residential,224 Channing Rd,BURLINGAME,CA,94010,1600000,2,2.0,BURLINGAME,1445,5749,1924,557,1107,,Sold,,,http://www.redfin.com/CA/Burlingame/224-Channing-Rd-94010/home/689932,MLSListings,ML81589760,N,Y,37.5849364,-122.3365697
PAST SALE,,Single Family Residential,1120 Dufferin Ave,Burlingame,CA,94010,1450000,3,2.0,,1510,5035,1942,,960,,,,,http://www.redfin.com/CA/Burlingame/1120-Dufferin-Ave-94010/home/1521499,,,N,Y,37.5935434,-122.3800073
PAST SALE,April-10-2017,Single Family Residential,916 Carolan Ave,BURLINGAME,CA,94010,1400000,2,1.0,BURLINGAME,1080,5760,1946,295,1296,,Sold,,,http://www.redfin.com/CA/Burlingame/916-Carolan-Ave-94010/home/1822045,MLSListings,ML81640193,N,Y,37.5855128,-122.3564657
PAST SALE,June-30-2017,Multi-Family (5+ Unit),1405 Bellevue Ave,BURLINGAME,CA,94010,4450000,0,,BURLINGAME,7663,5320,1928,214,581,,Sold,,,http://www.redfin.com/CA/Burlingame/1405-Bellevue-Ave-94010/home/687320,MLSListings,ML81652988,N,Y,37.5790733,-122.3503648
PAST SALE,June-22-2017,Single Family Residential,723 Crossway Rd,BURLINGAME,CA,94010,2550000,5,3.0,BURLINGAME,2870,6528,1924,222,889,,Sold,,,http://www.redfin.com/CA/Burlingame/723-Crossway-Rd-94010/home/687845,MLSListings,ML81651265,N,Y,37.5813381,-122.3539661
PAST SALE,August-31-2017,Single Family Residential,1021 Laguna Ave,BURLINGAME,CA,94010,1750500,2,2.0,BURLINGAME,1430,5750,1924,152,1224,,Sold,,,http://www.redfin.com/CA/Burlingame/1021-Laguna-Ave-94010/home/680051,MLSListings,ML81669885,N,Y,37.5846852,-122.3615087
PAST SALE,April-26-2017,Single Family Residential,1738 Manor Dr,HILLSBOROUGH,CA,94010,7500000,4,3.5,HILLSBOROUGH,4500,36590,1940,279,1667,,Sold,,,http://www.redfin.com/CA/Hillsborough/1738-Manor-Dr-94010/home/1875219,MLSListings,ML81648555,N,Y,37.578693,-122.362686
PAST SALE,,Single Family Residential,1493 Oak Grove Ave,Burlingame,CA,94010,1375000,2,1.0,,1190,4280,1925,,1155,,,,,http://www.redfin.com/CA/Burlingame/1493-Oak-Grove-Ave-94010/home/690349,,,N,Y,37.5789003,-122.3555738
PAST SALE,,Condo/Co-op,525 Almer Rd Apt 104,Burlingame,CA,94010,1160000,2,2.0,,1353,,1975,,857,,,,,http://www.redfin.com/CA/Burlingame/525-Almer-Rd-94010/unit-104/home/1235032,,,N,Y,37.5783309,-122.3532843
PAST SALE,,Condo/Co-op,525 Almer Rd #210,Burlingame,CA,94010,1070000,2,2.0,,1644,,1975,,651,,,,,http://www.redfin.com/CA/Burlingame/525-Almer-Rd-94010/unit-210/home/972351,,,N,Y,37.5783309,-122.3532843
PAST SALE,,Condo/Co-op,1209 Oak Grove Ave Apt 201,Burlingame,CA,94010,815000,2,2.0,,1011,,1979,,806,,,,,http://www.redfin.com/CA/Burlingame/1209-Oak-Grove-Ave-94010/unit-201/home/975450,,,N,Y,37.5816841,-122.3513601
PAST SALE,October-11-2017,Multi-Family (5+ Unit),1123 Chula Vista Ave,BURLINGAME,CA,94010,2950000,,,BURLINGAME,4144,5750,1957,111,712,,Sold,,,http://www.redfin.com/CA/Burlingame/1123-Chula-Vista-Ave-94010/home/679926,MLSListings,ML81675474,N,Y,37.5862388,-122.3632366
PAST SALE,September-19-2017,Single Family Residential,800 Alpine Ave,BURLINGAME,CA,94010,1751000,3,2.0,BURLINGAME,1458,5400,1940,133,1201,,Sold,,,http://www.redfin.com/CA/Burlingame/800-Alpine-Ave-94010/home/1641625,MLSListings,ML81673495,N,Y,37.5840732,-122.3529291
PAST SALE,July-14-2017,Single Family Residential,407 Occidental Ave,BURLINGAME,CA,94010,2575000,5,3.0,BURLINGAME,2550,5400,1920,200,1010,,Sold,,,http://www.redfin.com/CA/Burlingame/407-Occidental-Ave-94010/home/1658205,MLSListings,ML81651954,Y,Y,37.5759204,-122.3523848
PAST SALE,November-8-2017,Condo/Co-op,1427 Floribunda Ave #103,BURLINGAME,CA,94010,1230000,2,2.0,BURLINGAME,1732,26598,1974,83,710,454,Sold,,,http://www.redfin.com/CA/Burlingame/1427-Floribunda-Ave-94010/unit-103/home/970235,MLSListings,ML81682144,N,Y,37.5796704,-122.3521185
PAST SALE,November-13-2017,Condo/Co-op,1435 Bellevue Ave #202,BURLINGAME,CA,94010,1200000,2,2.0,BURLINGAME,1729,35965,1979,78,694,713,Sold,,,http://www.redfin.com/CA/Burlingame/1435-Bellevue-Ave-94010/unit-202/home/1374151,MLSListings,ML81680709,N,Y,37.578431,-122.3511056
PAST SALE,October-27-2017,Single Family Residential,714 Paloma Ave,BURLINGAME,CA,94010,1650000,3,2.0,BURLINGAME,1680,6650,1927,95,982,,Sold,,,http://www.redfin.com/CA/Burlingame/714-Paloma-Ave-94010/home/1503969,MLSListings,ML81679478,N,Y,37.5797949,-122.355935
PAST SALE,March-29-2017,Condo/Co-op,525 Almer Rd #312,BURLINGAME,CA,94010,1400000,2,2.0,BURLINGAME,1843,,1975,307,760,699,Sold,,,http://www.redfin.com/CA/Burlingame/525-Almer-Rd-94010/unit-312/home/112974418,MLSListings,ML81635831,N,Y,37.5783309,-122.3532843
PAST SALE,December-14-2017,Single Family Residential,711 Neuchatel Ave,BURLINGAME,CA,94010,1350000,2,1.0,BURLINGAME,1140,4500,1947,47,1184,,Sold,,,http://www.redfin.com/CA/Burlingame/711-Neuchatel-Ave-94010/home/1494769,MLSListings,ML81687099,N,Y,37.5816882,-122.3527358
PAST SALE,December-19-2017,Single Family Residential,616 Fairway Cir,HILLSBOROUGH,CA,94010,4570000,4,3.5,HILLSBOROUGH,2880,17500,1950,42,1587,,Sold,,,http://www.redfin.com/CA/Hillsborough/616-Fairway-Cir-94010/home/1265938,MLSListings,ML81680693,N,Y,37.576595,-122.3569894
PAST SALE,April-10-2017,Single Family Residential,1129 Killarney Ln,BURLINGAME,CA,94010,1275000,3,2.0,BURLINGAME,1500,5000,1941,295,850,,Sold,,,http://www.redfin.com/CA/Burlingame/1129-Killarney-Ln-94010/home/673530,MLSListings,ML81646233,N,Y,37.5927448,-122.3789965
PAST SALE,May-11-2017,Condo/Co-op,300 Murchison Dr #309,MILLBRAE,CA,94030,672500,1,1.0,MILLBRAE,734,72970,1989,264,916,432,Sold,,,http://www.redfin.com/CA/Millbrae/300-Murchison-Dr-94030/unit-309/home/2030389,MLSListings,ML81648892,N,Y,37.5948231,-122.3882851
PAST SALE,November-4-2016,Condo/Co-op,107 El Camino Real #104,BURLINGAME,CA,94010,1265000,3,3.0,BURLINGAME,1633,20384,2000,452,775,661,Sold,,,http://www.redfin.com/CA/Burlingame/107-El-Camino-Real-94010/unit-104/home/1301996,MLSListings,ML81626143,N,Y,37.5751014,-122.3461273
PAST SALE,April-14-2016,Single Family Residential,1520 Hoover Ave,BURLINGAME,CA,94010,2925000,4,2.5,BURLINGAME,2347,6000,1920,656,1246,,Sold,,,http://www.redfin.com/CA/Burlingame/1520-Hoover-Ave-94010/home/1376814,MLSListings,ML81562769,N,Y,37.5847079,-122.3809206
PAST SALE,March-20-2017,Single Family Residential,1120 Oxford Rd,BURLINGAME,CA,94010,1595000,2,1.0,BURLINGAME,1280,5950,1927,316,1246,,Sold,,,http://www.redfin.com/CA/Burlingame/1120-Oxford-Rd-94010/home/1869536,MLSListings,ML81637640,Y,Y,37.5908899,-122.3738076
PAST SALE,March-30-2017,Single Family Residential,1461 Bernal Ave,BURLINGAME,CA,94010,3120000,4,3.0,BURLINGAME,2484,6000,2007,306,1256,,Sold,,,http://www.redfin.com/CA/Burlingame/1461-Bernal-Ave-94010/home/1107698,MLSListings,ML81642737,Y,Y,37.5851409,-122.3774202
PAST SALE,April-5-2017,Single Family Residential,1812 Sanchez Ave,BURLINGAME,CA,94010,2184500,3,2.5,BURLINGAME,2362,5600,1920,300,925,,Sold,,,http://www.redfin.com/CA/Burlingame/1812-Sanchez-Ave-94010/home/2036590,MLSListings,ML81640838,Y,Y,37.5799476,-122.3653801
PAST SALE,April-18-2017,Single Family Residential,1357 Bernal Ave,BURLINGAME,CA,94010,1825000,3,1.0,BURLINGAME,1520,6000,1907,287,1201,,Sold,,,http://www.redfin.com/CA/Burlingame/1357-Bernal-Ave-94010/home/1404183,MLSListings,ML81643831,Y,Y,37.5832648,-122.3740527
PAST SALE,April-20-2017,Single Family Residential,1116 Oxford Rd,BURLINGAME,CA,94010,2700000,4,3.5,BURLINGAME,2810,5900,1929,285,961,,Sold,,,http://www.redfin.com/CA/Burlingame/1116-Oxford-Rd-94010/home/1935060,MLSListings,ML81643821,N,Y,37.5910141,-122.3737583
PAST SALE,May-24-2017,Single Family Residential,1423 Balboa Ave,BURLINGAME,CA,94010,3450000,5,4.5,BURLINGAME,2984,6000,2002,251,1156,,Sold,,,http://www.redfin.com/CA/Burlingame/1423-Balboa-Ave-94010/home/1012225,MLSListings,ML81648771,N,Y,37.5871246,-122.3737697
PAST SALE,July-14-2017,Single Family Residential,1280 Balboa Ave,BURLINGAME,CA,94010,2300000,5,3.0,BURLINGAME,2700,6100,1915,200,852,,Sold,,,http://www.redfin.com/CA/Burlingame/1280-Balboa-Ave-94010/home/1210432,MLSListings,ML81653272,N,Y,37.5853168,-122.369647
PAST SALE,,Single Family Residential,1255 Jackling Dr,Hillsborough,CA,94010,2335000,3,2.0,,2130,10192,1951,,1096,,,,,http://www.redfin.com/CA/Hillsborough/1255-Jackling-Dr-94010/home/2058844,,,Y,Y,37.580982,-122.372119
PAST SALE,May-12-2017,Single Family Residential,1800 Castenada Dr,BURLINGAME,CA,94010,2125000,3,2.0,BURLINGAME,2175,8360,1957,263,977,,Sold,,,http://www.redfin.com/CA/Burlingame/1800-Castenada-Dr-94010/home/1581482,MLSListings,ML81637027,N,Y,37.5873059,-122.3901095
PAST SALE,July-14-2017,Other,1312 El Camino Real,BURLINGAME,CA,94010,3675000,7,,BURLINGAME,8147,6950,1986,200,451,,Sold,,,http://www.redfin.com/CA/Burlingame/1312-El-Camino-Real-94010/home/2031456,MLSListings,ML81648430,N,Y,37.586234,-122.369196
PAST SALE,May-26-2017,Single Family Residential,1327 Castillo Ave,BURLINGAME,CA,94010,2150000,3,1.5,BURLINGAME,1650,6000,1941,249,1303,,Sold,,,http://www.redfin.com/CA/Burlingame/1327-Castillo-Ave-94010/home/2053125,MLSListings,ML81648623,Y,Y,37.5801083,-122.3774248
PAST SALE,August-11-2017,Single Family Residential,1440 Cabrillo Ave,BURLINGAME,CA,94010,3925000,5,4.5,BURLINGAME,2980,6000,2013,172,1317,,Sold,,,http://www.redfin.com/CA/Burlingame/1440-Cabrillo-Ave-94010/home/678154,MLSListings,ML81668936,Y,Y,37.5863995,-122.3752586
PAST SALE,June-3-2017,Single Family Residential,1596 Columbus Ave,BURLINGAME,CA,94010,2850000,4,3.0,BURLINGAME,2975,6252,2012,241,958,,Sold,,,http://www.redfin.com/CA/Burlingame/1596-Columbus-Ave-94010/home/2010915,MLSListings,ML81653960,Y,Y,37.585432,-122.382673
PAST SALE,August-8-2017,Single Family Residential,1547 Drake Ave,BURLINGAME,CA,94010,3000000,4,4.5,BURLINGAME,2557,6000,2005,175,1173,,Sold,,,http://www.redfin.com/CA/Burlingame/1547-Drake-Ave-94010/home/1664419,MLSListings,ML81668033,Y,Y,37.5870595,-122.3791224
PAST SALE,August-28-2017,Single Family Residential,1625 Marco Polo Way,BURLINGAME,CA,94010,1601000,2,1.0,BURLINGAME,1360,5500,1948,155,1177,,Sold,,,http://www.redfin.com/CA/Burlingame/1625-Marco-Polo-Way-94010/home/670757,MLSListings,ML81654242,N,Y,37.5888785,-122.3819306
PAST SALE,August-23-2017,Condo/Co-op,1217 Paloma Ave #5,BURLINGAME,CA,94010,825000,2,1.0,BURLINGAME,902,6000,1968,160,915,269,Sold,,,http://www.redfin.com/CA/Burlingame/1217-Paloma-Ave-94010/unit-5/home/17308254,MLSListings,ML81670780,N,Y,37.5858094,-122.3660664
PAST SALE,June-20-2017,Single Family Residential,2301 Valdivia Way,BURLINGAME,CA,94010,2850000,3,2.0,BURLINGAME,2500,29000,1954,224,1140,,Sold,,,http://www.redfin.com/CA/Burlingame/2301-Valdivia-Way-94010/home/2053097,MLSListings,ML81651443,N,Y,37.5859985,-122.3830077
PAST SALE,,Single Family Residential,2202 Summit Dr,Hillsborough,CA,94010,1375000,4,5.0,,3917,109854,1975,,351,,,,,http://www.redfin.com/CA/Hillsborough/2202-Summit-Dr-94010/home/143944523,,,N,Y,37.5763033,-122.3832878
PAST SALE,September-11-2017,Single Family Residential,1452 Bernal Ave,BURLINGAME,CA,94010,2375000,3,2.0,BURLINGAME,1750,6000,1924,141,1357,,Sold,,,http://www.redfin.com/CA/Burlingame/1452-Bernal-Ave-94010/home/674743,MLSListings,ML81677406,N,Y,37.5853295,-122.3768648
PAST SALE,September-28-2017,Single Family Residential,12 Belvedere Ct,BURLINGAME,CA,94010,2880000,4,2.5,BURLINGAME,2480,17250,1961,124,1161,,Sold,,,http://www.redfin.com/CA/Burlingame/12-Belvedere-Ct-94010/home/1908208,MLSListings,ML81678211,N,Y,37.5761654,-122.3819145
PAST SALE,November-7-2017,Single Family Residential,2555 Summit Dr,HILLSBOROUGH,CA,94010,3600000,4,3.0,HILLSBOROUGH,3570,40761,1968,84,1008,,Sold,,,http://www.redfin.com/CA/Hillsborough/2555-Summit-Dr-94010/home/1292738,MLSListings,ML81676670,N,Y,37.5740059,-122.3816206
PAST SALE,November-3-2017,Single Family Residential,1510 Ray Dr,BURLINGAME,CA,94010,2600000,4,3.0,BURLINGAME,2320,5400,1947,88,1121,,Sold,,,http://www.redfin.com/CA/Burlingame/1510-Ray-Dr-94010/home/1304386,MLSListings,ML81677093,N,Y,37.590421,-122.3786211
PAST SALE,May-18-2017,Single Family Residential,2750 El Prado Rd,BURLINGAME,CA,94010,2038880,4,4.0,BURLINGAME,2341,25650,1966,257,871,,Sold,,,http://www.redfin.com/CA/Burlingame/2750-El-Prado-Rd-94010/home/1875243,MLSListings,ML81646081,N,Y,37.5736658,-122.3878122
PAST SALE,December-27-2017,Single Family Residential,951 Baileyana Rd,HILLSBOROUGH,CA,94010,4525000,3,4.5,HILLSBOROUGH,3030,10000,1929,34,1493,,Sold,,,http://www.redfin.com/CA/Hillsborough/951-Baileyana-Rd-94010/home/1514076,MLSListings,ML81686098,Y,Y,37.5762818,-122.3768487
PAST SALE,November-13-2017,Single Family Residential,2300 Poppy Dr,BURLINGAME,CA,94010,3330000,4,3.5,BURLINGAME,4130,4998,1925,78,806,,Sold,,,http://www.redfin.com/CA/Burlingame/2300-Poppy-Dr-94010/home/2057072,MLSListings,ML81681480,Y,Y,37.5840113,-122.3793032
PAST SALE,January-5-2018,Single Family Residential,21 Hayward Ct,BURLINGAME,CA,94010,3170000,4,2.5,BURLINGAME,2546,15840,1949,25,1245,,Sold,,,http://www.redfin.com/CA/Burlingame/21-Hayward-Ct-94010/home/2054967,MLSListings,ML81684433,N,Y,37.5850894,-122.3852329
PAST SALE,,Townhouse,1137 Paloma Ave #1,Burlingame,CA,94010,1320000,2,2.0,,1402,17250,2007,,942,,,,,http://www.redfin.com/CA/Burlingame/1137-Paloma-Ave-94010/unit-1/home/17307286,,,N,Y,37.5851002,-122.3647734
PAST SALE,June-13-2017,Single Family Residential,340 Occidental Ave,BURLINGAME,CA,94010,2778000,3,2.5,BURLINGAME,2620,6156,1925,231,1060,,Sold,,,http://www.redfin.com/CA/Burlingame/340-Occidental-Ave-94010/home/1514027,MLSListings,ML81651150,Y,Y,37.5754248,-122.3514229
PAST SALE,,Condo/Co-op,80 El Camino Real Apt A,Burlingame,CA,94010,730000,2,1.0,,884,,1972,,826,,,,,http://www.redfin.com/CA/Burlingame/80-El-Camino-Real-94010/unit-A/home/965184,,,N,Y,37.575212,-122.344497
PAST SALE,,Single Family Residential,30 Country Club Dr,Hillsborough,CA,94010,3086500,3,3.0,,2910,25500,1956,,1061,,,,,http://www.redfin.com/CA/Hillsborough/30-Country-Club-Dr-94010/home/1589967,,,N,Y,37.5725236,-122.3547252
PAST SALE,,Single Family Residential,2050 Ralston Ave,Hillsborough,CA,94010,1500000,3,2.0,,3020,22275,1959,,497,,,,,http://www.redfin.com/CA/Hillsborough/2050-Ralston-Ave-94010/home/2054067,,,N,Y,37.57194,-122.3557314
PAST SALE,June-7-2017,Single Family Residential,1516 Howard Ave,BURLINGAME,CA,94010,4328000,5,5.5,BURLINGAME,3515,7008,1933,237,1231,,Sold,,,http://www.redfin.com/CA/Burlingame/1516-Howard-Ave-94010/home/1791256,MLSListings,ML81651183,Y,Y,37.5751768,-122.3482021
PAST SALE,November-7-2017,Single Family Residential,1640 Barroilhet Ave,BURLINGAME,CA,94010,2300000,3,2.0,BURLINGAME,1730,7500,1952,84,1329,,Sold,,,http://www.redfin.com/CA/Burlingame/1640-Barroilhet-Ave-94010/home/1282850,MLSListings,ML81679040,Y,Y,37.5715079,-122.3488716
PAST SALE,November-17-2017,Single Family Residential,503 Barroilhet Ave,SAN MATEO,CA,94402,2900000,4,2.5,SAN MATEO,2450,5185,1925,74,1184,,Sold,,,http://www.redfin.com/CA/San-Mateo/503-Barroilhet-Ave-94402/home/1751250,MLSListings,ML81678948,N,Y,37.5706605,-122.3496932
PAST SALE,April-21-2017,Single Family Residential,320 Clarendon Rd,BURLINGAME,CA,94010,2630000,4,2.0,BURLINGAME,2470,7650,1949,284,1065,,Sold,,,http://www.redfin.com/CA/Burlingame/320-Clarendon-Rd-94010/home/2024278,MLSListings,ML81643895,Y,Y,37.5843856,-122.3401705
PAST SALE,July-3-2017,Single Family Residential,304 Bayswater Ave,BURLINGAME,CA,94010,1875000,3,1.5,BURLINGAME,1490,4692,1929,211,1258,,Sold,,,http://www.redfin.com/CA/Burlingame/304-Bayswater-Ave-94010/home/690942,MLSListings,ML81668381,N,Y,37.5827636,-122.334949
PAST SALE,,Single Family Residential,521 Burlingame Ave,Burlingame,CA,94010,1350000,2,1.0,,1370,5800,1936,,985,,,,,http://www.redfin.com/CA/Burlingame/521-Burlingame-Ave-94010/home/2052126,,,N,Y,37.5835778,-122.3394789
PAST SALE,,Single Family Residential,13 Humboldt Rd,Burlingame,CA,94010,1650000,3,2.0,,1240,6000,1922,,1331,,,,,http://www.redfin.com/CA/Burlingame/13-Humboldt-Rd-94010/home/1935184,,,N,Y,37.5833576,-122.3314745
PAST SALE,September-29-2017,Single Family Residential,333 Clarendon Rd,BURLINGAME,CA,94010,2015000,3,2.0,BURLINGAME,1740,5250,1948,123,1158,,Sold,,,http://www.redfin.com/CA/Burlingame/333-Clarendon-Rd-94010/home/2033674,MLSListings,ML81675251,Y,Y,37.5844164,-122.3408751
PAST SALE,June-23-2017,Single Family Residential,125 Bancroft Rd,BURLINGAME,CA,94010,2450000,3,2.5,BURLINGAME,1876,5750,1922,221,1306,,Sold,,,http://www.redfin.com/CA/Burlingame/125-Bancroft-Rd-94010/home/1598319,MLSListings,ML81652312,Y,Y,37.5838895,-122.3348713
PAST SALE,,Single Family Residential,2683 Summit Dr,Hillsborough,CA,94010,1800000,3,2.0,,1670,10500,1952,,1078,,,,,http://www.redfin.com/CA/Hillsborough/2683-Summit-Dr-94010/home/1368933,,,N,Y,37.5748083,-122.3851938
PAST SALE,,Single Family Residential,118 Loma Vista Dr,Burlingame,CA,94010,1350000,2,1.0,,1190,6175,1946,,1134,,,,,http://www.redfin.com/CA/Burlingame/118-Loma-Vista-Dr-94010/home/1641486,,,N,Y,37.571622,-122.3958738
PAST SALE,,Single Family Residential,1500 Los Altos Dr,Burlingame,CA,94010,4200000,5,5.0,,3958,10400,2017,,1061,,,,,http://www.redfin.com/CA/Burlingame/1500-Los-Altos-Dr-94010/home/1247119,,,N,Y,37.5736455,-122.3954479
PAST SALE,September-1-2017,Single Family Residential,3131 Rivera Dr,BURLINGAME,CA,94010,1988888,4,2.5,BURLINGAME,2410,8700,1964,151,825,,Sold,,,http://www.redfin.com/CA/Burlingame/3131-Rivera-Dr-94010/home/1946005,MLSListings,ML81653025,N,Y,37.5772333,-122.3981551
PAST SALE,April-17-2017,Single Family Residential,2817 Hillside Dr,BURLINGAME,CA,94010,2960000,4,3.0,BURLINGAME,3145,10088,1928,288,941,,Sold,,,http://www.redfin.com/CA/Burlingame/2817-Hillside-Dr-94010/home/1265866,MLSListings,ML81641387,N,Y,37.5786307,-122.3821932
PAST SALE,September-30-2016,Single Family Residential,914 Capuchino Ave,BURLINGAME,CA,94010,1620000,4,2.5,BURLINGAME,1720,4830,1928,487,942,,Sold,,,http://www.redfin.com/CA/Burlingame/914-Capuchino-Ave-94010/home/675584,MLSListings,ML81600707,N,Y,37.5826482,-122.3599736
PAST SALE,October-7-2016,Single Family Residential,1029 Paloma Ave,BURLINGAME,CA,94010,1385000,2,2.0,BURLINGAME,1230,5749,1925,480,1126,,Sold,,,http://www.redfin.com/CA/Burlingame/1029-Paloma-Ave-94010/home/1395278,MLSListings,ML81600809,N,Y,37.5840825,-122.3622891
PAST SALE,February-12-2016,Single Family Residential,1035 Chula Vista Ave,BURLINGAME,CA,94010,1920000,4,2.0,BURLINGAME,1958,5750,1921,718,981,,Sold,,,http://www.redfin.com/CA/Burlingame/1035-Chula-Vista-Ave-94010/home/680003,MLSListings,ML81547938,Y,Y,37.5856291,-122.3616794
PAST SALE,,Townhouse,808 El Camino Real #9,Burlingame,CA,94010,1150000,3,2.0,,1694,20354,2002,,679,,,,,http://www.redfin.com/CA/Burlingame/808-El-Camino-Real-94010/unit-9/home/1581039,,,N,Y,37.5807375,-122.3597109
PAST SALE,June-17-2016,Single Family Residential,836 Newhall Rd,BURLINGAME,CA,94010,3700000,5,4.5,BURLINGAME,4495,8459,2006,592,823,,Sold,,,http://www.redfin.com/CA/Burlingame/836-Newhall-Rd-94010/home/1467986,MLSListings,ML81578791,N,Y,37.5796118,-122.3612943
PAST SALE,,Multi-Family (2-4 Unit),1011 Capuchino Ave,Burlingame,CA,94010,1998000,6,4.0,,3800,9800,1925,,526,,,,,http://www.redfin.com/CA/Burlingame/1011-Capuchino-Ave-94010/home/1431768,,,N,Y,37.583,-122.362229
PAST SALE,,Single Family Residential,909 Laguna Ave,Burlingame,CA,94010,1600000,4,3.0,,2368,5750,1925,,676,,,,,http://www.redfin.com/CA/Burlingame/909-Laguna-Ave-94010/home/1987229,,,N,Y,37.5835272,-122.3588298
PAST SALE,November-28-2016,Condo/Co-op,1515 Arc Way #306,BURLINGAME,CA,94010,820000,2,2.0,BURLINGAME,1176,26397,1973,428,697,325,Sold,,,http://www.redfin.com/CA/Burlingame/1515-Arc-Way-94010/unit-306/home/1114540,MLSListings,ML81626932,N,Y,37.5797414,-122.3589724
PAST SALE,August-16-2016,Single Family Residential,1344 Edgehill Dr,BURLINGAME,CA,94010,1450000,3,3.0,BURLINGAME,1530,5318,1925,532,948,,Sold,,,http://www.redfin.com/CA/Burlingame/1344-Edgehill-Dr-94010/home/688693,MLSListings,ML81589555,N,Y,37.5824231,-122.3596767
PAST SALE,January-10-2017,Single Family Residential,845 Paloma Ave,BURLINGAME,CA,94010,1380000,2,1.0,BURLINGAME,1429,4700,1924,385,966,,Sold,,,http://www.redfin.com/CA/Burlingame/845-Paloma-Ave-94010/home/1983058,MLSListings,ML81632998,N,Y,37.5818736,-122.3587057
PAST SALE,March-7-2017,Multi-Family (2-4 Unit),1020/1022 Paloma Ave,BURLINGAME,CA,94010,2071000,4,,BURLINGAME,2300,5750,1987,329,900,,Sold,,,http://www.redfin.com/CA/Burlingame/1022-Paloma-Ave-94010/home/113739900,MLSListings,ML81639263,N,Y,37.5843297,-122.3618276
PAST SALE,,Condo/Co-op,51 El Camino Real Apt C,Burlingame,CA,94010,809000,2,2.5,,1136,,1999,,712,,,,,http://www.redfin.com/CA/Burlingame/51-El-Camino-Real-94010/unit-C/home/1002715,,,N,Y,37.574689,-122.344398
PAST SALE,November-2-2016,Condo/Co-op,1550 Frontera Way #212,MILLBRAE,CA,94030,700000,2,2.0,MILLBRAE,1150,,1973,454,609,470,Sold,,,http://www.redfin.com/CA/Millbrae/1550-Frontera-Way-94030/unit-212/home/948777,MLSListings,ML81595247,N,Y,37.5827529,-122.402997
PAST SALE,November-4-2016,Condo/Co-op,928 Peninsula Ave #406,SAN MATEO,CA,94401,436000,0,1.0,SAN MATEO,473,,1965,452,922,295,Sold,,,http://www.redfin.com/CA/San-Mateo/928-Peninsula-Ave-94401/unit-406/home/17308167,MLSListings,ML81614804,N,Y,37.580688,-122.331245
PAST SALE,July-10-2016,Condo/Co-op,932 Peninsula Ave #212,SAN MATEO,CA,94401,430000,1,1.0,SAN MATEO,473,,1965,569,909,286,Sold,,,http://www.redfin.com/CA/San-Mateo/932-Peninsula-Ave-94401/unit-212/home/17308206,MLSListings,ML81579962,N,Y,37.580688,-122.331245
PAST SALE,,Condo/Co-op,821 N Humboldt St Apt 209,San Mateo,CA,94401,450000,1,1.0,,693,,1965,,649,,,,,http://www.redfin.com/CA/San-Mateo/821-N-Humboldt-St-94401/unit-209/home/17308436,,,N,Y,37.580688,-122.331245
PAST SALE,,Condo/Co-op,847 N Humboldt St Apt 317,San Mateo,CA,94401,740000,2,2.0,,1204,,1965,,615,,,,,http://www.redfin.com/CA/San-Mateo/847-N-Humboldt-St-94401/unit-317/home/17308325,,,N,Y,37.580688,-122.331245
PAST SALE,,Condo/Co-op,904 Peninsula Ave Apt 404,San Mateo,CA,94401,470000,1,1.0,,758,,1965,,620,,,,,http://www.redfin.com/CA/San-Mateo/904-Peninsula-Ave-94401/unit-404/home/17171457,,,N,Y,37.582056,-122.3322199
PAST SALE,August-29-2016,Condo/Co-op,904 Peninsula Ave #412,SAN MATEO,CA,94401,720000,2,2.0,SAN MATEO,1204,,1965,519,598,583,Sold,,,http://www.redfin.com/CA/San-Mateo/904-Peninsula-Ave-94401/unit-412/home/17308314,MLSListings,ML81594285,N,Y,37.582056,-122.3322199
PAST SALE,April-25-2016,Single Family Residential,14 Victoria Rd,BURLINGAME,CA,94010,1375000,2,1.0,BURLINGAME,910,5998,1927,645,1511,,Sold,,,http://www.redfin.com/CA/Burlingame/14-Victoria-Rd-94010/home/1159477,MLSListings,ML81566031,Y,Y,37.583053,-122.3319488
PAST SALE,March-31-2016,Single Family Residential,1136 Dufferin Ave,BURLINGAME,CA,94010,1250000,2,1.0,BURLINGAME,1050,5035,1942,670,1190,,Sold,,,http://www.redfin.com/CA/Burlingame/1136-Dufferin-Ave-94010/home/1547884,MLSListings,ML81550064,N,Y,37.5930238,-122.3803628
PAST SALE,July-28-2016,Single Family Residential,106 Peninsula Ave,SAN MATEO,CA,94401,1575000,3,2.0,SAN MATEO,1730,7124,1917,551,910,,Sold,,,http://www.redfin.com/CA/San-Mateo/106-Peninsula-Ave-94401/home/1855609,MLSListings,ML81592062,N,Y,37.5753148,-122.3414251
PAST SALE,February-23-2017,Condo/Co-op,320 Peninsula Ave #421,SAN MATEO,CA,94401,655000,2,2.0,SAN MATEO,930,,1987,341,704,389,Sold,,,http://www.redfin.com/CA/San-Mateo/320-Peninsula-Ave-94401/unit-421/home/1989580,MLSListings,ML81630115,N,Y,37.5776793,-122.3377658
PAST SALE,February-15-2017,Multi-Family (2-4 Unit),1283 El Camino Real,BURLINGAME,CA,94010,1480000,2,,BURLINGAME,2310,5439,1941,349,641,,Sold,,,http://www.redfin.com/CA/Burlingame/1283-El-Camino-Real-94010/home/679323,MLSListings,ML81635230,N,Y,37.585648,-122.369312
PAST SALE,June-20-2016,Single Family Residential,13 Victoria Rd,BURLINGAME,CA,94010,1330000,2,1.0,BURLINGAME,850,6000,1925,589,1565,,Sold,,,http://www.redfin.com/CA/Burlingame/13-Victoria-Rd-94010/home/1843694,MLSListings,ML81587509,N,Y,37.5828136,-122.3322661
PAST SALE,,Condo/Co-op,932 Peninsula Ave Apt 214,San Mateo,CA,94401,430000,1,1.0,,758,,1965,,567,,,,,http://www.redfin.com/CA/San-Mateo/932-Peninsula-Ave-94401/unit-214/home/17308175,,,N,Y,37.580688,-122.331245
PAST SALE,October-25-2017,Townhouse,1137 Paloma Ave Unit I,BURLINGAME,CA,94010,1320000,2,2.5,BURLINGAME,1402,17250,2007,97,942,390,Sold,,,http://www.redfin.com/CA/Burlingame/1137-Paloma-Ave-94010/unit-I/home/28511479,MLSListings,ML81678904,N,Y,37.5851002,-122.3647734
PAST SALE,,Single Family Residential,101 Occidental Ave,Burlingame,CA,94010,1825000,3,1.0,,1624,7584,1936,,1124,,,,,http://www.redfin.com/CA/Burlingame/101-Occidental-Ave-94010/home/684323,,,N,Y,37.5710649,-122.3498672
PAST SALE,July-1-2016,Single Family Residential,1645 Mcdonald Way,BURLINGAME,CA,94010,2130000,3,2.0,BURLINGAME,2080,5501,1950,578,1024,,Sold,,,http://www.redfin.com/CA/Burlingame/1645-Mcdonald-Way-94010/home/1547650,MLSListings,ML81588160,Y,Y,37.5887117,-122.3831743
PAST SALE,August-26-2016,Condo/Co-op,853 Woodside Way #129,SAN MATEO,CA,94401,560000,1,1.0,SAN MATEO,687,,1982,522,815,339,Sold,,,http://www.redfin.com/CA/San-Mateo/853-Woodside-Way-94401/unit-129/home/1620200,MLSListings,ML81595632,N,Y,37.5777758,-122.336975
PAST SALE,August-5-2016,Condo/Co-op,847 N Humboldt St #203,SAN MATEO,CA,94401,415000,0,1.0,SAN MATEO,492,,1965,543,843,286,Sold,,,http://www.redfin.com/CA/San-Mateo/847-N-Humboldt-St-94401/unit-203/home/17308076,MLSListings,ML81593960,N,Y,37.580688,-122.331245
PAST SALE,May-5-2016,Condo/Co-op,934 Peninsula Ave #201,SAN MATEO,CA,94401,530000,1,1.0,SAN MATEO,693,,1965,635,765,399,Sold,,,http://www.redfin.com/CA/San-Mateo/934-Peninsula-Ave-94401/unit-201/home/17059733,MLSListings,ML81579235,N,Y,37.580688,-122.331245
PAST SALE,October-14-2016,Single Family Residential,102 Victoria Rd,BURLINGAME,CA,94010,2200000,3,3.0,BURLINGAME,2360,4896,1950,473,932,,Sold,,,http://www.redfin.com/CA/Burlingame/102-Victoria-Rd-94010/home/1247315,MLSListings,ML81613155,N,Y,37.5840332,-122.3330925
PAST SALE,May-10-2016,Townhouse,15 Highland Ave #2,BURLINGAME,CA,94010,995000,2,2.5,BURLINGAME,1200,7500,1982,630,829,350,Sold,,,http://www.redfin.com/CA/Burlingame/15-Highland-Ave-94010/unit-2/home/1894321,MLSListings,ML81577799,N,Y,37.5762358,-122.3417279
PAST SALE,June-29-2016,Condo/Co-op,27 El Camino Real #2,BURLINGAME,CA,94010,850000,2,1.5,BURLINGAME,1130,6000,1983,580,752,250,Sold,,,http://www.redfin.com/CA/Burlingame/27-El-Camino-Real-94010/unit-2/home/978484,MLSListings,ML81586380,N,Y,37.574404,-122.343549
PAST SALE,November-11-2016,Condo/Co-op,51 El Camino Real Unit C,BURLINGAME,CA,94010,808500,2,2.5,BURLINGAME,1136,6808,1999,445,712,225,Sold,,,http://www.redfin.com/CA/Burlingame/51-El-Camino-Real-94010/unit-C/home/113739476,MLSListings,ML81626234,N,Y,37.574689,-122.344398
PAST SALE,February-2-2016,Single Family Residential,1521 Cabrillo Ave,BURLINGAME,CA,94010,4250000,5,4.5,BURLINGAME,4000,16942,2015,728,1063,,Sold,,,http://www.redfin.com/CA/Burlingame/1521-Cabrillo-Ave-94010/home/674808,MLSListings,ML81534868,Y,Y,37.5875262,-122.3783357
PAST SALE,March-18-2016,Single Family Residential,1621 Balboa Way,BURLINGAME,CA,94010,2655000,4,3.5,BURLINGAME,3020,5500,1970,683,879,,Sold,,,http://www.redfin.com/CA/Burlingame/1621-Balboa-Ave-94010/home/1773260,MLSListings,ML81562468,Y,Y,37.590265,-122.379923
PAST SALE,March-29-2016,Condo/Co-op,1800 Trousdale Dr #202,BURLINGAME,CA,94010,1000000,2,2.0,BURLINGAME,1275,24000,2015,672,784,438,Sold,,,http://www.redfin.com/CA/Burlingame/1800-Trousdale-Dr-94010/unit-202/home/103854706,MLSListings,ML81550928,N,Y,37.5927158,-122.3856679
PAST SALE,February-27-2017,Single Family Residential,1423 Paloma Ave,BURLINGAME,CA,94010,2750000,3,3.0,BURLINGAME,2523,6000,2012,337,1090,,Sold,,,http://www.redfin.com/CA/Burlingame/1423-Paloma-Ave-94010/home/1675184,MLSListings,ML81638543,Y,Y,37.5886955,-122.3709534
PAST SALE,May-13-2016,Single Family Residential,1601 Broadway Ave,BURLINGAME,CA,94010,1935000,3,2.0,BURLINGAME,1700,5998,1906,627,1138,,Sold,,,http://www.redfin.com/CA/Burlingame/1601-Broadway-94010/home/679400,MLSListings,ML81579236,Y,Y,37.5832093,-122.3668309
PAST SALE,March-11-2016,Multi-Family (5+ Unit),1225 Laguna Ave,BURLINGAME,CA,94010,2400000,6,,BURLINGAME,4844,6000,1964,690,495,,Sold,,,http://www.redfin.com/CA/Burlingame/1225-Laguna-Ave-94010/home/1539206,MLSListings,ML81515547,N,Y,37.5866011,-122.3657589
PAST SALE,,Condo/Co-op,1226 El Camino Real Apt 402,Burlingame,CA,94010,927500,2,2.0,,1500,,2010,,618,,,,,http://www.redfin.com/CA/Burlingame/1226-El-Camino-Real-94010/unit-402/home/28639922,,,N,Y,37.5850025,-122.367363
PAST SALE,September-13-2016,Condo/Co-op,847 Woodside Way #118,SAN MATEO,CA,94401,622000,2,1.0,SAN MATEO,847,,1982,504,734,339,Sold,,,http://www.redfin.com/CA/San-Mateo/847-Woodside-Way-94401/unit-118/home/1738590,MLSListings,ML81593841,N,Y,37.577362,-122.336755
PAST SALE,,Condo/Co-op,1512 Floribunda Ave Apt 402,Burlingame,CA,94010,2500000,2,2.0,,1941,,2008,,1288,,,,,http://www.redfin.com/CA/Burlingame/1512-Floribunda-Ave-94010/unit-402/home/21967646,,,N,Y,37.5790026,-122.3546679
PAST SALE,,Condo/Co-op,525 Almer Rd Apt 312,Burlingame,CA,94010,1400000,2,2.0,,1843,,1975,,760,,,,,http://www.redfin.com/CA/Burlingame/525-Almer-Rd-94010/unit-312/home/970946,,,N,Y,37.5783309,-122.3532843
PAST SALE,March-29-2017,Condo/Co-op,530 El Camino Real #309,BURLINGAME,CA,94010,930000,2,2.0,BURLINGAME,1268,42608,2000,307,733,321,Sold,,,http://www.redfin.com/CA/Burlingame/530-El-Camino-Real-94010/unit-309/home/1004819,MLSListings,ML81636052,N,Y,37.5778647,-122.3539293
PAST SALE,,Single Family Residential,90 Country Club Dr,Hillsborough,CA,94010,5600000,5,4.0,,3950,23436,2001,,1418,,,,,http://www.redfin.com/CA/Hillsborough/90-Country-Club-Dr-94010/home/1348236,,,N,Y,37.5744485,-122.3548014
PAST SALE,June-28-2017,Single Family Residential,1515 Willow Ave,BURLINGAME,CA,94010,1900000,2,1.0,BURLINGAME,1560,7750,1919,216,1218,,Sold,,,http://www.redfin.com/CA/Burlingame/1515-Willow-Ave-94010/home/2054983,MLSListings,ML81653678,N,Y,37.5791185,-122.3582439
PAST SALE,June-29-2017,Single Family Residential,905 Rose Ct,BURLINGAME,CA,94010,1500000,2,2.0,BURLINGAME,1450,5394,1940,215,1034,,Sold,,,http://www.redfin.com/CA/Burlingame/905-Rose-Ct-94010/home/678809,MLSListings,ML81651224,N,Y,37.5865141,-122.3544678
PAST SALE,June-12-2017,Condo/Co-op,1022 Chula Vista Ave #1,BURLINGAME,CA,94010,920000,2,2.0,BURLINGAME,1065,5750,1991,232,864,250,Sold,,,http://www.redfin.com/CA/Burlingame/1022-Chula-Vista-Ave-94010/unit-1/home/1804948,MLSListings,ML81647675,N,Y,37.5857869,-122.3609845
PAST SALE,June-16-2017,Single Family Residential,772 Walnut Ave,BURLINGAME,CA,94010,2850000,4,3.5,BURLINGAME,2855,9050,1906,228,998,,Sold,,,http://www.redfin.com/CA/Burlingame/772-Walnut-Ave-94010/home/1862670,MLSListings,ML81653257,Y,Y,37.5786871,-122.3584376
PAST SALE,,Condo/Co-op,1512 Floribunda Ave Apt 301,Burlingame,CA,94010,2950000,3,2.0,,2783,,2008,,1060,,,,,http://www.redfin.com/CA/Burlingame/1512-Floribunda-Ave-94010/unit-301/home/21967770,,,N,Y,37.5790026,-122.3546679
PAST SALE,June-2-2017,Single Family Residential,917 Linden Ave,BURLINGAME,CA,94010,1465000,2,1.0,BURLINGAME,990,5000,1940,242,1480,,Sold,,,http://www.redfin.com/CA/Burlingame/917-Linden-Ave-94010/home/1598098,MLSListings,ML81649221,Y,Y,37.5862442,-122.3555772
PAST SALE,July-31-2017,Condo/Co-op,977 El Camino Real #104,BURLINGAME,CA,94010,900000,2,2.0,BURLINGAME,1567,21053,1981,183,574,440,Sold,,,http://www.redfin.com/CA/Burlingame/977-El-Camino-Real-94010/unit-104/home/976210,MLSListings,ML81644514,N,Y,37.581294,-122.361657
PAST SALE,July-31-2017,Single Family Residential,1507 Willow Ave,BURLINGAME,CA,94010,1200000,2,2.0,BURLINGAME,1210,13958,1912,183,992,,Sold,,,http://www.redfin.com/CA/Burlingame/1507-Willow-Ave-94010/home/1304479,MLSListings,ML81656859,N,Y,37.5792878,-122.3581839
PAST SALE,June-7-2017,Condo/Co-op,518 Almer Rd #3,BURLINGAME,CA,94010,1250000,2,2.0,BURLINGAME,1600,8719,1994,237,781,520,Sold,,,http://www.redfin.com/CA/Burlingame/518-Almer-Rd-94010/unit-3/home/966314,MLSListings,ML81653072,N,Y,37.5788161,-122.3526811
PAST SALE,June-5-2017,Condo/Co-op,1499 Oak Grove Ave #104,BURLINGAME,CA,94010,1007000,2,2.0,BURLINGAME,1566,15134,1997,239,643,580,Sold,,,http://www.redfin.com/CA/Burlingame/1499-Oak-Grove-Ave-94010/unit-104/home/1989376,MLSListings,ML81643015,N,Y,37.5787352,-122.3558055
PAST SALE,August-31-2017,Condo/Co-op,1209 Oak Grove Ave #101,BURLINGAME,CA,94010,815000,2,2.0,BURLINGAME,1011,19236,1979,152,806,385,Sold,,,http://www.redfin.com/CA/Burlingame/1209-Oak-Grove-Ave-94010/unit-101/home/113809296,MLSListings,ML81671149,N,Y,37.5816841,-122.3513602
PAST SALE,August-10-2017,Condo/Co-op,1457 Bellevue Ave #8,BURLINGAME,CA,94010,1318889,2,2.5,BURLINGAME,1880,,1984,173,702,550,Sold,,,http://www.redfin.com/CA/Burlingame/1457-Bellevue-Ave-94010/unit-8/home/1085200,MLSListings,ML81668137,N,Y,37.5778982,-122.3517376
PAST SALE,August-31-2017,Single Family Residential,751 Linden Ave,BURLINGAME,CA,94010,1720000,3,1.5,BURLINGAME,1480,5150,1925,152,1162,,Sold,,,http://www.redfin.com/CA/Burlingame/751-Linden-Ave-94010/home/1706750,MLSListings,ML81671735,N,Y,37.5839856,-122.3523529
PAST SALE,June-26-2017,Single Family Residential,632 Fairway Cir,HILLSBOROUGH,CA,94010,5320000,4,6.0,HILLSBOROUGH,3680,17323,2010,218,1446,,Sold,,,http://www.redfin.com/CA/Hillsborough/632-Fairway-Cir-94010/home/1880471,MLSListings,ML81650401,N,Y,37.5771547,-122.3572232
PAST SALE,September-1-2017,Single Family Residential,744 Neuchatel Ave,BURLINGAME,CA,94010,1525080,2,1.0,BURLINGAME,1090,4000,1929,151,1399,,Sold,,,http://www.redfin.com/CA/Burlingame/744-Neuchatel-Ave-94010/home/1908244,MLSListings,ML81670765,N,Y,37.5822836,-122.3532683
PAST SALE,August-30-2017,Condo/Co-op,550 El Camino Real #203,BURLINGAME,CA,94010,960000,2,2.0,BURLINGAME,1160,13613,1997,153,828,450,Sold,,,http://www.redfin.com/CA/Burlingame/550-El-Camino-Real-94010/unit-203/home/1918447,MLSListings,ML81670217,N,Y,37.5780009,-122.3542996
PAST SALE,April-4-2017,Single Family Residential,1765 Willow Rd,HILLSBOROUGH,CA,94010,4200000,3,3.0,HILLSBOROUGH,3260,21240,1948,301,1288,,Sold,,,http://www.redfin.com/CA/Hillsborough/1765-Willow-Rd-94010/home/1658187,MLSListings,ML81645345,N,Y,37.5771194,-122.3607092
PAST SALE,March-28-2017,Single Family Residential,1138 Douglas Ave,BURLINGAME,CA,94010,2000000,3,1.0,BURLINGAME,1500,5544,1914,308,1333,,Sold,,,http://www.redfin.com/CA/Burlingame/1138-Douglas-Ave-94010/home/1358287,MLSListings,ML81644641,N,Y,37.5801804,-122.3499384
PAST SALE,April-27-2017,Single Family Residential,451 Barroilhet Ave,SAN MATEO,CA,94402,1650000,2,2.0,SAN MATEO,1370,5940,1900,278,1204,,Sold,,,http://www.redfin.com/CA/San-Mateo/451-Barroilhet-Ave-94402/home/1504162,MLSListings,ML81643563,N,Y,37.5710171,-122.3489456
PAST SALE,,Condo/Co-op,1515 Arc Way Apt 209,Burlingame,CA,94010,576500,1,1.0,,841,,1973,,685,,,,,http://www.redfin.com/CA/Burlingame/1515-Arc-Way-94010/unit-209/home/1894105,,,N,Y,37.5797414,-122.3589724
PAST SALE,June-16-2017,Condo/Co-op,525 Almer Rd #307,BURLINGAME,CA,94010,1125000,2,2.0,BURLINGAME,1288,46982,1975,228,873,507,Sold,,,http://www.redfin.com/CA/Burlingame/525-Almer-Rd-94010/unit-307/home/1627809,MLSListings,ML81654028,N,Y,37.5783309,-122.3532843
PAST SALE,June-23-2017,Condo/Co-op,735 El Camino Real #102,BURLINGAME,CA,94010,800000,2,1.0,BURLINGAME,1001,18925,1981,221,799,570,Sold,,,http://www.redfin.com/CA/Burlingame/735-El-Camino-Real-94010/unit-102/home/976712,MLSListings,ML81652333,N,Y,37.5786302,-122.3570773
PAST SALE,,Single Family Residential,309 S Ashton Ave,Millbrae,CA,94030,1910000,3,2.0,,1520,15610,1956,,1257,,,,,http://www.redfin.com/CA/Millbrae/309-S-Ashton-Ave-94030/home/2045932,,,N,Y,37.5892933,-122.392488
PAST SALE,June-6-2017,Condo/Co-op,530 El Camino Real #308,BURLINGAME,CA,94010,1030000,2,2.0,BURLINGAME,1262,42608,2000,238,816,321,Sold,,,http://www.redfin.com/CA/Burlingame/530-El-Camino-Real-94010/unit-308/home/1004013,MLSListings,ML81650255,N,Y,37.5778647,-122.3539293
PAST SALE,May-23-2017,Multi-Family (2-4 Unit),1115 Paloma Ave,BURLINGAME,CA,94010,1600000,2,,BURLINGAME,2230,5750,1940,252,717,,Sold,,,http://www.redfin.com/CA/Burlingame/1115-Paloma-Ave-94010/home/1106766,MLSListings,ML81645839,N,Y,37.584637,-122.36368
PAST SALE,May-9-2016,Condo/Co-op,1427 Floribunda Ave #101,BURLINGAME,CA,94010,1085000,2,2.0,BURLINGAME,1480,26598,1974,631,733,426,Sold,,,http://www.redfin.com/CA/Burlingame/1427-Floribunda-Ave-94010/unit-101/home/2041677,MLSListings,ML81578089,N,Y,37.5796704,-122.3521185
