SALE TYPE,SOLD DATE,PROPERTY TYPE,ADDRESS,CITY,STATE,ZIP,PRICE,BEDS,BATHS,LOCATION,SQUARE FEET,LOT SIZE,YEAR BUILT,DAYS ON MARKET,$/SQUARE FEET,HOA/MONTH,STATUS,NEXT OPEN HOUSE START TIME,NEXT OPEN HOUSE END TIME,URL (SEE http://www.redfin.com/buy-a-home/comparative-market-analysis FOR INFO ON PRICING),SOURCE,MLS#,FAVORITE,INTERESTED,LATITUDE,LONGITUDE
PAST SALE,August-18-2017,Single Family Residential,915 Loraine Ave,LOS ALTOS,CA,94024,1550000,2,1.0,LOS ALTOS,953,4600,1930,165,1626,,Sold,,,http://www.redfin.com/CA/Los-Altos/915-Loraine-Ave-94024/home/1669672,MLSListings,ML81668152,N,Y,37.355169,-122.0892788
PAST SALE,August-18-2017,Single Family Residential,921 Loraine Ave,LOS ALTOS,CA,94024,1845000,2,1.0,LOS ALTOS,800,7049,1932,165,2306,,Sold,,,http://www.redfin.com/CA/Los-Altos/921-Loraine-Ave-94024/home/1115656,MLSListings,ML81642559,N,Y,37.355133,-122.089021
PAST SALE,January-19-2018,Single Family Residential,2037 Farndon Ave,LOS ALTOS,CA,94024,2500000,3,1.0,LOS ALTOS,1073,9375,1952,11,2330,,Sold,,,http://www.redfin.com/CA/Los-Altos/2037-Farndon-Ave-94024/home/1465730,MLSListings,ML81688631,N,Y,37.3403372,-122.0696795
PAST SALE,,Single Family Residential,1965 Farndon Ave,Los Altos,CA,94024,2200000,3,1.0,,1516,10246,1955,,1451,,,,,http://www.redfin.com/CA/Los-Altos/1965-Farndon-Ave-94024/home/1401056,,,N,Y,37.3428378,-122.0667889
PAST SALE,September-7-2017,Condo/Co-op,550 Ortega Ave Unit A412,MOUNTAIN VIEW,CA,94040,840000,1,1.0,MOUNTAIN VIEW,822,,1992,145,1022,335,Sold,,,http://www.redfin.com/CA/Mountain-View/550-Ortega-Ave-94040/unit-A412/home/12172018,MLSListings,ML81672740,N,Y,37.399132,-122.1062035
PAST SALE,November-7-2017,Single Family Residential,1855 Esberg Rd,LOS ALTOS,CA,94024,2665000,2,1.0,LOS ALTOS,1008,11250,1951,84,2644,,Sold,,,http://www.redfin.com/CA/Los-Altos/1855-Esberg-Rd-94024/home/776222,MLSListings,ML81678454,N,Y,37.3455586,-122.091703
PAST SALE,,Condo/Co-op,100 1st St Unit 105,Los Altos,CA,94022,1550000,1,1.0,,1205,,2015,,1286,,,,,http://www.redfin.com/CA/Los-Altos/100-1st-St-94022/unit-105/home/95956259,,,N,Y,37.3805495,-122.1202179
PAST SALE,October-11-2017,Condo/Co-op,4250 El Camino Real Unit A104,PALO ALTO,CA,94306,831000,1,1.0,PALO ALTO,885,885,1983,111,939,626,Sold,,,http://www.redfin.com/CA/Palo-Alto/4250-El-Camino-Real-94306/unit-A104/home/143409679,MLSListings,ML81675213,N,Y,37.4067161,-122.1218394
PAST SALE,,Condo/Co-op,1 W Edith Ave Apt D222,Los Altos,CA,94022,256500,1,1.0,,694,,1997,,370,,,,,http://www.redfin.com/CA/Los-Altos/1-W-Edith-Ave-94022/unit-D222/home/633092,,,N,Y,37.382437,-122.1145576
PAST SALE,November-7-2017,Single Family Residential,566 Lincoln Ave,LOS ALTOS,CA,94022,2020000,2,1.0,LOS ALTOS,1082,7550,1956,84,1867,,Sold,,,http://www.redfin.com/CA/Los-Altos/566-Lincoln-Ave-94022/home/1628088,MLSListings,ML81676785,N,Y,37.372815,-122.1143948
PAST SALE,September-28-2017,Single Family Residential,930 Leonello Ave,LOS ALTOS,CA,94024,2700000,3,1.0,LOS ALTOS,1895,11040,1948,124,1425,,Sold,,,http://www.redfin.com/CA/Los-Altos/930-Leonello-Ave-94024/home/1855244,MLSListings,ML81674302,N,Y,37.3663242,-122.0935346
PAST SALE,,Single Family Residential,232 Alicia Way,Los Altos,CA,94022,2775000,2,1.0,,876,13152,1922,,3168,,,,,http://www.redfin.com/CA/Los-Altos/232-Alicia-Way-94022/home/1439648,,,N,Y,37.3854039,-122.1071508
PAST SALE,,Condo/Co-op,4250 El Camino Real Apt A206,Palo Alto,CA,94306,850000,1,1.0,,885,,1983,,960,,,,,http://www.redfin.com/CA/Palo-Alto/4250-El-Camino-Real-94306/unit-A206/home/1463549,,,N,Y,37.4067161,-122.1218394
PAST SALE,,Condo/Co-op,550 Ortega Ave Apt B432,Mountain View,CA,94040,460000,1,1.0,,811,,1992,,567,,,,,http://www.redfin.com/CA/Mountain-View/550-Ortega-Ave-94040/unit-B432/home/2121349,,,N,Y,37.399132,-122.1062035
PAST SALE,October-13-2017,Condo/Co-op,4250 El Camino Real #307,PALO ALTO,CA,94306,850000,1,1.0,PALO ALTO,943,943,1983,109,901,638,Sold,,,http://www.redfin.com/CA/Palo-Alto/4250-El-Camino-Real-94306/unit-307/home/635131,MLSListings,ML81675317,N,Y,37.4067161,-122.1218394
PAST SALE,,Condo/Co-op,4250 El Camino Real #104,Palo Alto,CA,94306,831000,2,1.0,,860,,1983,,966,,,,,http://www.redfin.com/CA/Palo-Alto/4250-El-Camino-Real-94306/unit-104/home/634718,,,N,Y,37.4067161,-122.1218394
PAST SALE,October-13-2017,Condo/Co-op,150 W Edith Ave #30,LOS ALTOS,CA,94022,816517,1,1.0,LOS ALTOS,756,1306,1968,109,1080,315,Sold,,,http://www.redfin.com/CA/Los-Altos/150-W-Edith-Ave-94022/unit-30/home/634176,MLSListings,ML81667890,N,Y,37.381039,-122.1184737
PAST SALE,November-1-2017,Condo/Co-op,100 1st St #105,LOS ALTOS,CA,94022,1550000,1,1.5,LOS ALTOS,1205,889,2015,90,1286,552,Sold,,,http://www.redfin.com/CA/Los-Altos/100-1st-St-94022/unit-105/home/67340127,MLSListings,ML81681198,N,Y,37.3805495,-122.1202179
PAST SALE,October-27-2017,Single Family Residential,974 Lundy Ln,LOS ALTOS,CA,94024,2115000,3,1.5,LOS ALTOS,1506,8400,1945,95,1404,,Sold,,,http://www.redfin.com/CA/Los-Altos/974-Lundy-Ln-94024/home/1740103,MLSListings,ML81678814,N,Y,37.3510538,-122.0865072
PAST SALE,August-3-2017,Single Family Residential,1236 Miraflores Way,LOS ALTOS,CA,94024,3100000,3,2.0,LOS ALTOS,2069,11000,1953,180,1498,,Sold,,,http://www.redfin.com/CA/Los-Altos/1236-Miraflores-Way-94024/home/1667451,MLSListings,ML81668080,N,Y,37.3607601,-122.0889686
PAST SALE,,Single Family Residential,324 Alicia Way,Los Altos,CA,94022,2550000,3,2.0,,1491,10224,1953,,1710,,,,,http://www.redfin.com/CA/Los-Altos/324-Alicia-Way-94022/home/1500033,,,N,Y,37.3872536,-122.1070372
PAST SALE,November-2-2017,Single Family Residential,916 Golden Way,LOS ALTOS,CA,94024,2700000,3,2.0,LOS ALTOS,1735,10764,1954,89,1556,,Sold,,,http://www.redfin.com/CA/Los-Altos/916-Golden-Way-94024/home/1785732,MLSListings,ML81681086,Y,Y,37.3665444,-122.0911899
PAST SALE,November-17-2017,Single Family Residential,905 Leonello Ave,LOS ALTOS,CA,94024,2788800,3,2.0,LOS ALTOS,1915,10764,1949,74,1456,,Sold,,,http://www.redfin.com/CA/Los-Altos/905-Leonello-Ave-94024/home/764261,MLSListings,ML81679341,N,Y,37.3667752,-122.0929148
PAST SALE,,Condo/Co-op,100 1st St Unit 101,Los Altos,CA,94022,2100000,2,2.0,,1471,,2015,,1428,,,,,http://www.redfin.com/CA/Los-Altos/100-1st-St-94022/unit-101/home/95956263,,,N,Y,37.3805495,-122.1202179
PAST SALE,,Condo/Co-op,4250 El Camino Real #139,Palo Alto,CA,94306,930000,2,2.0,,1141,,1983,,815,,,,,http://www.redfin.com/CA/Palo-Alto/4250-El-Camino-Real-94306/unit-139/home/635074,,,N,Y,37.4067161,-122.1218394
PAST SALE,August-25-2017,Condo/Co-op,38 3rd St #102,LOS ALTOS,CA,94022,1995000,2,2.0,LOS ALTOS,1692,1692,1995,158,1179,565,Sold,,,http://www.redfin.com/CA/Los-Altos/38-3rd-St-94022/unit-102/home/742707,MLSListings,ML81673409,N,Y,37.380809,-122.1175369
PAST SALE,October-4-2017,Condo/Co-op,4388 El Camino Real #319,LOS ALTOS,CA,94022,1410000,2,2.0,LOS ALTOS,1200,1227,2009,118,1175,455,Sold,,,http://www.redfin.com/CA/Los-Altos/4388-El-Camino-Real-94022/unit-319/home/23047565,MLSListings,ML81678829,N,Y,37.403772,-122.1176126
PAST SALE,,Condo/Co-op,100 1st St Unit 214,Los Altos,CA,94022,2220000,2,2.0,,1386,,2015,,1602,,,,,http://www.redfin.com/CA/Los-Altos/100-1st-St-94022/unit-214/home/95956246,,,N,Y,37.3805495,-122.1202179
PAST SALE,October-12-2017,Condo/Co-op,550 Ortega Ave Unit A216,MOUNTAIN VIEW,CA,94040,1165000,2,2.0,MOUNTAIN VIEW,1143,1000,1992,110,1019,385,Sold,,,http://www.redfin.com/CA/Mountain-View/550-Ortega-Ave-94040/unit-A216/home/12172024,MLSListings,ML81676885,N,Y,37.399132,-122.1062035
PAST SALE,September-13-2017,Condo/Co-op,477 Lassen St #7,LOS ALTOS,CA,94022,1450000,2,2.0,LOS ALTOS,1179,2209,1975,139,1230,410,Sold,,,http://www.redfin.com/CA/Los-Altos/477-Lassen-St-94022/unit-7/home/1483862,MLSListings,ML81674427,N,Y,37.3743466,-122.111549
PAST SALE,October-11-2017,Single Family Residential,100 jordan Ave,LOS ALTOS,CA,94022,2818000,4,2.0,LOS ALTOS,2072,14850,1926,111,1360,,Sold,,,http://www.redfin.com/CA/Los-Altos/100-Jordan-Ave-94022/home/1009305,MLSListings,ML81677467,N,Y,37.3949491,-122.1121692
PAST SALE,October-27-2017,Single Family Residential,638 Benvenue Ave,LOS ALTOS,CA,94024,3000000,4,2.0,LOS ALTOS,1584,10064,1951,95,1894,,Sold,,,http://www.redfin.com/CA/Los-Altos/638-Benvenue-Ave-94024/home/689325,MLSListings,ML81681153,Y,Y,37.3752846,-122.0985327
PAST SALE,December-13-2017,Single Family Residential,689 Riviera Dr,LOS ALTOS,CA,94024,2950000,4,2.0,LOS ALTOS,2124,11200,1955,48,1389,,Sold,,,http://www.redfin.com/CA/Los-Altos/689-Riviera-Dr-94024/home/1822889,MLSListings,ML81683440,N,Y,37.3793758,-122.0966428
PAST SALE,December-14-2017,Condo/Co-op,2080 Marich Way #20,MOUNTAIN VIEW,CA,94040,1705000,2,2.0,MOUNTAIN VIEW,1472,901,1982,47,1158,530,Sold,,,http://www.redfin.com/CA/Mountain-View/2080-Marich-Way-94040/unit-20/home/637891,MLSListings,ML81685848,N,Y,37.3931934,-122.1022935
PAST SALE,December-20-2017,Condo/Co-op,1 W Edith Ave Unit C120,LOS ALTOS,CA,94022,1155000,1,2.0,LOS ALTOS,1047,,1997,41,1103,646,Sold,,,http://www.redfin.com/CA/Los-Altos/1-W-Edith-Ave-94022/unit-C120/home/1529015,MLSListings,ML81685677,N,Y,37.382437,-122.1145576
PAST SALE,,Townhouse,74 Bay Tree Ln,Los Altos,CA,94022,2050000,2,2.0,,1840,2704,1972,,1114,,,,,http://www.redfin.com/CA/Los-Altos/74-Bay-Tree-Ln-94022/home/1670302,,,N,Y,37.367873,-122.117045
PAST SALE,November-30-2017,Single Family Residential,370 Yerba Santa Ave,LOS ALTOS,CA,94022,3383000,2,2.0,LOS ALTOS,1625,13855,1951,61,2082,,Sold,,,http://www.redfin.com/CA/Los-Altos/370-Yerba-Santa-Ave-94022/home/1345928,MLSListings,ML81684335,Y,Y,37.3883265,-122.1233585
PAST SALE,August-24-2017,Condo/Co-op,100 1st St #318,LOS ALTOS,CA,94022,2400000,2,2.0,LOS ALTOS,1476,889,2015,159,1626,628,Sold,,,http://www.redfin.com/CA/Los-Altos/100-1st-St-94022/unit-318/home/95956285,MLSListings,ML81669760,N,Y,37.3805495,-122.1202179
PAST SALE,August-31-2017,Condo/Co-op,226 W Edith Ave #15,LOS ALTOS,CA,94022,1200000,2,2.0,LOS ALTOS,1299,1000,1975,152,924,515,Sold,,,http://www.redfin.com/CA/Los-Altos/226-W-Edith-Ave-94022/unit-15/home/1345964,MLSListings,ML81671703,N,Y,37.3809603,-122.1191277
PAST SALE,September-6-2017,Single Family Residential,824 NASH Rd,LOS ALTOS,CA,94024,3025000,4,2.0,LOS ALTOS,3060,13650,1973,146,989,,Sold,,,http://www.redfin.com/CA/Los-Altos/824-Nash-Rd-94024/home/1401327,MLSListings,ML81674116,N,Y,37.3657426,-122.1121342
PAST SALE,September-11-2017,Condo/Co-op,101 2nd St #14,LOS ALTOS,CA,94022,1720000,2,2.0,LOS ALTOS,1521,1664,2000,141,1131,550,Sold,,,http://www.redfin.com/CA/Los-Altos/101-2nd-St-94022/unit-14/home/1179406,MLSListings,ML81673324,N,Y,37.3804772,-122.1180388
PAST SALE,September-20-2017,Condo/Co-op,15 Deep Well Ln,LOS ALTOS,CA,94022,2130000,2,2.0,LOS ALTOS,1840,2704,1972,132,1158,777,Sold,,,http://www.redfin.com/CA/Los-Altos/15-Deep-Well-Ln-94022/home/607787,MLSListings,ML81669560,N,Y,37.366223,-122.116698
PAST SALE,September-22-2017,Condo/Co-op,550 Ortega Ave Unit A313,Mountain View,CA,94040,975000,2,2.0,Mountain View,1076,1000,1992,130,906,368,Sold,,,http://www.redfin.com/CA/Mountain-View/550-Ortega-Ave-94040/unit-A313/home/2121307,CRMLS,PW17175945,N,Y,37.399132,-122.1062035
PAST SALE,September-28-2017,Single Family Residential,291 Live Oak Ln,LOS ALTOS,CA,94022,3500000,3,2.0,LOS ALTOS,2077,12540,1953,124,1685,,Sold,,,http://www.redfin.com/CA/Los-Altos/291-Live-Oak-Ln-94022/home/631130,MLSListings,ML81676559,N,Y,37.3864451,-122.1205386
PAST SALE,September-26-2017,Condo/Co-op,226 W Edith Ave #19,LOS ALTOS,CA,94022,1300000,2,2.0,LOS ALTOS,1288,,1975,126,1009,515,Sold,,,http://www.redfin.com/CA/Los-Altos/226-W-Edith-Ave-94022/unit-19/home/1708132,MLSListings,ML81673449,N,Y,37.3809603,-122.1191277
PAST SALE,October-6-2017,Condo/Co-op,150 W Edith Ave #14,LOS ALTOS,CA,94022,1050000,2,2.0,LOS ALTOS,1092,1306,1968,116,962,390,Sold,,,http://www.redfin.com/CA/Los-Altos/150-W-Edith-Ave-94022/unit-14/home/1653006,MLSListings,ML81676512,N,Y,37.381039,-122.1184737
PAST SALE,October-27-2017,Single Family Residential,555 University Ave,LOS ALTOS,CA,94022,2600000,3,2.0,LOS ALTOS,1542,6600,1961,95,1686,,Sold,,,http://www.redfin.com/CA/Los-Altos/555-University-Ave-94022/home/813991,MLSListings,ML81678714,N,Y,37.3731446,-122.1173365
PAST SALE,November-9-2017,Condo/Co-op,100 First St #214,LOS ALTOS,CA,94022,2220000,2,2.0,LOS ALTOS,1386,889,2015,82,1602,590,Sold,,,http://www.redfin.com/CA/Los-Altos/100-1st-St-94022/unit-214/home/72113090,MLSListings,ML81674636,N,Y,37.3805495,-122.1202179
PAST SALE,,Condo/Co-op,550 Ortega Ave Apt B333,Mountain View,CA,94040,1100000,2,2.0,,1080,,1992,,1019,,,,,http://www.redfin.com/CA/Mountain-View/550-Ortega-Ave-94040/unit-B333/home/12172056,,,N,Y,37.399132,-122.1062035
PAST SALE,December-1-2017,Single Family Residential,598 Orange Ave,LOS ALTOS,CA,94022,2925000,4,2.0,LOS ALTOS,2300,6600,1952,60,1272,,Sold,,,http://www.redfin.com/CA/Los-Altos/598-Orange-Ave-94022/home/1653929,MLSListings,ML81681273,N,Y,37.3723324,-122.1166846
PAST SALE,January-18-2018,Single Family Residential,1548 Ashcroft Way,SUNNYVALE,CA,94087,2070000,3,2.0,SUNNYVALE,1508,7893,1958,12,1373,,Sold,,,http://www.redfin.com/CA/Sunnyvale/1548-Ashcroft-Way-94087/home/768604,MLSListings,ML81687141,N,Y,37.342946,-122.0639325
PAST SALE,,Single Family Residential,1121 Suffolk Ct,Los Altos,CA,94024,2700000,3,2.0,,1928,11808,1968,,1400,,,,,http://www.redfin.com/CA/Los-Altos/1121-Suffolk-Ct-94024/home/646910,,,N,Y,37.3615981,-122.084971
PAST SALE,September-21-2017,Single Family Residential,1930 Colleen Dr,LOS ALTOS,CA,94024,2750000,3,2.0,LOS ALTOS,2092,12232,1958,131,1315,,Sold,,,http://www.redfin.com/CA/Los-Altos/1930-Colleen-Dr-94024/home/765716,MLSListings,ML81675129,N,Y,37.3441577,-122.0747745
PAST SALE,September-25-2017,Single Family Residential,1358 Garthwick Ct,LOS ALTOS,CA,94024,2760000,3,2.0,LOS ALTOS,1943,13160,1956,127,1420,,Sold,,,http://www.redfin.com/CA/Los-Altos/1358-Garthwick-Ct-94024/home/1654231,MLSListings,ML81674839,N,Y,37.3537097,-122.0762836
PAST SALE,October-3-2017,Townhouse,27 Farm Rd,LOS ALTOS,CA,94024,1580000,3,2.0,LOS ALTOS,1785,1225,1973,119,885,635,Sold,,,http://www.redfin.com/CA/Los-Altos/27-Farm-Rd-94024/home/780379,MLSListings,ML81676542,N,Y,37.341212,-122.076342
PAST SALE,October-11-2017,Single Family Residential,1018 W Rose Cir,LOS ALTOS,CA,94024,2800000,3,2.0,LOS ALTOS,1698,9936,1959,111,1649,,Sold,,,http://www.redfin.com/CA/Los-Altos/1018-W-Rose-Cir-94024/home/1309956,MLSListings,ML81677490,N,Y,37.3646136,-122.079679
PAST SALE,January-5-2018,Single Family Residential,1264 Thurston Ave,LOS ALTOS,CA,94024,2405000,3,2.0,LOS ALTOS,1490,10113,1951,25,1614,,Sold,,,http://www.redfin.com/CA/Los-Altos/1264-Thurston-Ave-94024/home/1425724,MLSListings,ML81686548,N,Y,37.3481222,-122.0787653
PAST SALE,January-3-2018,Single Family Residential,1432 Miramonte Ave,LOS ALTOS,CA,94024,2950000,4,2.0,LOS ALTOS,1961,11193,1958,27,1504,,Sold,,,http://www.redfin.com/CA/Los-Altos/1432-Miramonte-Ave-94024/home/642049,MLSListings,ML81686547,N,Y,37.3568409,-122.08754
PAST SALE,January-18-2018,Single Family Residential,897 Highlands Cir,LOS ALTOS,CA,94024,2300000,3,2.0,LOS ALTOS,1517,12825,1966,12,1516,,Sold,,,http://www.redfin.com/CA/Los-Altos/897-Highlands-Cir-94024/home/1293559,MLSListings,ML81689424,N,Y,37.340247,-122.087018
PAST SALE,August-14-2017,Single Family Residential,1654 Columbia Dr,MOUNTAIN VIEW,CA,94040,2320000,3,2.0,MOUNTAIN VIEW,1845,7030,1954,169,1257,,Sold,,,http://www.redfin.com/CA/Mountain-View/1654-Columbia-Dr-94040/home/1160862,MLSListings,ML81669585,N,Y,37.3753238,-122.0953716
PAST SALE,August-14-2017,Condo/Co-op,1 W Edith Ave Unit D124,LOS ALTOS,CA,94022,1675000,3,2.0,LOS ALTOS,1861,1861,1997,169,900,783,Sold,,,http://www.redfin.com/CA/Los-Altos/1-W-Edith-Ave-94022/unit-D124/home/1708081,MLSListings,ML81670145,N,Y,37.382437,-122.1145576
PAST SALE,August-16-2017,Condo/Co-op,150 W EDITH Ave #3,LOS ALTOS,CA,94022,950000,2,2.0,LOS ALTOS,1086,1306,1968,167,875,410,Sold,,,http://www.redfin.com/CA/Los-Altos/150-W-Edith-Ave-94022/unit-3/home/855822,MLSListings,ML81669394,N,Y,37.381039,-122.1184737
PAST SALE,August-25-2017,Single Family Residential,1016 Tulane Dr,MOUNTAIN VIEW,CA,94040,2380400,3,2.0,MOUNTAIN VIEW,1663,5300,1953,158,1431,,Sold,,,http://www.redfin.com/CA/Mountain-View/1016-Tulane-Dr-94040/home/640896,MLSListings,ML81671709,Y,Y,37.3766578,-122.0917011
PAST SALE,September-14-2017,Condo/Co-op,1 W Edith Ave Unit A201,LOS ALTOS,CA,94022,1175000,1,2.0,LOS ALTOS,1048,1048,1996,138,1121,600,Sold,,,http://www.redfin.com/CA/Los-Altos/1-W-Edith-Ave-94022/unit-A201/home/1575711,MLSListings,ML81677979,N,Y,37.382437,-122.1145576
PAST SALE,September-20-2017,Single Family Residential,1555 Ernestine Ln,MOUNTAIN VIEW,CA,94040,2300000,3,2.0,MOUNTAIN VIEW,1232,4968,1954,132,1867,,Sold,,,http://www.redfin.com/CA/Mountain-View/1555-Ernestine-Ln-94040/home/642908,MLSListings,ML81675262,N,Y,37.3860885,-122.0941952
PAST SALE,September-25-2017,Single Family Residential,215 Lyell St,LOS ALTOS,CA,94022,2800000,4,2.0,LOS ALTOS,1861,11021,1954,127,1505,,Sold,,,http://www.redfin.com/CA/Los-Altos/215-Lyell-St-94022/home/635545,MLSListings,ML81675109,N,Y,37.3756814,-122.1090051
PAST SALE,October-4-2017,Single Family Residential,215 Sunkist Ln,LOS ALTOS,CA,94022,2798000,3,2.0,LOS ALTOS,1828,9280,1953,118,1531,,Sold,,,http://www.redfin.com/CA/Los-Altos/215-Sunkist-Ln-94022/home/1240045,MLSListings,ML81676582,N,Y,37.3852559,-122.1053558
PAST SALE,October-4-2017,Single Family Residential,620 Teresi Ln,LOS ALTOS,CA,94024,2700000,3,2.0,LOS ALTOS,1488,10080,1952,118,1815,,Sold,,,http://www.redfin.com/CA/Los-Altos/620-Teresi-Ln-94024/home/1500233,MLSListings,ML81676898,Y,Y,37.3722127,-122.0984162
PAST SALE,October-23-2017,Single Family Residential,543 S El Monte Ave,LOS ALTOS,CA,94022,2370000,2,2.0,LOS ALTOS,1818,12561,1938,99,1304,,Sold,,,http://www.redfin.com/CA/Los-Altos/543-S-El-Monte-Ave-94022/home/1427625,MLSListings,ML81677872,N,Y,37.373274,-122.107817
PAST SALE,,Condo/Co-op,73 3rd St Apt 21,Los Altos,CA,94022,1221000,2,2.0,,1344,,1974,,908,,,,,http://www.redfin.com/CA/Los-Altos/73-3rd-St-94022/unit-21/home/1160647,,,N,Y,37.3808488,-122.1168881
PAST SALE,January-4-2018,Condo/Co-op,1 W Edith Ave Unit A102,LOS ALTOS,CA,94022,1585000,2,2.0,LOS ALTOS,1470,,1996,26,1078,713,Sold,,,http://www.redfin.com/CA/Los-Altos/1-W-Edith-Ave-94022/unit-A102/home/1855004,MLSListings,ML81686371,N,Y,37.382437,-122.1145576
PAST SALE,August-9-2017,Single Family Residential,1131 Bruckner Cir,MOUNTAIN VIEW,CA,94040,2710000,4,2.0,MOUNTAIN VIEW,2007,8056,1963,174,1350,,Sold,,,http://www.redfin.com/CA/Mountain-View/1131-Bruckner-Cir-94040/home/1827726,MLSListings,ML81669743,Y,Y,37.3591972,-122.0694923
PAST SALE,October-3-2017,Single Family Residential,1425 Brookmill Rd,LOS ALTOS,CA,94024,2475000,3,2.0,LOS ALTOS,1655,9147,1956,119,1495,,Sold,,,http://www.redfin.com/CA/Los-Altos/1425-Brookmill-Rd-94024/home/1398019,MLSListings,ML81673022,N,Y,37.3543328,-122.0622193
PAST SALE,November-13-2017,Single Family Residential,1125 Blue Lake Sq,MOUNTAIN VIEW,CA,94040,2300000,3,2.0,MOUNTAIN VIEW,1782,4200,1973,78,1291,371,Sold,,,http://www.redfin.com/CA/Mountain-View/1125-Blue-Lake-Sq-94040/home/1223820,MLSListings,ML81681163,N,Y,37.3586149,-122.0695578
PAST SALE,November-28-2017,Single Family Residential,1510 Tiptoe Ln,LOS ALTOS,CA,94024,2600000,3,2.0,LOS ALTOS,1832,9282,1955,63,1419,,Sold,,,http://www.redfin.com/CA/Los-Altos/1510-Tiptoe-Ln-94024/home/1655207,MLSListings,ML81681910,N,Y,37.3540623,-122.0648923
PAST SALE,,Single Family Residential,1310 Harwalt Dr,Los Altos,CA,94024,2850000,3,2.0,,2039,10488,1962,,1398,,,,,http://www.redfin.com/CA/Los-Altos/1310-Harwalt-Dr-94024/home/1462503,,,N,Y,37.3589248,-122.0655339
PAST SALE,January-14-2018,Single Family Residential,1486 Country Club Dr,LOS ALTOS,CA,94024,3825000,3,2.0,LOS ALTOS,2182,24677,1956,16,1753,,Sold,,,http://www.redfin.com/CA/Los-Altos/1486-Country-Club-Dr-94024/home/1804988,MLSListings,ML81687077,N,Y,37.3524861,-122.0952166
PAST SALE,December-22-2017,Single Family Residential,781 Parma Way,LOS ALTOS,CA,94024,3500000,4,2.0,LOS ALTOS,2294,12196,1946,39,1526,,Sold,,,http://www.redfin.com/CA/Los-Altos/781-Parma-Way-94024/home/1802437,MLSListings,ML81684704,N,Y,37.3693161,-122.0986378
PAST SALE,August-29-2017,Single Family Residential,810 Terrace Dr,LOS ALTOS,CA,94024,2820000,4,2.0,LOS ALTOS,2003,11918,1964,154,1408,,Sold,,,http://www.redfin.com/CA/Los-Altos/810-Terrace-Dr-94024/home/784435,MLSListings,ML81670685,N,Y,37.3451872,-122.0907935
PAST SALE,September-12-2017,Single Family Residential,1460 Oakhurst Ave,LOS ALTOS,CA,94024,3100000,3,2.0,LOS ALTOS,1758,18012,1955,140,1763,,Sold,,,http://www.redfin.com/CA/Los-Altos/1460-Oakhurst-Ave-94024/home/646822,MLSListings,ML81673218,N,Y,37.3558725,-122.0838735
PAST SALE,October-12-2017,Single Family Residential,964 Saint Joseph Ave,LOS ALTOS,CA,94024,2800000,4,2.0,LOS ALTOS,1940,10533,1958,110,1443,,Sold,,,http://www.redfin.com/CA/Los-Altos/964-Saint-Joseph-Ave-94024/home/1297775,MLSListings,ML81678607,N,Y,37.3432588,-122.0883118
PAST SALE,October-17-2017,Single Family Residential,754 Edge Ln,LOS ALTOS,CA,94024,3800000,5,2.5,LOS ALTOS,2879,9536,2017,105,1320,,Sold,,,http://www.redfin.com/CA/Los-Altos/754-Edge-Ln-94024/home/642751,MLSListings,ML81676728,N,Y,37.3626275,-122.0937963
PAST SALE,September-5-2017,Single Family Residential,1760 LARKELLEN Ln,LOS ALTOS,CA,94024,2700000,4,2.5,LOS ALTOS,2009,10115,1955,147,1344,,Sold,,,http://www.redfin.com/CA/Los-Altos/1760-Larkellen-Ln-94024/home/1281177,MLSListings,ML81671349,N,Y,37.3550102,-122.0642448
PAST SALE,October-20-2017,Single Family Residential,1188 Richardson Ave,LOS ALTOS,CA,94024,3300888,4,2.5,LOS ALTOS,3017,20000,1950,102,1094,,Sold,,,http://www.redfin.com/CA/Los-Altos/1188-Richardson-Ave-94024/home/1012895,MLSListings,ML81677876,N,Y,37.3506473,-122.081326
PAST SALE,December-21-2017,Single Family Residential,70 Angela Dr,LOS ALTOS,CA,94022,3728000,4,2.5,LOS ALTOS,2353,11878,1963,40,1584,,Sold,,,http://www.redfin.com/CA/Los-Altos/70-Angela-Dr-94022/home/723006,MLSListings,ML81686522,N,Y,37.3827795,-122.1122061
PAST SALE,October-10-2017,Single Family Residential,631 Torwood Ln,LOS ALTOS,CA,94022,2815000,3,2.5,LOS ALTOS,1588,9500,1950,112,1773,,Sold,,,http://www.redfin.com/CA/Los-Altos/631-Torwood-Ln-94022/home/1463490,MLSListings,ML81675204,N,Y,37.3927181,-122.1248521
PAST SALE,November-28-2017,Single Family Residential,862 Renetta Ct,LOS ALTOS,CA,94024,3050000,3,2.5,LOS ALTOS,1991,9800,1962,63,1532,,Sold,,,http://www.redfin.com/CA/Los-Altos/862-Renetta-Ct-94024/home/776475,MLSListings,ML81677826,N,Y,37.367229,-122.1096446
PAST SALE,October-2-2017,Single Family Residential,555 S El Monte Ave,LOS ALTOS,CA,94022,3600000,3,2.5,LOS ALTOS,2511,28203,1907,120,1434,,Sold,,,http://www.redfin.com/CA/Los-Altos/555-S-El-Monte-Ave-94022/home/1113208,MLSListings,ML81677866,N,Y,37.373055,-122.107909
PAST SALE,November-2-2017,Single Family Residential,24313 Summerhill Ave,LOS ALTOS,CA,94024,3610000,3,2.5,LOS ALTOS,2825,20332,1950,89,1278,,Sold,,,http://www.redfin.com/CA/Los-Altos/24313-Summerhill-Ave-94024/home/778148,MLSListings,ML81681837,N,Y,37.3599711,-122.1066599
PAST SALE,October-19-2017,Single Family Residential,1927 Fallen Leaf Ln,LOS ALTOS,CA,94024,2710000,4,2.5,LOS ALTOS,2038,9112,1953,103,1330,,Sold,,,http://www.redfin.com/CA/Los-Altos/1927-Fallen-Leaf-Ln-94024/home/1191462,MLSListings,ML81676831,N,Y,37.343818,-122.0656837
PAST SALE,August-23-2017,Single Family Residential,1152 Morton Ct,MOUNTAIN VIEW,CA,94040,2885000,4,2.5,MOUNTAIN VIEW,2195,8470,1953,160,1314,,Sold,,,http://www.redfin.com/CA/Mountain-View/1152-Morton-Ct-94040/home/1414023,MLSListings,ML81671722,N,Y,37.3896888,-122.1028831
PAST SALE,November-8-2017,Single Family Residential,2042 Crist Dr,LOS ALTOS,CA,94024,2885000,4,2.5,LOS ALTOS,2241,9375,1953,83,1287,,Sold,,,http://www.redfin.com/CA/Los-Altos/2042-Crist-Dr-94024/home/1662580,MLSListings,ML81683051,N,Y,37.3409559,-122.0682263
PAST SALE,November-2-2017,Townhouse,148 Giffin Rd,LOS ALTOS,CA,94022,2200000,3,2.5,LOS ALTOS,2354,1040,1987,89,935,350,Sold,,,http://www.redfin.com/CA/Los-Altos/148-Giffin-Rd-94022/home/1855056,MLSListings,ML81679068,N,Y,37.372182,-122.111322
PAST SALE,September-27-2017,Single Family Residential,1126 Laureles Dr,LOS ALTOS,CA,94022,3600000,3,2.5,LOS ALTOS,2720,13348,1955,125,1324,,Sold,,,http://www.redfin.com/CA/Los-Altos/1126-Laureles-Dr-94022/home/913236,MLSListings,ML81673403,N,Y,37.4032707,-122.122735
PAST SALE,November-13-2017,Single Family Residential,947 Rincon St,MOUNTAIN VIEW,CA,94040,2100000,3,2.5,MOUNTAIN VIEW,1653,2047,2009,78,1270,50,Sold,,,http://www.redfin.com/CA/Mountain-View/947-Rincon-St-94040/home/23044948,MLSListings,ML81681050,N,Y,37.3838814,-122.0884853
PAST SALE,September-18-2017,Single Family Residential,333 Marich Way,LOS ALTOS,CA,94022,2800000,4,2.5,LOS ALTOS,2215,9968,1962,134,1264,,Sold,,,http://www.redfin.com/CA/Los-Altos/333-Marich-Way-94022/home/621595,MLSListings,ML81673512,N,Y,37.3954876,-122.1062681
PAST SALE,,Condo/Co-op,23 Los Altos Sq,Los Altos,CA,94022,1615000,3,2.5,,1568,1162,1964,,1030,,,,,http://www.redfin.com/CA/Los-Altos/23-Los-Altos-Sq-94022/home/1137687,,,N,Y,37.3975796,-122.1110727
PAST SALE,December-7-2017,Single Family Residential,1870 Capistrano Way,LOS ALTOS,CA,94024,2880000,4,2.5,LOS ALTOS,2085,9394,1954,54,1381,,Sold,,,http://www.redfin.com/CA/Los-Altos/1870-Capistrano-Way-94024/home/1830270,MLSListings,ML81683981,N,Y,37.3449634,-122.0801872
PAST SALE,,Single Family Residential,1405 Oak Ave,Los Altos,CA,94024,3338000,4,2.5,,2563,10418,1969,,1302,,,,,http://www.redfin.com/CA/Los-Altos/1405-Oak-Ave-94024/home/1379115,,,N,Y,37.3570207,-122.0748644
PAST SALE,November-28-2017,Single Family Residential,1434 Fremont Ave,LOS ALTOS,CA,94024,2250000,3,2.5,LOS ALTOS,1646,12632,1952,63,1367,,Sold,,,http://www.redfin.com/CA/Los-Altos/1434-Fremont-Ave-94024/home/766883,MLSListings,ML81682885,N,Y,37.3518578,-122.0736945
PAST SALE,,Single Family Residential,10538 Chace Dr,Los Altos,CA,94024,1800000,3,2.0,,1937,10725,1955,,929,,,,,http://www.redfin.com/CA/Los-Altos/10538-Chace-Dr-94024/home/1364806,,,N,Y,37.3310458,-122.0669809
PAST SALE,,Townhouse,111 Giffin Rd,Los Altos,CA,94022,1525000,2,2.0,,1363,1350,1985,,1119,,,,,http://www.redfin.com/CA/Los-Altos/111-Giffin-Rd-94022/home/1277736,,,N,Y,37.3725105,-122.1116
PAST SALE,November-16-2017,Single Family Residential,1187 Laureles Dr,LOS ALTOS,CA,94022,3450000,3,2.5,LOS ALTOS,2444,15225,1956,75,1412,,Sold,,,http://www.redfin.com/CA/Los-Altos/1187-Laureles-Dr-94022/home/1179292,MLSListings,ML81676675,N,Y,37.4048316,-122.120321
PAST SALE,November-8-2017,Condo/Co-op,108 Cuesta Dr,LOS ALTOS,CA,94022,1300000,2,2.5,LOS ALTOS,1206,2028,1989,83,1078,275,Sold,,,http://www.redfin.com/CA/Los-Altos/108-Cuesta-Dr-94022/unit-4/home/1749161,MLSListings,ML81678750,N,Y,37.373806,-122.111585
PAST SALE,,Single Family Residential,201 Valley St,Los Altos,CA,94022,3220000,3,2.5,,1576,9685,1962,,2043,,,,,http://www.redfin.com/CA/Los-Altos/201-Valley-St-94022/home/1102784,,,N,Y,37.3788964,-122.1095088
PAST SALE,,Townhouse,4388 El Camino Real Unit 29,Los Altos,CA,94022,1350000,3,2.0,,1600,1227,2009,,844,,,,,http://www.redfin.com/CA/Los-Altos/4388-El-Camino-Real-94022/unit-29/home/21672957,,,N,Y,37.403772,-122.1176126
PAST SALE,November-22-2017,Single Family Residential,231 Yerba Buena Ave,LOS ALTOS,CA,94022,3600000,3,2.5,LOS ALTOS,2354,14478,1957,69,1529,,Sold,,,http://www.redfin.com/CA/Los-Altos/231-Yerba-Buena-Ave-94022/home/631161,MLSListings,ML81681184,N,Y,37.3868348,-122.1196867
PAST SALE,October-6-2017,Single Family Residential,1920 Limetree Ln,MOUNTAIN VIEW,CA,94040,3100000,4,2.5,MOUNTAIN VIEW,2433,8000,1963,116,1274,,Sold,,,http://www.redfin.com/CA/Mountain-View/1920-Limetree-Ln-94040/home/1748373,MLSListings,ML81676734,N,Y,37.3676933,-122.0953482
PAST SALE,,Single Family Residential,1112 Blue Lake Sq,Mountain View,CA,94040,2400000,4,2.0,,2285,3960,1973,,1050,,,,,http://www.redfin.com/CA/Mountain-View/1112-Blue-Lake-Sq-94040/home/543883,,,N,Y,37.3580226,-122.0703592
PAST SALE,September-6-2017,Townhouse,1682 Belleville Way,SUNNYVALE,CA,94087,1285000,2,2.5,SUNNYVALE,1300,1950,1985,146,988,290,Sold,,,http://www.redfin.com/CA/Sunnyvale/1682-Belleville-Way-94087/home/1700314,MLSListings,ML81672433,N,Y,37.338016,-122.060729
PAST SALE,November-22-2017,Townhouse,486 Gabilan St,LOS ALTOS,CA,94022,1850000,3,2.5,LOS ALTOS,1580,2120,1998,69,1171,313,Sold,,,http://www.redfin.com/CA/Los-Altos/486-Gabilan-St-94022/home/1031167,MLSListings,ML81679614,N,Y,37.374132,-122.110907
PAST SALE,October-30-2017,Single Family Residential,3 Hampton Ct,LOS ALTOS,CA,94022,3000000,4,2.5,LOS ALTOS,2160,9840,1964,92,1389,,Sold,,,http://www.redfin.com/CA/Los-Altos/3-Hampton-Ct-94022/home/1589529,MLSListings,ML81679483,N,Y,37.3818399,-122.1198521
PAST SALE,October-20-2017,Single Family Residential,415 Guadalupe Dr,LOS ALTOS,CA,94022,3228000,4,2.5,LOS ALTOS,2520,10101,1965,102,1281,,Sold,,,http://www.redfin.com/CA/Los-Altos/415-Guadalupe-Dr-94022/home/633438,MLSListings,ML81677603,N,Y,37.3890298,-122.1214772
PAST SALE,,Single Family Residential,255 Yerba Buena Pl,Los Altos,CA,94022,3850000,3,2.0,,2315,11840,1957,,1663,,,,,http://www.redfin.com/CA/Los-Altos/255-Yerba-Buena-Pl-94022/home/631153,,,N,Y,37.3880628,-122.1198737
PAST SALE,November-28-2017,Single Family Residential,387 Warec Way,LOS ALTOS,CA,94022,3616000,5,2.5,LOS ALTOS,3132,13063,1955,63,1155,,Sold,,,http://www.redfin.com/CA/Los-Altos/387-Warec-Way-94022/home/1601940,MLSListings,ML81682906,N,Y,37.3821869,-122.122855
PAST SALE,December-19-2017,Single Family Residential,351 Lunada Ct,LOS ALTOS,CA,94022,3500000,4,2.5,LOS ALTOS,2245,10686,1962,42,1559,,Sold,,,http://www.redfin.com/CA/Los-Altos/351-Lunada-Ct-94022/home/593775,MLSListings,ML81684898,N,Y,37.402592,-122.121699
PAST SALE,August-15-2017,Single Family Residential,810 Amber Ln,LOS ALTOS,CA,94024,2700000,4,2.5,LOS ALTOS,2081,7828,1959,168,1297,,Sold,,,http://www.redfin.com/CA/Los-Altos/810-Amber-Ln-94024/home/1635712,MLSListings,ML81671473,N,Y,37.3677554,-122.1122764
PAST SALE,November-30-2017,Single Family Residential,815 Orchid Pl,LOS ALTOS,CA,94024,3000000,4,2.5,LOS ALTOS,2201,14175,1959,61,1363,,Sold,,,http://www.redfin.com/CA/Los-Altos/815-Orchid-Pl-94024/home/1605029,MLSListings,ML81681729,N,Y,37.3688134,-122.110244
PAST SALE,August-29-2017,Single Family Residential,1160 Eureka Ave,LOS ALTOS,CA,94024,2875000,4,2.5,LOS ALTOS,2047,14006,1950,154,1404,,Sold,,,http://www.redfin.com/CA/Los-Altos/1160-Eureka-Ave-94024/home/1277912,MLSListings,ML81673996,N,Y,37.3575615,-122.0826916
PAST SALE,August-21-2017,Single Family Residential,1233 Eureka Ave,LOS ALTOS,CA,94024,3100000,4,2.5,LOS ALTOS,2229,10103,1964,162,1391,,Sold,,,http://www.redfin.com/CA/Los-Altos/1233-Eureka-Ave-94024/home/646202,MLSListings,ML81671700,N,Y,37.3579935,-122.0797495
PAST SALE,November-6-2017,Single Family Residential,669 Kingswood Way,LOS ALTOS,CA,94022,3420000,3,2.5,LOS ALTOS,2046,10000,1957,85,1672,,Sold,,,http://www.redfin.com/CA/Los-Altos/669-Kingswood-Way-94022/home/1321285,MLSListings,ML81681284,N,Y,37.3936445,-122.1177825
PAST SALE,August-22-2017,Single Family Residential,921 Matts Ct,LOS ALTOS,CA,94024,2350000,4,2.5,LOS ALTOS,2542,9900,1983,161,924,,Sold,,,http://www.redfin.com/CA/Los-Altos/921-Matts-Ct-94024/home/847491,MLSListings,ML81670492,N,Y,37.3665055,-122.1141178
PAST SALE,August-29-2017,Townhouse,1931 Amalfi Way,MOUNTAIN VIEW,CA,94040,1960000,3,2.5,MOUNTAIN VIEW,1977,3084,1979,154,991,495,Sold,,,http://www.redfin.com/CA/Mountain-View/1931-Amalfi-Way-94040/home/856067,MLSListings,ML81671523,N,Y,37.3672314,-122.0860697
PAST SALE,October-29-2017,Townhouse,412 Tyndall St,LOS ALTOS,CA,94022,1750000,2,2.5,LOS ALTOS,1482,1775,2009,93,1181,322,Sold,,,http://www.redfin.com/CA/Los-Altos/412-Tyndall-St-94022/home/18704100,MLSListings,ML81678082,N,Y,37.3751203,-122.1134021
PAST SALE,December-8-2017,Single Family Residential,431 Juanita Way,LOS ALTOS,CA,94022,3365750,4,2.5,LOS ALTOS,2771,10592,1967,53,1215,,Sold,,,http://www.redfin.com/CA/Los-Altos/431-Juanita-Way-94022/home/708791,MLSListings,ML81684336,Y,Y,37.3911769,-122.1249552
PAST SALE,September-20-2017,Single Family Residential,1916 Fallen Leaf Ln,LOS ALTOS,CA,94024,2760000,4,2.5,LOS ALTOS,2400,9375,1952,132,1150,,Sold,,,http://www.redfin.com/CA/Los-Altos/1916-Fallen-Leaf-Ln-94024/home/995869,MLSListings,ML81676709,N,Y,37.3442256,-122.0663278
PAST SALE,September-20-2017,Single Family Residential,180 CHATHAM Way,MOUNTAIN VIEW,CA,94040,2753000,5,2.5,MOUNTAIN VIEW,2780,8200,1966,132,990,,Sold,,,http://www.redfin.com/CA/Mountain-View/180-Chatham-Way-94040/home/1611962,MLSListings,ML81674057,N,Y,37.3679117,-122.0772729
PAST SALE,November-6-2017,Single Family Residential,1392 Bedford Ave,SUNNYVALE,CA,94087,2436000,3,2.5,SUNNYVALE,2034,8588,1975,85,1198,,Sold,,,http://www.redfin.com/CA/Sunnyvale/1392-Bedford-Ave-94087/home/926205,MLSListings,ML81677674,N,Y,37.3480929,-122.0630525
PAST SALE,December-15-2017,Single Family Residential,366 Fontainbleau Ter,LOS ALTOS,CA,94022,3162500,3,2.5,LOS ALTOS,2397,8836,1964,46,1319,,Sold,,,http://www.redfin.com/CA/Los-Altos/366-Fontainbleau-Ter-94022/home/1240058,MLSListings,ML81684295,N,Y,37.3883377,-122.1129122
PAST SALE,October-11-2017,Single Family Residential,1631 Dennis Ln,MOUNTAIN VIEW,CA,94040,2745000,4,2.5,MOUNTAIN VIEW,2169,6634,2017,111,1266,,Sold,,,http://www.redfin.com/CA/Mountain-View/1631-Dennis-Ln-94040/home/644127,MLSListings,ML81676910,N,Y,37.3863907,-122.0949175
PAST SALE,,Single Family Residential,23310 Mora Glen Dr,Los Altos,CA,94024,3450000,4,3.0,,3323,45738,1959,,1038,,,,,http://www.redfin.com/CA/Los-Altos/23310-Mora-Glen-Dr-94024/home/1540797,,,N,Y,37.3408556,-122.0963227
PAST SALE,September-20-2017,Single Family Residential,22647 Oakcrest Ct,CUPERTINO,CA,95014,2700000,4,2.5,CUPERTINO,2531,13846,1979,132,1067,,Sold,,,http://www.redfin.com/CA/Cupertino/22647-Oakcrest-Ct-95014/home/781494,MLSListings,ML81674208,N,Y,37.3292547,-122.070327
PAST SALE,August-8-2017,Single Family Residential,830 Arroyo Rd,LOS ALTOS,CA,94024,3470000,4,3.0,LOS ALTOS,1800,17500,1950,175,1928,,Sold,,,http://www.redfin.com/CA/Los-Altos/830-Arroyo-Rd-94024/home/768958,MLSListings,ML81670692,N,Y,37.3816283,-122.0909635
PAST SALE,November-17-2017,Single Family Residential,466 Cuesta Dr,LOS ALTOS,CA,94024,3275000,4,3.0,LOS ALTOS,2787,11662,1949,74,1175,,Sold,,,http://www.redfin.com/CA/Los-Altos/466-Cuesta-Dr-94024/home/1432632,MLSListings,ML81682087,N,Y,37.373468,-122.1029316
PAST SALE,November-13-2017,Single Family Residential,288 Sunkist Ln,LOS ALTOS,CA,94022,3900000,4,3.0,LOS ALTOS,3350,13000,1990,78,1164,,Sold,,,http://www.redfin.com/CA/Los-Altos/288-Sunkist-Ln-94022/home/1073500,MLSListings,ML81681798,Y,Y,37.3865377,-122.1056919
PAST SALE,November-13-2017,Single Family Residential,1224 Gronwall Ct,LOS ALTOS,CA,94024,2970000,4,3.0,LOS ALTOS,2520,11850,1973,78,1179,,Sold,,,http://www.redfin.com/CA/Los-Altos/1224-Gronwall-Ct-94024/home/1567174,MLSListings,ML81682904,N,Y,37.3574595,-122.1025464
PAST SALE,December-21-2017,Single Family Residential,2047 Cecelia Way,MOUNTAIN VIEW,CA,94040,2805000,4,3.0,MOUNTAIN VIEW,2348,6813,1953,40,1195,,Sold,,,http://www.redfin.com/CA/Mountain-View/2047-Cecelia-Way-94040/home/1375893,MLSListings,ML81685809,N,Y,37.3899182,-122.101785
PAST SALE,October-30-2017,Single Family Residential,703 Benvenue Ave,LOS ALTOS,CA,94024,4250000,4,3.0,LOS ALTOS,2713,10800,1957,92,1567,,Sold,,,http://www.redfin.com/CA/Los-Altos/703-Benvenue-Ave-94024/home/879995,MLSListings,ML81680087,N,Y,37.3743312,-122.0992926
PAST SALE,September-19-2017,Single Family Residential,1504 Redwood Dr,LOS ALTOS,CA,94024,2460000,4,3.0,LOS ALTOS,2418,10738,1959,133,1017,,Sold,,,http://www.redfin.com/CA/Los-Altos/1504-Redwood-Dr-94024/home/1263890,MLSListings,ML81671511,N,Y,37.3355751,-122.0716933
PAST SALE,October-25-2017,Single Family Residential,1939 Newcastle Dr,LOS ALTOS,CA,94024,3200000,4,3.0,LOS ALTOS,3029,10100,1957,97,1056,,Sold,,,http://www.redfin.com/CA/Los-Altos/1939-Newcastle-Dr-94024/home/1443002,MLSListings,ML81679278,N,Y,37.3437998,-122.0713205
PAST SALE,October-23-2017,Single Family Residential,2006 Farndon Ave,LOS ALTOS,CA,94024,3500000,5,3.0,LOS ALTOS,2886,10193,2007,99,1213,,Sold,,,http://www.redfin.com/CA/Los-Altos/2006-Farndon-Ave-94024/home/1493315,MLSListings,ML81679988,N,Y,37.3415027,-122.069064
PAST SALE,November-15-2017,Single Family Residential,1936 Churton Ave,LOS ALTOS,CA,94024,2900000,5,3.0,LOS ALTOS,2700,10000,1952,76,1074,,Sold,,,http://www.redfin.com/CA/Los-Altos/1936-Churton-Ave-94024/home/765750,MLSListings,ML81681890,N,Y,37.3435125,-122.068171
PAST SALE,November-14-2017,Single Family Residential,20 Angela Dr,LOS ALTOS,CA,94022,3350000,4,3.0,LOS ALTOS,2241,12400,1966,77,1495,,Sold,,,http://www.redfin.com/CA/Los-Altos/20-Angela-Dr-94022/home/635771,MLSListings,ML81680923,N,Y,37.3830244,-122.1135611
PAST SALE,August-24-2017,Single Family Residential,492 San Luis Ave,LOS ALTOS,CA,94024,2910000,4,3.0,LOS ALTOS,2182,9135,1947,159,1334,,Sold,,,http://www.redfin.com/CA/Los-Altos/492-San-Luis-Ave-94024/home/1174488,MLSListings,ML81671640,N,Y,37.37434,-122.1023177
PAST SALE,August-7-2017,Single Family Residential,1290 Via Huerta,LOS ALTOS,CA,94024,3100000,5,3.0,LOS ALTOS,3100,15960,1962,176,1000,,Sold,,,http://www.redfin.com/CA/Los-Altos/1290-Via-Huerta-94024/home/1383575,MLSListings,ML81667112,N,Y,37.3380431,-122.0795764
PAST SALE,December-8-2017,Single Family Residential,733 Santa Rita Ave,LOS ALTOS,CA,94022,3430000,4,3.0,LOS ALTOS,3022,11200,1946,53,1135,,Sold,,,http://www.redfin.com/CA/Los-Altos/733-Santa-Rita-Ave-94022/home/1667352,MLSListings,ML81683354,N,Y,37.3949038,-122.1221099
PAST SALE,,Single Family Residential,141 April Ln,Mountain View,CA,94040,3100000,4,3.0,,2498,8309,2011,,1241,,,,,http://www.redfin.com/CA/Mountain-View/141-April-Ln-94040/home/41395712,,,N,Y,37.365638,-122.0771338
PAST SALE,August-22-2017,Single Family Residential,1720 Larkellen Ln,LOS ALTOS,CA,94024,2980000,5,3.0,LOS ALTOS,2737,10736,1956,161,1089,,Sold,,,http://www.redfin.com/CA/Los-Altos/1720-Larkellen-Ln-94024/home/647309,MLSListings,ML81668492,Y,Y,37.3548957,-122.0654758
PAST SALE,September-18-2017,Single Family Residential,1440 Fallen Leaf Ln,LOS ALTOS,CA,94024,2850000,5,3.0,LOS ALTOS,2308,10948,1957,134,1235,,Sold,,,http://www.redfin.com/CA/Los-Altos/1440-Fallen-Leaf-Ln-94024/home/621789,MLSListings,ML81674111,Y,Y,37.3562267,-122.0659177
PAST SALE,August-20-2017,Single Family Residential,1272 Townsend Ter,SUNNYVALE,CA,94087,1880000,4,3.0,SUNNYVALE,1885,4211,1995,163,997,55,Sold,,,http://www.redfin.com/CA/Sunnyvale/1272-Townsend-Ter-94087/home/1531923,MLSListings,ML81674793,N,Y,37.3540747,-122.060299
PAST SALE,September-29-2017,Single Family Residential,1225 Magdalena Ct,LOS ALTOS,CA,94024,4328000,5,3.0,LOS ALTOS,4812,43560,1961,123,899,,Sold,,,http://www.redfin.com/CA/Los-Altos/1225-Magdalena-Ct-94024/home/1431023,MLSListings,ML81677861,N,Y,37.3589957,-122.1009369
PAST SALE,October-17-2017,Single Family Residential,1634 Marymeade Ln,LOS ALTOS,CA,94024,3198000,4,3.0,LOS ALTOS,3183,11968,1987,105,1005,,Sold,,,http://www.redfin.com/CA/Los-Altos/1634-Marymeade-Ln-94024/home/1739777,MLSListings,ML81677253,Y,Y,37.3517188,-122.0792523
PAST SALE,January-10-2018,Single Family Residential,4276 Los Palos Ave,PALO ALTO,CA,94306,3670000,4,3.0,PALO ALTO,1957,9480,1950,20,1875,,Sold,,,http://www.redfin.com/CA/Palo-Alto/4276-Los-Palos-Ave-94306/home/1174745,MLSListings,ML81685474,Y,Y,37.4045208,-122.1242244
PAST SALE,October-19-2017,Single Family Residential,2075 Kent Dr,LOS ALTOS,CA,94024,2650000,4,3.0,LOS ALTOS,2318,10010,1962,103,1143,,Sold,,,http://www.redfin.com/CA/Los-Altos/2075-Kent-Dr-94024/home/1766877,MLSListings,ML81677824,N,Y,37.3412498,-122.0825827
PAST SALE,November-8-2017,Single Family Residential,1725 Miller Ave,LOS ALTOS,CA,94024,2800000,4,3.0,LOS ALTOS,3100,14533,1952,83,903,,Sold,,,http://www.redfin.com/CA/Los-Altos/1725-Miller-Ave-94024/home/775292,MLSListings,ML81678481,N,Y,37.3474968,-122.0995727
PAST SALE,December-29-2017,Single Family Residential,12121 Page Mill Rd,LOS ALTOS HILLS,CA,94022,3250000,4,3.0,LOS ALTOS HILLS,3155,44873,1973,32,1030,21,Sold,,,http://www.redfin.com/CA/Los-Altos-Hills/12121-Page-Mill-Rd-94022/home/659646,MLSListings,ML81686535,N,Y,37.3658679,-122.167588
PAST SALE,September-28-2017,Single Family Residential,86 Los Altos Ave,LOS ALTOS,CA,94022,3010000,4,3.0,LOS ALTOS,2698,11911,1965,124,1116,,Sold,,,http://www.redfin.com/CA/Los-Altos/86-Los-Altos-Ave-94022/home/1164529,MLSListings,ML81674420,N,Y,37.3829952,-122.1214851
PAST SALE,September-25-2017,Single Family Residential,11741 PAR Ave,LOS ALTOS,CA,94024,2050000,5,3.0,LOS ALTOS,1980,6360,1950,127,1035,,Sold,,,http://www.redfin.com/CA/Los-Altos/11741-Par-Ave-94024/home/916989,MLSListings,ML81670372,N,Y,37.3519622,-122.1078213
PAST SALE,,Single Family Residential,1350 Garthwick Dr,Los Altos,CA,94024,3010000,4,3.0,,2528,11760,1956,,1191,,,,,http://www.redfin.com/CA/Los-Altos/1350-Garthwick-Dr-94024/home/1508611,,,N,Y,37.353928276,-122.0762669
PAST SALE,December-4-2017,Single Family Residential,1220 Carmel Ter,LOS ALTOS,CA,94024,3200000,3,3.0,LOS ALTOS,1710,13050,1950,57,1871,,Sold,,,http://www.redfin.com/CA/Los-Altos/1220-Carmel-Ter-94024/home/645678,MLSListings,ML81683278,N,Y,37.3618761,-122.0827637
PAST SALE,January-16-2018,Single Family Residential,1832 Granger Ave,LOS ALTOS,CA,94024,3225000,4,3.0,LOS ALTOS,2910,11430,1954,14,1108,,Sold,,,http://www.redfin.com/CA/Los-Altos/1832-Granger-Ave-94024/home/777019,MLSListings,ML81686273,N,Y,37.3466595,-122.0808679
PAST SALE,,Single Family Residential,1287 Albion Ln,Sunnyvale,CA,94087,2400000,6,3.0,,2915,8056,1976,,823,,,,,http://www.redfin.com/CA/Sunnyvale/1287-Albion-Ln-94087/home/769968,,,N,Y,37.3510053,-122.0618922
PAST SALE,September-29-2017,Single Family Residential,4284 Los Palos Cir,PALO ALTO,CA,94306,3660000,4,3.0,PALO ALTO,2460,10564,1950,123,1488,,Sold,,,http://www.redfin.com/CA/Palo-Alto/4284-Los-Palos-Cir-94306/home/1684027,MLSListings,ML81676722,N,Y,37.4040269,-122.1243344
PAST SALE,August-30-2017,Single Family Residential,462 Deodara Dr,LOS ALTOS,CA,94024,2750000,5,3.0,LOS ALTOS,2680,25414,1951,153,1026,,Sold,,,http://www.redfin.com/CA/Los-Altos/462-Deodara-Dr-94024/home/776901,MLSListings,ML81672345,N,Y,37.341608,-122.0737533
PAST SALE,September-6-2017,Single Family Residential,319 Lunada Ct,LOS ALTOS,CA,94022,3025000,4,3.0,LOS ALTOS,2266,12705,1961,146,1335,,Sold,,,http://www.redfin.com/CA/Los-Altos/319-Lunada-Ct-94022/home/1722439,MLSListings,ML81671370,N,Y,37.4023157,-122.1212324
PAST SALE,November-9-2017,Single Family Residential,11682 Winding Way,LOS ALTOS,CA,94024,2250000,3,3.0,LOS ALTOS,1539,6160,2008,82,1462,,Sold,,,http://www.redfin.com/CA/Los-Altos/11682-Winding-Way-94024/home/21841149,MLSListings,ML81679279,N,Y,37.3501,-122.106659
PAST SALE,October-19-2017,Single Family Residential,970 Golden Way,LOS ALTOS,CA,94024,2950000,4,3.0,LOS ALTOS,2386,10764,1964,103,1236,,Sold,,,http://www.redfin.com/CA/Los-Altos/970-Golden-Way-94024/home/1094215,MLSListings,ML81678810,N,Y,37.3656984,-122.0911899
PAST SALE,,Single Family Residential,688 Coral Ct,Los Altos,CA,94024,3508000,3,3.0,,1993,11880,1954,,1760,,,,,http://www.redfin.com/CA/Los-Altos/688-Coral-Ct-94024/home/1494981,,,N,Y,37.381506,-122.097218
PAST SALE,,Single Family Residential,278 Alta Vista Ave,Los Altos,CA,94022,2900000,3,3.0,,3095,7000,1985,,937,,,,,http://www.redfin.com/CA/Los-Altos/278-Alta-Vista-Ave-94022/home/564195,,,N,Y,37.3863067,-122.1230415
PAST SALE,November-24-2017,Single Family Residential,829 Santa Rita Ave,LOS ALTOS,CA,94022,3600000,4,3.5,LOS ALTOS,2996,13682,1948,67,1202,,Sold,,,http://www.redfin.com/CA/Los-Altos/829-Santa-Rita-Ave-94022/home/1527559,MLSListings,ML81682152,N,Y,37.397412,-122.1221116
PAST SALE,December-7-2017,Single Family Residential,500 University Ave,LOS ALTOS,CA,94022,7605000,4,3.5,LOS ALTOS,4515,25656,1905,54,1684,175,Sold,,,http://www.redfin.com/CA/Los-Altos/500-University-Ave-94022/home/1352260,MLSListings,ML81683484,N,Y,37.3737544,-122.1184968
PAST SALE,December-22-2017,Single Family Residential,90 Sioux Ln,LOS ALTOS,CA,94022,4500000,5,3.5,LOS ALTOS,3340,12501,2000,39,1347,,Sold,,,http://www.redfin.com/CA/Los-Altos/90-Sioux-Ln-94022/home/635776,MLSListings,ML81686510,N,Y,37.3823538,-122.1120402
PAST SALE,December-29-2017,Single Family Residential,70 E Portola Ave,LOS ALTOS,CA,94022,3400000,3,3.5,LOS ALTOS,3418,8351,2003,32,995,,Sold,,,http://www.redfin.com/CA/Los-Altos/70-E-Portola-Ave-94022/home/1760645,MLSListings,ML81684406,N,Y,37.3964477,-122.112726
PAST SALE,September-20-2017,Single Family Residential,455 Aspen Way,LOS ALTOS,CA,94024,3526000,4,3.5,LOS ALTOS,2984,22215,1954,132,1182,,Sold,,,http://www.redfin.com/CA/Los-Altos/455-Aspen-Way-94024/home/1191813,MLSListings,ML81672992,N,Y,37.3383719,-122.0762314
PAST SALE,December-8-2017,Single Family Residential,2024 Louise Ln,LOS ALTOS,CA,94024,3625000,5,3.5,LOS ALTOS,3124,11600,1959,53,1160,,Sold,,,http://www.redfin.com/CA/Los-Altos/2024-Louise-Ln-94024/home/768143,MLSListings,ML81683565,N,Y,37.3408826,-122.0667881
PAST SALE,August-16-2017,Single Family Residential,1086 Russell Ave,LOS ALTOS,CA,94024,3200000,5,3.5,LOS ALTOS,2639,10239,1953,167,1213,,Sold,,,http://www.redfin.com/CA/Los-Altos/1086-Russell-Ave-94024/home/1611864,MLSListings,ML81670705,N,Y,37.3635817,-122.0900372
PAST SALE,August-17-2017,Single Family Residential,1240 Sandalwood Ln,LOS ALTOS,CA,94024,3600000,4,3.5,LOS ALTOS,3215,11056,2006,166,1120,,Sold,,,http://www.redfin.com/CA/Los-Altos/1240-Sandalwood-Ln-94024/home/778413,MLSListings,ML81672544,N,Y,37.3457971,-122.0812974
PAST SALE,September-20-2017,Single Family Residential,10275 Kenbar Rd,LOS ALTOS,CA,94024,3200000,3,3.5,LOS ALTOS,2845,52228,1951,132,1125,,Sold,,,http://www.redfin.com/CA/Los-Altos-Hills/10275-Kenbar-Rd-94024/home/777473,MLSListings,ML81671472,N,Y,37.338301,-122.103761
PAST SALE,October-27-2017,Single Family Residential,1780 Austin Ave,LOS ALTOS,CA,94024,2825000,4,3.5,LOS ALTOS,2753,12255,1955,95,1026,,Sold,,,http://www.redfin.com/CA/Los-Altos/1780-Austin-Ave-94024/home/1673943,MLSListings,ML81677703,N,Y,37.3478641,-122.074438
PAST SALE,October-27-2017,Single Family Residential,1244 Stanwirth Ct,LOS ALTOS,CA,94024,3850000,4,3.5,LOS ALTOS,3000,12528,1972,95,1283,,Sold,,,http://www.redfin.com/CA/Los-Altos/1244-Stanwirth-Ct-94024/home/645250,MLSListings,ML81680456,N,Y,37.357487,-122.078724
PAST SALE,December-22-2017,Single Family Residential,1671 Ben Roe Dr,LOS ALTOS,CA,94024,2798000,7,3.5,LOS ALTOS,2761,9569,1958,39,1013,,Sold,,,http://www.redfin.com/CA/Los-Altos/1671-Ben-Roe-Dr-94024/home/1264970,MLSListings,ML81686536,N,Y,37.3487635,-122.0667382
PAST SALE,October-24-2017,Single Family Residential,802 Pico Ln,LOS ALTOS,CA,94022,3610000,4,3.5,LOS ALTOS,2487,8250,2012,98,1452,,Sold,,,http://www.redfin.com/CA/Los-Altos/802-Pico-Ln-94022/home/1653080,MLSListings,ML81677780,N,Y,37.3968712,-122.1128846
PAST SALE,August-4-2017,Townhouse,410 Gene Ct,PALO ALTO,CA,94306,2380000,4,3.5,PALO ALTO,2049,1580,2013,179,1162,157,Sold,,,http://www.redfin.com/CA/Palo-Alto/410-Gene-Ct-94306/home/95955060,MLSListings,ML81668624,N,Y,37.4059567,-122.1178292
PAST SALE,August-3-2017,Single Family Residential,434 Orange Ave,LOS ALTOS,CA,94022,3350000,4,3.5,LOS ALTOS,3332,6098,2017,180,1005,,Sold,,,http://www.redfin.com/CA/Los-Altos/434-Orange-Ave-94022/home/113848485,MLSListings,ML81649337,N,Y,37.375016,-122.117625
PAST SALE,October-31-2017,Single Family Residential,221 Fremont Ave,LOS ALTOS,CA,94024,4175000,4,3.5,LOS ALTOS,3225,37600,1976,91,1295,,Sold,,,http://www.redfin.com/CA/Los-Altos/221-Fremont-Ave-94024/home/1722631,MLSListings,ML81680391,N,Y,37.3699698,-122.1089639
PAST SALE,September-27-2017,Single Family Residential,1554 Plateau Ave,LOS ALTOS,CA,94024,2900000,3,3.5,LOS ALTOS,3494,44431,1937,125,830,,Sold,,,http://www.redfin.com/CA/Los-Altos/1554-Plateau-Ave-94024/home/1013041,MLSListings,ML81677443,N,Y,37.3524964,-122.1051991
PAST SALE,,Single Family Residential,1515 Oakhurst Ave,Los Altos,CA,94024,3000000,3,4.0,,4121,33288,1971,,728,,,,,http://www.redfin.com/CA/Los-Altos/1515-Oakhurst-Ave-94024/home/646274,,,N,Y,37.3539613,-122.0832098
PAST SALE,November-21-2017,Single Family Residential,170 Almond Ave,LOS ALTOS,CA,94022,2895000,4,4.0,LOS ALTOS,2721,13300,1950,70,1064,,Sold,,,http://www.redfin.com/CA/Los-Altos/170-Almond-Ave-94022/home/1137400,MLSListings,ML81681215,N,Y,37.384735,-122.1102695
PAST SALE,January-17-2018,Single Family Residential,570 University Ter,LOS ALTOS,CA,94022,6000000,5,4.0,LOS ALTOS,5040,32359,1950,13,1190,,Sold,,,http://www.redfin.com/CA/Los-Altos/570-University-Ter-94022/home/968762,MLSListings,ML81688664,N,Y,37.3726515,-122.118623
PAST SALE,November-8-2017,Single Family Residential,1730 Penny Way,LOS ALTOS,CA,94024,3498000,4,4.0,LOS ALTOS,3484,74052,1953,83,1004,,Sold,,,http://www.redfin.com/CA/Los-Altos/1730-Penny-Way-94024/home/1120198,MLSListings,ML81676889,N,Y,37.3455431,-122.0649222
PAST SALE,October-13-2017,Single Family Residential,60 Marvin Ave,LOS ALTOS,CA,94022,4025000,4,4.0,LOS ALTOS,2857,10500,1924,109,1409,,Sold,,,http://www.redfin.com/CA/Los-Altos/60-Marvin-Ave-94022/home/636030,MLSListings,ML81679413,N,Y,37.3760496,-122.1129203
PAST SALE,September-28-2017,Single Family Residential,144 Pepper Dr,LOS ALTOS,CA,94022,4650000,5,4.0,LOS ALTOS,3876,10890,2003,124,1200,,Sold,,,http://www.redfin.com/CA/Los-Altos/144-Pepper-Dr-94022/home/1044963,MLSListings,ML81676672,N,Y,37.3770752,-122.1109496
PAST SALE,August-11-2017,Single Family Residential,670 University Ave,LOS ALTOS,CA,94022,4700000,4,4.0,LOS ALTOS,3991,14810,1987,172,1178,,Sold,,,http://www.redfin.com/CA/Los-Altos/670-University-Ave-94022/home/1511576,MLSListings,ML81669769,N,Y,37.3711472,-122.11737
PAST SALE,October-19-2017,Single Family Residential,5721 Arboretum Dr,LOS ALTOS,CA,94024,4100000,5,4.0,LOS ALTOS,4681,21780,2006,103,876,,Sold,,,http://www.redfin.com/CA/Los-Altos/5721-Arboretum-Dr-94024/home/1035529,MLSListings,ML81677807,N,Y,37.3369532,-122.0757076
PAST SALE,,Single Family Residential,285 Quinnhill Rd,Los Altos,CA,94024,4496000,6,4.0,,3633,20651,1949,,1238,,,,,http://www.redfin.com/CA/Los-Altos/285-Quinnhill-Rd-94024/home/28895147,,,N,Y,37.3621689,-122.1088147
PAST SALE,November-8-2017,Single Family Residential,1435 Richardson Ave,LOS ALTOS,CA,94024,3420000,5,4.5,LOS ALTOS,3680,9440,2017,83,929,,Sold,,,http://www.redfin.com/CA/Los-Altos/1435-Richardson-Ave-94024/home/1635561,MLSListings,ML81680024,N,Y,37.3510209,-122.0736755
PAST SALE,September-22-2017,Single Family Residential,649 Mills Ave,LOS ALTOS,CA,94022,5200000,5,4.5,LOS ALTOS,4304,15568,2011,130,1208,,Sold,,,http://www.redfin.com/CA/Los-Altos/649-Mills-Ave-94022/home/642777,MLSListings,ML81653137,N,Y,37.3828615,-122.0976854
PAST SALE,September-11-2017,Single Family Residential,25777 Carado Ct,LOS ALTOS HILLS,CA,94022,4995000,7,4.5,LOS ALTOS HILLS,3623,47143,1971,141,1379,,Sold,,,http://www.redfin.com/CA/Los-Altos-Hills/25777-Carado-Ct-94022/home/1628073,MLSListings,ML81677464,N,Y,37.387511,-122.128022
PAST SALE,December-12-2017,Single Family Residential,1557 Plateau Ave,LOS ALTOS,CA,94024,3178000,4,4.5,LOS ALTOS,3572,9583,1993,49,890,,Sold,,,http://www.redfin.com/CA/Los-Altos/1557-Plateau-Ave-94024/home/774060,MLSListings,ML81677848,N,Y,37.3524929,-122.1039708
PAST SALE,November-15-2017,Single Family Residential,1424 Grant Rd,LOS ALTOS,CA,94024,4000000,5,4.5,LOS ALTOS,4509,17625,2017,76,887,,Sold,,,http://www.redfin.com/CA/Los-Altos/1424-Grant-Rd-94024/home/1691685,MLSListings,ML81649784,N,Y,37.3568949,-122.0782523
PAST SALE,October-20-2017,Single Family Residential,711 University Ave,LOS ALTOS,CA,94022,6700000,5,4.5,LOS ALTOS,5143,19140,1910,102,1303,,Sold,,,http://www.redfin.com/CA/Los-Altos/711-University-Ave-94022/home/637105,MLSListings,ML81676566,N,Y,37.370515,-122.1157517
PAST SALE,October-17-2017,Single Family Residential,1507 Arbor Ave,LOS ALTOS,CA,94024,3450000,5,4.5,LOS ALTOS,3264,9450,2006,105,1057,,Sold,,,http://www.redfin.com/CA/Los-Altos/1507-Arbor-Ave-94024/home/1178460,MLSListings,ML81677841,N,Y,37.354133,-122.091272
PAST SALE,September-7-2017,Single Family Residential,920 Terrace Dr,LOS ALTOS,CA,94024,4000000,5,4.5,LOS ALTOS,4390,15200,1987,145,911,,Sold,,,http://www.redfin.com/CA/Los-Altos/920-Terrace-Dr-94024/home/777297,MLSListings,ML81671883,N,Y,37.3483454,-122.0886984
PAST SALE,September-28-2017,Single Family Residential,903 Loyola Dr,LOS ALTOS,CA,94024,3560000,5,5.0,LOS ALTOS,4158,8288,2017,124,856,,Sold,,,http://www.redfin.com/CA/Los-Altos/903-Loyola-Dr-94024/home/108432207,MLSListings,ML81673309,N,Y,37.3511,-122.089818
PAST SALE,September-5-2017,Single Family Residential,140 Chatham Way,MOUNTAIN VIEW,CA,94040,3575000,5,5.0,MOUNTAIN VIEW,3978,9535,1966,147,899,,Sold,,,http://www.redfin.com/CA/Mountain-View/140-Chatham-Way-94040/home/1696977,MLSListings,ML81668436,N,Y,37.3675697,-122.0775227
PAST SALE,September-14-2017,Single Family Residential,220 University Ave,LOS ALTOS,CA,94022,9800000,4,5.0,LOS ALTOS,7683,55321,1926,138,1276,,Sold,,,http://www.redfin.com/CA/Los-Altos/220-University-Ave-94022/home/1467018,MLSListings,ML81653838,N,Y,37.3776462,-122.1195333
PAST SALE,November-3-2017,Single Family Residential,1455 Montclaire Pl,LOS ALTOS,CA,94024,3798000,5,5.0,LOS ALTOS,4283,10170,2005,88,887,,Sold,,,http://www.redfin.com/CA/Los-Altos/1455-Montclaire-Pl-94024/home/1493592,MLSListings,ML81676629,N,Y,37.3453348,-122.0832877
PAST SALE,November-7-2017,Single Family Residential,748 Loyola Dr,LOS ALTOS,CA,94024,7190000,5,5.5,LOS ALTOS,5327,25680,2008,84,1350,,Sold,,,http://www.redfin.com/CA/Los-Altos/748-Loyola-Dr-94024/home/774917,MLSListings,ML81673451,N,Y,37.347699,-122.09303
PAST SALE,November-22-2017,Single Family Residential,25 W Portola Ave,LOS ALTOS,CA,94022,4850000,7,5.5,LOS ALTOS,5152,10206,2008,69,941,,Sold,,,http://www.redfin.com/CA/Los-Altos/25-W-Portola-Ave-94022/home/1375856,MLSListings,ML81684187,N,Y,37.3970777,-122.1146162
PAST SALE,November-2-2017,Single Family Residential,480 Border Hill Rd,LOS ALTOS,CA,94024,5650000,4,5.5,LOS ALTOS,4629,21990,2008,89,1221,,Sold,,,http://www.redfin.com/CA/Los-Altos/480-Border-Hill-Rd-94024/home/1119017,MLSListings,ML81648681,N,Y,37.3625154,-122.1058591
PAST SALE,October-23-2017,Single Family Residential,55 Doud Dr,LOS ALTOS,CA,94022,5000000,5,5.5,LOS ALTOS,5010,11766,2017,99,998,,Sold,,,http://www.redfin.com/CA/Los-Altos/55-Doud-Dr-94022/home/112869356,MLSListings,ML81679479,N,Y,37.38265,-122.1019082
PAST SALE,November-17-2017,Single Family Residential,190 Osage Ave,LOS ALTOS,CA,94022,8100000,7,7.5,LOS ALTOS,6329,18934,2017,74,1280,,Sold,,,http://www.redfin.com/CA/Los-Altos/190-Osage-Ave-94022/home/634330,MLSListings,ML81654602,N,Y,37.3788336,-122.1063026
PAST SALE,December-5-2017,Vacant Land,02 Country Club Dr,LOS ALTOS,CA,94022,2120000,,,LOS ALTOS,,10112,,56,,,Sold,,,http://www.redfin.com/CA/Los-Altos/02-Country-Club-Dr-94024/home/116596249,MLSListings,ML81655081,N,Y,37.352047575,-122.0920757
PAST SALE,October-23-2017,Multi-Family (5+ Unit),4309 Collins Ct,MOUNTAIN VIEW,CA,94040,3888300,6,,MOUNTAIN VIEW,6703,10044,1957,99,580,,Sold,,,http://www.redfin.com/CA/Mountain-View/4309-Collins-Ct-94040/home/12171653,MLSListings,ML81670657,N,Y,37.4047656,-122.1162198
PAST SALE,October-10-2017,Multi-Family (2-4 Unit),1725 Marshall Ct,LOS ALTOS,CA,94024,2500000,5,,LOS ALTOS,3030,9332,1961,112,825,,Sold,,,http://www.redfin.com/CA/Los-Altos/1725-Marshall-Ct-94024/home/768161,MLSListings,ML81676880,N,Y,37.338264,-122.062716
PAST SALE,January-17-2018,Vacant Land,01 Country Club Dr,LOS ALTOS,CA,94022,2285000,,,LOS ALTOS,,10027,,13,,,Sold,,,http://www.redfin.com/CA/Los-Altos/01-Country-Club-Dr-94024/home/116597644,MLSListings,ML81655082,N,Y,37.352130729,-122.091845
PAST SALE,August-21-2017,Single Family Residential,13 Cypress Ct,LOS ALTOS,CA,94022,2450000,0,,LOS ALTOS,1,11034,1950,162,2450000,,Sold,,,http://www.redfin.com/CA/Los-Altos-Hills/13-Cypress-Ct-94022/home/141782553,MLSListings,ML81669753,N,Y,37.382375,-122.125165
