SALE TYPE,SOLD DATE,PROPERTY TYPE,ADDRESS,CITY,STATE,ZIP,PRICE,BEDS,BATHS,LOCATION,SQUARE FEET,LOT SIZE,YEAR BUILT,DAYS ON MARKET,$/SQUARE FEET,HOA/MONTH,STATUS,NEXT OPEN HOUSE START TIME,NEXT OPEN HOUSE END TIME,URL (SEE http://www.redfin.com/buy-a-home/comparative-market-analysis FOR INFO ON PRICING),SOURCE,MLS#,FAVORITE,INTERESTED,LATITUDE,LONGITUDE
PAST SALE,August-1-2017,Condo/Co-op,530 El Camino Real #301,BURLINGAME,CA,94010,1040000,2,2.0,BURLINGAME,1377,42608,2000,182,755,321,Sold,,,http://www.redfin.com/CA/Burlingame/530-El-Camino-Real-94010/unit-301/home/1003994,MLSListings,ML81667565,N,Y,37.5778647,-122.3539293
PAST SALE,December-29-2017,Multi-Family (2-4 Unit),489 Rollins Rd,BURLINGAME,CA,94010,1288000,3,,BURLINGAME,1528,4094,1950,32,843,,Sold,,,http://www.redfin.com/CA/Burlingame/489-Rollins-Rd-94010/home/691596,MLSListings,ML81687136,N,Y,37.586513,-122.3413995
PAST SALE,October-10-2017,Single Family Residential,717 Neuchatel Ave,BURLINGAME,CA,94010,1450000,2,1.0,BURLINGAME,940,3441,1926,112,1543,,Sold,,,http://www.redfin.com/CA/Burlingame/717-Neuchatel-Ave-94010/home/687860,MLSListings,ML81676096,N,Y,37.5817315,-122.35286
PAST SALE,November-7-2017,Single Family Residential,1460 Balboa Ave,BURLINGAME,CA,94010,2135000,3,1.0,BURLINGAME,1850,7000,1936,84,1154,,Sold,,,http://www.redfin.com/CA/Burlingame/1460-Balboa-Ave-94010/home/678003,MLSListings,ML81679659,Y,Y,37.5881595,-122.3747271
PAST SALE,June-7-2016,Condo/Co-op,904 Bayswater Ave #3,Burlingame,CA,94010,1058000,2,2.5,Burlingame,1454,,2014,602,728,675,Sold,,,http://www.redfin.com/CA/Burlingame/904-Bayswater-Ave-94010/unit-3/home/61707649,San Francisco MLS,443602,N,Y,37.579044,-122.34028
PAST SALE,August-8-2017,Condo/Co-op,300 Murchison Dr #223,MILLBRAE,CA,94030,685000,1,1.0,MILLBRAE,734,72970,1989,175,933,431,Sold,,,http://www.redfin.com/CA/Millbrae/300-Murchison-Dr-94030/unit-223/home/1720676,MLSListings,ML81668953,N,Y,37.5948231,-122.3882851
PAST SALE,July-14-2016,Condo/Co-op,320 Peninsula Ave #211,San Mateo,CA,94401,680000,2,2.0,San Mateo,930,,1987,565,731,375,Sold,,,http://www.redfin.com/CA/San-Mateo/320-Peninsula-Ave-94401/unit-211/home/1074686,San Francisco MLS,444556,N,Y,37.5776793,-122.3377658
PAST SALE,May-16-2016,Single Family Residential,1463 Vancouver Ave,Burlingame,CA,94010,3300000,5,4.5,Burlingame,3121,6875,2001,624,1057,,Sold,,,http://www.redfin.com/CA/Burlingame/1463-Vancouver-Ave-94010/home/2028605,San Francisco MLS,443381,N,Y,37.5845822,-122.3781123
PAST SALE,December-15-2015,Multi-Family (2-4 Unit),39 Lorton Ave,Burlingame,CA,94010,1675000,3,2.5,Burlingame,1906,4000,1907,777,879,,Sold,,,http://www.redfin.com/CA/Burlingame/39-Lorton-Ave-94010/home/1782313,San Francisco MLS,439147,N,Y,37.576181,-122.343207
PAST SALE,August-31-2017,Condo/Co-op,1500 Broadway #306,BURLINGAME,CA,94010,860000,2,2.0,BURLINGAME,1222,17670,1973,152,704,455,Sold,,,http://www.redfin.com/CA/Burlingame/1500-Broadway-94010/unit-306/home/1508796,MLSListings,ML81668746,N,Y,37.5841049,-122.3667227
PAST SALE,December-2-2015,Multi-Family (2-4 Unit),501-505 Marin Dr,Burlingame,CA,94010,1350000,4,2.0,Burlingame,2212,5250,1941,790,610,,Sold,,,http://www.redfin.com/CA/Burlingame/505-Marin-Dr-94010/home/103662793,San Francisco MLS,438706,N,Y,37.5864861,-122.3461854
PAST SALE,March-10-2015,Single Family Residential,909 rose,BURLINGAME,CA,94010,1405000,3,2.0,BURLINGAME,1600,7100,1941,1057,878,,Sold,,,http://www.redfin.com/CA/Burlingame/909-Rose-Ct-94010/home/676381,MLSListings,ML81447725,N,Y,37.5863203,-122.3545452
PAST SALE,April-20-2015,Condo/Co-op,904 Bayswater Ave #2,BURLINGAME,CA,94010,1050000,2,2.5,BURLINGAME,1454,10000,2014,1016,722,675,Sold,,,http://www.redfin.com/CA/Burlingame/904-Bayswater-Ave-94010/unit-4/home/59855013,MLSListings,ML81452530,N,Y,37.579044,-122.34028
PAST SALE,,Single Family Residential,825 Edgehill Dr,Burlingame,CA,94010,1300000,2,1.0,,1190,8190,1917,,1092,,,,,http://www.redfin.com/CA/Burlingame/825-Edgehill-Dr-94010/home/689257,,,N,Y,37.5834302,-122.3556282
PAST SALE,November-20-2015,Condo/Co-op,1435 Bellevue Ave #307,BURLINGAME,CA,94010,800000,1,1.0,BURLINGAME,1076,,1979,802,743,537,Sold,,,http://www.redfin.com/CA/Burlingame/1435-Bellevue-Ave-94010/unit-307/home/113739120,MLSListings,ML81521181,N,Y,37.578431,-122.3511056
PAST SALE,December-4-2015,Condo/Co-op,1427 Floribunda Ave #306,BURLINGAME,CA,94010,780000,2,1.0,BURLINGAME,1046,26598,1974,788,746,282,Sold,,,http://www.redfin.com/CA/Burlingame/1427-Floribunda-Ave-94010/unit-306/home/1137707,MLSListings,ML81519538,N,Y,37.5796704,-122.3521185
PAST SALE,February-12-2016,Condo/Co-op,1210 Bellevue Ave #305,BURLINGAME,CA,94010,950000,2,2.0,BURLINGAME,1186,21318,1979,718,801,592,Sold,,,http://www.redfin.com/CA/Burlingame/1210-Bellevue-Ave-94010/unit-305/home/975994,MLSListings,ML81546846,N,Y,37.5804585,-122.3483168
PAST SALE,,Multi-Family (2-4 Unit),1508 Floribunda Ave,Burlingame,CA,94010,1020000,12,1.0,,,9715,1985,,,,,,,http://www.redfin.com/CA/Burlingame/1508-Floribunda-Ave-94010/home/1683634,,,N,Y,37.5791052,-122.3543806
PAST SALE,August-23-2016,Condo/Co-op,107 El Camino Real #204,BURLINGAME,CA,94010,1205000,3,3.0,BURLINGAME,1633,20381,2000,525,738,661,Sold,,,http://www.redfin.com/CA/Burlingame/107-El-Camino-Real-94010/unit-204/home/1245602,MLSListings,ML81595224,N,Y,37.5751014,-122.3461273
PAST SALE,July-2-2015,Single Family Residential,125 Arundel Rd,BURLINGAME,CA,94010,1533000,3,2.0,BURLINGAME,1520,7500,1907,943,1009,,Sold,,,http://www.redfin.com/CA/Burlingame/125-Arundel-Rd-94010/home/690377,MLSListings,ML81466320,N,Y,37.5802378,-122.3398081
PAST SALE,August-8-2016,Condo/Co-op,833 N Humboldt St #209,SAN MATEO,CA,94401,570000,1,1.0,SAN MATEO,693,,1965,540,823,399,Sold,,,http://www.redfin.com/CA/San-Mateo/833-N-Humboldt-St-94401/unit-209/home/17308081,MLSListings,ML81588701,N,Y,37.580688,-122.331245
PAST SALE,,Single Family Residential,321 Marcella Way,Millbrae,CA,94030,1400000,3,2.0,,1520,9100,1956,,921,,,,,http://www.redfin.com/CA/Millbrae/321-Marcella-Way-94030/home/672194,,,N,Y,37.589894,-122.3917354
PAST SALE,October-23-2015,Single Family Residential,2142 Roosevelt Ave,BURLINGAME,CA,94010,2000000,2,2.0,BURLINGAME,2010,7207,1965,830,995,,Sold,,,http://www.redfin.com/CA/Burlingame/2142-Roosevelt-Ave-94010/home/683276,MLSListings,ML81514943,N,Y,37.5786175,-122.3695914
PAST SALE,June-30-2015,Multi-Family (2-4 Unit),1249 Capuchino Ave,Burlingame,CA,94010,3058800,10,4.0,Burlingame,4074,6000,1930,945,751,,Sold,,,http://www.redfin.com/CA/Burlingame/1249-Capuchino-Ave-94010/home/1348180,San Francisco MLS,433240,N,Y,37.5858523,-122.3677376
PAST SALE,September-18-2015,Single Family Residential,1419 Carlos Ave,BURLINGAME,CA,94010,3400000,5,4.0,BURLINGAME,3010,6100,2015,865,1130,,Sold,,,http://www.redfin.com/CA/Burlingame/1419-Carlos-Ave-94010/home/683093,MLSListings,ML81514488,N,Y,37.5816963,-122.3785007
PAST SALE,October-16-2015,Condo/Co-op,380 Vallejo Dr #330,MILLBRAE,CA,94030,835000,2,2.0,MILLBRAE,1400,,1973,837,596,500,Sold,,,http://www.redfin.com/CA/Millbrae/380-Vallejo-Dr-94030/unit-330/home/1645421,MLSListings,ML81513137,N,Y,37.5827685,-122.4036234
PAST SALE,December-4-2015,Single Family Residential,1401 Capuchino Ave,BURLINGAME,CA,94010,2350000,4,3.5,BURLINGAME,2434,5000,2015,788,965,,Sold,,,http://www.redfin.com/CA/Burlingame/1401-Capuchino-Ave-94010/home/1828892,MLSListings,ML81520196,Y,Y,37.5877471,-122.3707701
PAST SALE,July-29-2016,Condo/Co-op,934 Peninsula Ave #309,SAN MATEO,CA,94401,537500,1,1.0,SAN MATEO,772,,1965,550,696,392,Sold,,,http://www.redfin.com/CA/San-Mateo/934-Peninsula-Ave-94401/unit-309/home/17308277,MLSListings,ML81588779,N,Y,37.580688,-122.331245
PAST SALE,April-28-2016,Condo/Co-op,928 Peninsula Ave #304,SAN MATEO,CA,94401,610000,1,1.0,SAN MATEO,758,,1965,642,805,398,Sold,,,http://www.redfin.com/CA/San-Mateo/928-Peninsula-Ave-94401/unit-304/home/17308212,MLSListings,ML81565649,N,Y,37.580688,-122.331245
PAST SALE,July-30-2015,Condo/Co-op,320 Peninsula Ave #419,SAN MATEO,CA,94401,570000,2,2.0,SAN MATEO,930,,1987,915,613,367,Sold,,,http://www.redfin.com/CA/San-Mateo/320-Peninsula-Ave-94401/unit-419/home/1500561,MLSListings,ML81470456,N,Y,37.5776793,-122.3377658
PAST SALE,,Condo/Co-op,1435 Bellevue Ave #307,Burlingame,CA,94010,800000,1,1.0,,1076,,1979,,743,,,,,http://www.redfin.com/CA/Burlingame/1435-Bellevue-Ave-94010/unit-307/home/1508871,,,N,Y,37.578431,-122.3511056
PAST SALE,August-13-2015,Multi-Family (5+ Unit),1111 Douglas Ave,BURLINGAME,CA,94010,6600000,3,,BURLINGAME,11480,7560,1969,901,575,,Sold,,,http://www.redfin.com/CA/Burlingame/1111-Douglas-Ave-94010/home/688734,MLSListings,ML81498174,N,Y,37.5807233,-122.3489482
PAST SALE,,Condo/Co-op,1520-1524 Floribunda Ave #102,Burlingame,CA,94010,2225000,3,2.0,,2128,,1999,,1046,,,,,http://www.redfin.com/CA/Burlingame/1520-1524-Floribunda-Ave-94010/unit-102/home/2059694,,,N,Y,37.578857,-122.35498
PAST SALE,June-10-2016,Condo/Co-op,1226 N El Camino Real. #303,BURLINGAME,CA,94010,1365000,2,2.0,BURLINGAME,1591,15336,2010,599,858,526,Sold,,,http://www.redfin.com/CA/Burlingame/1226-El-Camino-Real-94010/unit-303/home/28642670,MLSListings,ML81579458,N,Y,37.5850025,-122.367363
PAST SALE,May-12-2016,Single Family Residential,20 Country Club Dr,HILLSBOROUGH,CA,94010,4400000,3,2.5,HILLSBOROUGH,3480,26453,1956,628,1264,,Sold,,,http://www.redfin.com/CA/Hillsborough/20-Country-Club-Dr-94010/home/1247226,MLSListings,ML81580233,N,Y,37.5724265,-122.3553369
PAST SALE,August-4-2016,Multi-Family (2-4 Unit),1113-15 Rhinette Ave,BURLINGAME,CA,94010,1600000,5,,BURLINGAME,2730,5998,1912,544,586,,Sold,,,http://www.redfin.com/CA/Burlingame/1115-Rhinette-Ave-94010/home/108195276,MLSListings,ML81592390,N,Y,37.5873424,-122.3647674
PAST SALE,June-17-2016,Condo/Co-op,320 Peninsula Ave #402,SAN MATEO,CA,94401,643000,2,2.0,SAN MATEO,930,,1987,592,691,375,Sold,,,http://www.redfin.com/CA/San-Mateo/320-Peninsula-Ave-94401/unit-402/home/1114940,MLSListings,ML81581609,N,Y,37.5776793,-122.3377658
PAST SALE,July-22-2016,Single Family Residential,1830 Ashton Ave,BURLINGAME,CA,94010,2213000,4,3.0,BURLINGAME,2430,8030,1957,557,911,,Sold,,,http://www.redfin.com/CA/Burlingame/1830-S-Ashton-Ave-94010/home/670352,MLSListings,ML81589389,N,Y,37.588814,-122.391002
PAST SALE,May-22-2015,Single Family Residential,10 Gavilan Ct,MILLBRAE,CA,94030,1825000,4,2.0,MILLBRAE,2240,10000,1963,984,815,,Sold,,,http://www.redfin.com/CA/Millbrae/10-Gavilan-Ct-94030/home/1467818,MLSListings,ML81460928,N,Y,37.5842505,-122.4006458
PAST SALE,February-10-2015,Single Family Residential,6 Karen Ct,BURLINGAME,CA,94010,1648000,3,2.0,BURLINGAME,1720,8000,1957,1085,958,,Sold,,,http://www.redfin.com/CA/Burlingame/6-Karen-Ct-94010/home/669671,MLSListings,ML81446535,N,Y,37.5854077,-122.3893905
PAST SALE,March-26-2015,Single Family Residential,1819 HIllside Dr,BURLINGAME,CA,94010,1900000,3,2.0,BURLINGAME,1800,6000,1926,1041,1056,,Sold,,,http://www.redfin.com/CA/Burlingame/1819-Hillside-Dr-94010/home/1503774,MLSListings,ML81451229,N,Y,37.5847475,-122.374023
PAST SALE,April-17-2015,Single Family Residential,921 Azalea Ave,BURLINGAME,CA,94010,1351000,3,2.0,BURLINGAME,1380,5000,1940,1019,979,,Sold,,,http://www.redfin.com/CA/Burlingame/921-Azalea-Ave-94010/home/1994665,MLSListings,ML81453949,N,Y,37.5857728,-122.356304
PAST SALE,March-17-2015,Townhouse,119 Primrose Rd #3,BURLINGAME,CA,94010,940000,2,2.5,BURLINGAME,1443,8512,1982,1050,651,300,Sold,,,http://www.redfin.com/CA/Burlingame/119-Primrose-Rd-94010/unit-3/home/977987,MLSListings,ML81449428,N,Y,37.575707,-122.346246
PAST SALE,April-30-2015,Single Family Residential,3001 Hillside Dr,Burlingame,CA,94010,3250000,5,4.0,Burlingame,4170,13000,1930,1006,779,,Sold,,,http://www.redfin.com/CA/Burlingame/3001-Hillside-Dr-94010/home/110034436,San Francisco MLS,430198,N,Y,37.5778495,-122.3891584
PAST SALE,March-20-2015,Single Family Residential,114 BLOOMFIELD Rd,Burlingame,CA,94010,1507055,2,1.0,Lyon-Hoag,1250,7850,1925,1047,1206,,Sold,,,http://www.redfin.com/CA/Burlingame/114-Bloomfield-Rd-94010/home/1181215,MLSListings,ML81437965,N,Y,37.5809317,-122.3382176
PAST SALE,November-21-2016,Single Family Residential,23 Dwight Rd,BURLINGAME,CA,94010,1830000,4,2.0,BURLINGAME,2249,4961,1915,435,814,,Sold,,,http://www.redfin.com/CA/Burlingame/23-Dwight-Rd-94010/home/690878,MLSListings,ML81625698,N,Y,37.5809601,-122.3355278
PAST SALE,October-18-2016,Single Family Residential,134 Channing Rd,BURLINGAME,CA,94010,1675000,3,1.5,BURLINGAME,2100,6094,1908,469,798,,Sold,,,http://www.redfin.com/CA/Burlingame/134-Channing-Rd-94010/home/1514158,MLSListings,ML81613629,N,Y,37.5837032,-122.3352855
PAST SALE,,Multi-Family (2-4 Unit),441 Rollins Rd,Burlingame,CA,94010,548500,4,2.0,,1597,5500,1944,,343,,,,,http://www.redfin.com/CA/Burlingame/441-Rollins-Rd-94010/home/691632,,,N,Y,37.5864119,-122.3394948
PAST SALE,December-22-2015,Single Family Residential,408 Concord Way,BURLINGAME,CA,94010,1800000,3,2.0,BURLINGAME,1518,5390,1946,770,1186,,Sold,,,http://www.redfin.com/CA/Burlingame/408-Concord-Way-94010/home/2001486,MLSListings,ML81534139,N,Y,37.5852406,-122.3392507
PAST SALE,,Single Family Residential,228 Channing Rd,Burlingame,CA,94010,1545000,3,2.0,,1580,5750,1920,,978,,,,,http://www.redfin.com/CA/Burlingame/228-Channing-Rd-94010/home/2026574,,,N,Y,37.5850658,-122.3366853
PAST SALE,October-29-2015,Single Family Residential,125 Channing Rd,BURLINGAME,CA,94010,1680000,3,2.0,BURLINGAME,1890,5750,1929,824,889,,Sold,,,http://www.redfin.com/CA/Burlingame/125-Channing-Rd-94010/home/2052121,MLSListings,ML81498948,N,Y,37.5833528,-122.3355326
PAST SALE,,Single Family Residential,116 Channing Rd,Burlingame,CA,94010,1375000,3,2.0,,1830,5750,1926,,751,,,,,http://www.redfin.com/CA/Burlingame/116-Channing-Rd-94010/home/1521769,,,N,Y,37.5833402,-122.3348145
PAST SALE,May-4-2016,Single Family Residential,18 Dwight Rd,BURLINGAME,CA,94010,1825000,4,3.0,BURLINGAME,2460,5797,1927,636,742,,Sold,,,http://www.redfin.com/CA/Burlingame/18-Dwight-Rd-94010/home/693274,MLSListings,ML81548188,N,Y,37.5811031,-122.3349776
PAST SALE,September-13-2016,Single Family Residential,409 Burlingame Ave,BURLINGAME,CA,94010,2450000,4,3.0,BURLINGAME,2083,4691,1938,504,1176,,Sold,,,http://www.redfin.com/CA/Burlingame/409-Burlingame-Ave-94010/home/1078775,MLSListings,ML81598904,Y,Y,37.5844166,-122.3383126
PAST SALE,November-9-2015,Single Family Residential,401 Occidental Ave,BURLINGAME,CA,94010,3350000,4,4.0,BURLINGAME,2740,11760,1906,813,1223,,Sold,,,http://www.redfin.com/CA/Burlingame/401-Occidental-Ave-94010/home/683919,MLSListings,ML81517832,N,Y,37.5756049,-122.3521055
PAST SALE,October-22-2015,Single Family Residential,407 Barroilhet Ave,SAN MATEO,CA,94402,2100000,3,2.0,SAN MATEO,1900,6100,1920,831,1105,,Sold,,,http://www.redfin.com/CA/San-Mateo/407-Barroilhet-Ave-94402/home/698079,MLSListings,ML81499973,N,Y,37.5712525,-122.3483332
PAST SALE,,Single Family Residential,68 Chester Way,San Mateo,CA,94402,2778000,5,3.0,,2820,8450,1936,,985,,,,,http://www.redfin.com/CA/San-Mateo/68-Chester-Way-94402/home/1256254,,,N,Y,37.569741,-122.3519972
PAST SALE,November-5-2015,Single Family Residential,113 Crescent Ave,BURLINGAME,CA,94010,2910000,3,3.0,BURLINGAME,3088,8692,1910,817,942,,Sold,,,http://www.redfin.com/CA/Burlingame/113-Crescent-Ave-94010/home/1834798,MLSListings,ML81501772,N,Y,37.5724301,-122.3476503
PAST SALE,,Single Family Residential,113 Costa Rica Ave,Burlingame,CA,94010,3425000,4,3.0,,2970,8350,1993,,1153,,,,,http://www.redfin.com/CA/Burlingame/113-Costa-Rica-Ave-94010/home/1282842,,,N,Y,37.5719179,-122.3488162
PAST SALE,March-9-2015,Single Family Residential,109 Pepper Ave,BURLINGAME,CA,94010,2800000,3,2.0,BURLINGAME,2400,7406,1928,1058,1167,,Sold,,,http://www.redfin.com/CA/Burlingame/109-Pepper-Ave-94010/home/1641576,MLSListings,ML81451555,N,Y,37.5708762,-122.3509804
PAST SALE,September-2-2016,Single Family Residential,1810 Barroilhet Ave,BURLINGAME,CA,94010,2220400,3,1.0,BURLINGAME,1570,7144,1927,515,1414,,Sold,,,http://www.redfin.com/CA/Burlingame/1810-Barroilhet-Ave-94010/home/1368927,MLSListings,ML81600745,N,Y,37.5705097,-122.3512605
PAST SALE,October-6-2016,Single Family Residential,1517 Burlingame Ave,BURLINGAME,CA,94010,2920000,4,3.0,BURLINGAME,2660,8250,1920,481,1098,,Sold,,,http://www.redfin.com/CA/Burlingame/1517-Burlingame-Ave-94010/home/1957659,MLSListings,ML81614451,N,Y,37.5756482,-122.3501704
PAST SALE,November-6-2015,Condo/Co-op,1520 Floribunda Ave #102,BURLINGAME,CA,94010,2225000,3,2.5,BURLINGAME,2128,11175,1999,816,1046,666,Sold,,,http://www.redfin.com/CA/Burlingame/1520-Floribunda-Ave-94010/unit-102/home/113739183,MLSListings,ML81520219,N,Y,37.5788699,-122.354997
PAST SALE,,Multi-Family (2-4 Unit),623 Ansel Rd,Burlingame,CA,94010,1613500,,,,,13064,,,,,,,,http://www.redfin.com/CA/Burlingame/623-Ansel-Rd-94010/home/685784,,,N,Y,37.5801381,-122.3537643
PAST SALE,April-29-2016,Condo/Co-op,853 Woodside Way #235,SAN MATEO,CA,94401,560000,1,1.0,SAN MATEO,687,,1982,641,815,339,Sold,,,http://www.redfin.com/CA/San-Mateo/853-Woodside-Way-94401/unit-235/home/978398,MLSListings,ML81577102,N,Y,37.5777758,-122.336975
PAST SALE,,Condo/Co-op,88 S Broadway Unit 3211,Millbrae,CA,94030,1100000,2,2.0,,1414,,2007,,778,,,,,http://www.redfin.com/CA/Millbrae/88-S-Broadway-94030/unit-3211/home/17307579,,,N,Y,37.5972985,-122.3879682
PAST SALE,May-20-2015,Single Family Residential,1580 Barroilhet Ave,BURLINGAME,CA,94010,1325000,2,1.0,BURLINGAME,1240,5100,1923,986,1069,,Sold,,,http://www.redfin.com/CA/Burlingame/1580-Barroilhet-Ave-94010/home/1210507,MLSListings,ML81463678,N,Y,37.5723941,-122.3467577
PAST SALE,November-1-2016,Single Family Residential,1704 Barroilhet Ave,BURLINGAME,CA,94010,2401000,4,2.5,BURLINGAME,1904,4748,1937,455,1261,,Sold,,,http://www.redfin.com/CA/Burlingame/1704-Barroilhet-Ave-94010/home/1106915,MLSListings,ML81627595,N,Y,37.5709708,-122.3501089
PAST SALE,,Single Family Residential,103 Valdeflores Dr,Burlingame,CA,94010,1800000,2,2.0,,1890,11270,1949,,952,,,,,http://www.redfin.com/CA/Burlingame/103-Valdeflores-Dr-94010/home/1274036,,,N,Y,37.5768143,-122.3910157
PAST SALE,January-20-2017,Condo/Co-op,847 Woodside Way #214,SAN MATEO,CA,94401,585000,2,1.0,SAN MATEO,847,,1982,375,691,410,Sold,,,http://www.redfin.com/CA/San-Mateo/847-Woodside-Way-94401/unit-214/home/1680983,MLSListings,ML81629749,N,Y,37.577362,-122.336755
PAST SALE,,Single Family Residential,1500 Los Altos Dr,Burlingame,CA,94010,4200000,5,5.0,,3958,10400,2017,,1061,,,,,http://www.redfin.com/CA/Burlingame/1500-Los-Altos-Dr-94010/home/1247119,,,N,Y,37.5736455,-122.3954479
PAST SALE,August-21-2015,Condo/Co-op,320 Peninsula Ave #318,SAN MATEO,CA,94401,575000,2,2.0,SAN MATEO,930,,1987,893,618,367,Sold,,,http://www.redfin.com/CA/San-Mateo/320-Peninsula-Ave-94401/unit-318/home/1577908,MLSListings,ML81484273,N,Y,37.5776793,-122.3377658
PAST SALE,March-31-2015,Single Family Residential,479 Chatham Rd,BURLINGAME,CA,94010,2165000,4,2.5,BURLINGAME,2400,5400,1937,1036,902,,Sold,,,http://www.redfin.com/CA/Burlingame/479-Chatham-Rd-94010/home/1442330,MLSListings,ML81451303,N,Y,37.5846396,-122.3468921
PAST SALE,June-29-2016,Condo/Co-op,27 El Camino Real #2,BURLINGAME,CA,94010,850000,2,1.5,BURLINGAME,1130,6000,1983,580,752,250,Sold,,,http://www.redfin.com/CA/Burlingame/27-El-Camino-Real-94010/unit-2/home/978484,MLSListings,ML81586380,N,Y,37.574404,-122.343549
PAST SALE,November-11-2016,Condo/Co-op,51 El Camino Real Unit C,BURLINGAME,CA,94010,808500,2,2.5,BURLINGAME,1136,6808,1999,445,712,225,Sold,,,http://www.redfin.com/CA/Burlingame/51-El-Camino-Real-94010/unit-C/home/113739476,MLSListings,ML81626234,N,Y,37.574689,-122.344398
PAST SALE,,Single Family Residential,201 Bayswater Ave,Burlingame,CA,94010,650000,3,1.0,,1470,5060,1928,,442,,,,,http://www.redfin.com/CA/Burlingame/201-Bayswater-Ave-94010/home/1983098,,,N,Y,37.58302,-122.3337582
PAST SALE,,Single Family Residential,1704 Sebastian Dr,Burlingame,CA,94010,1850000,4,2.0,,2330,10605,1965,,794,,,,,http://www.redfin.com/CA/Burlingame/1704-Sebastian-Dr-94010/home/1972801,,,N,Y,37.5816859,-122.3948804
PAST SALE,June-19-2015,Single Family Residential,2967 Frontera Way,BURLINGAME,CA,94010,1700000,4,2.0,BURLINGAME,2170,7500,1964,956,783,,Sold,,,http://www.redfin.com/CA/Burlingame/2967-Frontera-Way-94010/home/676210,MLSListings,ML81467586,N,Y,37.5836209,-122.4001069
PAST SALE,February-18-2016,Single Family Residential,1810 Capistrano Way,BURLINGAME,CA,94010,1950000,4,2.5,BURLINGAME,2400,9844,1964,712,813,,Sold,,,http://www.redfin.com/CA/Burlingame/1810-Capistrano-Way-94010/home/1639076,MLSListings,ML81547083,N,Y,37.5831029,-122.3972635
PAST SALE,August-26-2015,Condo/Co-op,88 S Broadway #2302,MILLBRAE,CA,94030,1428888,2,2.0,MILLBRAE,1756,13213,2007,888,814,528,Sold,,,http://www.redfin.com/CA/Millbrae/88-S-Broadway-94030/unit-2302/home/17307134,MLSListings,ML81496954,N,Y,37.5972985,-122.3879682
PAST SALE,March-23-2017,Condo/Co-op,1550 Frontera Way #309,MILLBRAE,CA,94030,830000,2,2.0,MILLBRAE,1150,,1973,313,722,470,Sold,,,http://www.redfin.com/CA/Millbrae/1550-Frontera-Way-94030/unit-309/home/2038050,MLSListings,ML81638622,N,Y,37.5827529,-122.402997
PAST SALE,April-19-2017,Condo/Co-op,300 Murchison Dr #107,MILLBRAE,CA,94030,858000,2,2.0,MILLBRAE,1060,,1989,286,809,505,Sold,,,http://www.redfin.com/CA/Millbrae/300-Murchison-Dr-94030/unit-107/home/1745053,MLSListings,ML81642272,N,Y,37.5948231,-122.3882851
PAST SALE,April-27-2017,Single Family Residential,2846 Las Piedras Dr,BURLINGAME,CA,94010,2200000,3,2.5,BURLINGAME,2100,8160,1962,278,1048,,Sold,,,http://www.redfin.com/CA/Burlingame/2846-Las-Piedras-Dr-94010/home/1358046,MLSListings,ML81640005,Y,Y,37.5846281,-122.3965122
PAST SALE,June-15-2017,Single Family Residential,1842 Hunt Dr,BURLINGAME,CA,94010,2020000,4,2.0,BURLINGAME,1990,7700,1964,229,1015,,Sold,,,http://www.redfin.com/CA/Burlingame/1842-Hunt-Dr-94010/home/2038793,MLSListings,ML81654102,N,Y,37.5826068,-122.4008375
PAST SALE,June-15-2017,Condo/Co-op,380 Vallejo Dr #229,MILLBRAE,CA,94030,835000,2,2.0,MILLBRAE,1150,144626,1973,229,726,470,Sold,,,http://www.redfin.com/CA/Millbrae/380-Vallejo-Dr-94030/unit-229/home/1627041,MLSListings,ML81650257,N,Y,37.5827685,-122.4036234
PAST SALE,,Single Family Residential,309 S Ashton Ave,Millbrae,CA,94030,1910000,3,2.0,,1520,15610,1956,,1257,,,,,http://www.redfin.com/CA/Millbrae/309-S-Ashton-Ave-94030/home/2045932,,,N,Y,37.5892933,-122.392488
PAST SALE,August-1-2017,Single Family Residential,2833 Rivera Dr,BURLINGAME,CA,94010,2400000,4,2.5,BURLINGAME,2050,11680,1959,182,1171,,Sold,,,http://www.redfin.com/CA/Burlingame/2833-Rivera-Dr-94010/home/1292440,MLSListings,ML81668849,Y,Y,37.5819698,-122.3934083
PAST SALE,March-24-2017,Condo/Co-op,747 El Camino Real #7,BURLINGAME,CA,94010,1000000,2,2.5,BURLINGAME,1389,9226,1981,312,720,300,Sold,,,http://www.redfin.com/CA/Burlingame/747-El-Camino-Real-94010/unit-7/home/1374338,MLSListings,ML81637861,N,Y,37.5788122,-122.3573911
PAST SALE,March-31-2017,Single Family Residential,1125 Hamilton Ln,BURLINGAME,CA,94010,1725000,3,2.0,BURLINGAME,1380,5000,1941,305,1250,,Sold,,,http://www.redfin.com/CA/Burlingame/1125-Hamilton-Ln-94010/home/2010863,MLSListings,ML81639460,Y,Y,37.592234,-122.3774145
PAST SALE,March-22-2017,Condo/Co-op,530 El Camino Real #307,BURLINGAME,CA,94010,1309888,3,3.0,BURLINGAME,1536,42608,2000,314,853,333,Sold,,,http://www.redfin.com/CA/Burlingame/530-El-Camino-Real-94010/unit-307/home/1245776,MLSListings,ML81637874,N,Y,37.5778647,-122.3539293
PAST SALE,April-26-2017,Single Family Residential,835 Acacia Dr,BURLINGAME,CA,94010,2250000,4,2.5,BURLINGAME,2600,6110,1914,279,865,,Sold,,,http://www.redfin.com/CA/Burlingame/835-Acacia-Dr-94010/home/687476,MLSListings,ML81642824,Y,Y,37.5824122,-122.3578908
PAST SALE,March-24-2017,Single Family Residential,1411 De Soto Ave,BURLINGAME,CA,94010,2210000,3,1.5,BURLINGAME,1680,6100,1922,312,1315,,Sold,,,http://www.redfin.com/CA/Burlingame/1411-De-Soto-Ave-94010/home/1935107,MLSListings,ML81637005,Y,Y,37.5829122,-122.3770072
PAST SALE,,Single Family Residential,2525 Adeline Dr,Burlingame,CA,94010,1998000,4,2.0,,2180,5168,1941,,917,,,,,http://www.redfin.com/CA/Burlingame/2525-Adeline-Dr-94010/home/1902710,,,N,Y,37.5819483,-122.3816755
PAST SALE,,Condo/Co-op,1137 Paloma Ave Apt A,Burlingame,CA,94010,1150000,2,2.0,,1285,,2007,,895,,,,,http://www.redfin.com/CA/Burlingame/1137-Paloma-Ave-94010/unit-A/home/17307737,,,N,Y,37.5851002,-122.3647734
PAST SALE,June-5-2017,Single Family Residential,2120 Carmelita Ave,BURLINGAME,CA,94010,1998000,2,1.0,BURLINGAME,1180,5450,1925,239,1693,,Sold,,,http://www.redfin.com/CA/Hillsborough/2120-Carmelita-Ave-94010/home/1791244,MLSListings,ML81646853,N,Y,37.5783677,-122.3684827
PAST SALE,June-5-2017,Single Family Residential,1609 Sanchez Ave,BURLINGAME,CA,94010,2700000,4,3.0,BURLINGAME,2160,7050,1910,239,1250,,Sold,,,http://www.redfin.com/CA/Burlingame/1609-Sanchez-Ave-94010/home/1862659,MLSListings,ML81648204,Y,Y,37.5807505,-122.3628471
PAST SALE,July-17-2017,Condo/Co-op,1273 El Camino Real #4,BURLINGAME,CA,94010,965000,2,2.0,BURLINGAME,1150,6826,1996,197,839,280,Sold,,,http://www.redfin.com/CA/Burlingame/1273-El-Camino-Real-94010/unit-4/home/1252507,MLSListings,ML81654847,N,Y,37.585458,-122.36906
PAST SALE,June-7-2017,Single Family Residential,1204 Drake Ave,BURLINGAME,CA,94010,3000000,4,3.0,BURLINGAME,3098,6000,1921,237,968,,Sold,,,http://www.redfin.com/CA/Burlingame/1204-Drake-Ave-94010/home/2050264,MLSListings,ML81651039,Y,Y,37.5817772,-122.3688017
PAST SALE,June-9-2017,Single Family Residential,1100 Lincoln Ave,BURLINGAME,CA,94010,1650000,3,2.0,BURLINGAME,1350,4788,1921,235,1222,,Sold,,,http://www.redfin.com/CA/Burlingame/1100-Lincoln-Ave-94010/home/1012272,MLSListings,ML81649007,N,Y,37.5885032,-122.3664137
PAST SALE,July-22-2017,Single Family Residential,1625 Lassen Way,BURLINGAME,CA,94010,3050000,4,3.0,BURLINGAME,2475,5500,2007,192,1232,,Sold,,,http://www.redfin.com/CA/Burlingame/1625-Lassen-Way-94010/home/1908027,MLSListings,ML81656541,Y,Y,37.5892652,-122.3811085
PAST SALE,July-20-2017,Single Family Residential,1338 Castillo Ave,BURLINGAME,CA,94010,3250000,4,4.5,BURLINGAME,3860,6000,1992,194,842,,Sold,,,http://www.redfin.com/CA/Burlingame/1338-Castillo-Ave-94010/home/1658209,MLSListings,ML81653934,Y,Y,37.5806128,-122.3775479
PAST SALE,May-12-2017,Single Family Residential,1341 Vancouver Ave,BURLINGAME,CA,94010,1808000,2,1.0,BURLINGAME,1310,6000,1921,263,1380,,Sold,,,http://www.redfin.com/CA/Burlingame/1341-Vancouver-Ave-94010/home/681913,MLSListings,ML81644312,Y,Y,37.5820868,-122.3737643
PAST SALE,June-28-2017,Single Family Residential,1104 Clovelly Ln,BURLINGAME,CA,94010,1585000,3,1.0,BURLINGAME,1350,5560,1942,216,1174,,Sold,,,http://www.redfin.com/CA/Burlingame/1104-Clovelly-Ln-94010/home/1368810,MLSListings,ML81648750,N,Y,37.5933538,-122.378121
PAST SALE,August-9-2017,Condo/Co-op,1237 Capuchino Ave #9,BURLINGAME,CA,94010,1182000,2,2.0,BURLINGAME,1186,12000,2001,174,997,580,Sold,,,http://www.redfin.com/CA/Burlingame/1237-Capuchino-Ave-94010/unit-9/home/1805550,MLSListings,ML81669886,N,Y,37.5856161,-122.3674042
PAST SALE,,Single Family Residential,705 Walnut Ave,Burlingame,CA,94010,1765000,2,2.0,,1570,8190,1953,,1124,,,,,http://www.redfin.com/CA/Burlingame/705-Walnut-Ave-94010/home/1106909,,,N,Y,37.5778357,-122.3580576
PAST SALE,August-10-2017,Single Family Residential,1272 Cabrillo Ave,BURLINGAME,CA,94010,3125000,4,4.0,BURLINGAME,2730,14400,1916,173,1145,,Sold,,,http://www.redfin.com/CA/Burlingame/1272-Cabrillo-Ave-94010/home/1869596,MLSListings,ML81667446,Y,Y,37.5837591,-122.3706126
PAST SALE,September-5-2017,Single Family Residential,1433 Bernal Ave,BURLINGAME,CA,94010,3200000,5,3.0,BURLINGAME,2820,5400,2003,147,1135,,Sold,,,http://www.redfin.com/CA/Burlingame/1433-Bernal-Ave-94010/home/1614710,MLSListings,ML81676548,N,Y,37.5845881,-122.3764265
PAST SALE,April-27-2017,Condo/Co-op,1469 El Camino Real #8,BURLINGAME,CA,94010,705000,2,1.0,BURLINGAME,806,10293,1979,278,875,270,Sold,,,http://www.redfin.com/CA/Burlingame/1469-El-Camino-Real-94010/unit-8/home/17307660,MLSListings,ML81644182,N,Y,37.5886938,-122.3744889
PAST SALE,July-7-2017,Single Family Residential,2015 Ray Dr,BURLINGAME,CA,94010,2105000,4,3.0,BURLINGAME,2103,4860,1949,207,1001,,Sold,,,http://www.redfin.com/CA/Burlingame/2015-Ray-Dr-94010/home/1376721,MLSListings,ML81654170,Y,Y,37.5872984,-122.3813025
PAST SALE,,Single Family Residential,1328 Columbus Ave,Burlingame,CA,94010,2750000,3,3.0,,2450,6000,1927,,1122,,,,,http://www.redfin.com/CA/Burlingame/1328-Columbus-Ave-94010/home/1057497,,,N,Y,37.5811349,-122.3748057
PAST SALE,,Single Family Residential,729 Walnut Ave,Burlingame,CA,94010,1860000,2,1.0,,1240,8050,1908,,1500,,,,,http://www.redfin.com/CA/Burlingame/729-Walnut-Ave-94010/home/1170347,,,N,Y,37.5784548,-122.3588831
PAST SALE,April-24-2017,Single Family Residential,853 Paloma Ave,BURLINGAME,CA,94010,1610000,2,1.0,BURLINGAME,1110,4640,1922,281,1450,,Sold,,,http://www.redfin.com/CA/Burlingame/853-Paloma-Ave-94010/home/2058850,MLSListings,ML81642597,N,Y,37.5820327,-122.3588879
PAST SALE,April-4-2017,Single Family Residential,717 Acacia Dr,BURLINGAME,CA,94010,2350000,4,3.0,BURLINGAME,2660,6600,1922,301,883,,Sold,,,http://www.redfin.com/CA/Burlingame/717-Acacia-Dr-94010/home/1468168,MLSListings,ML81639249,Y,Y,37.5800795,-122.3555259
PAST SALE,,Single Family Residential,789 Willborough Rd,Burlingame,CA,94010,1501000,2,1.0,,1370,2730,1935,,1096,,,,,http://www.redfin.com/CA/Burlingame/789-Willborough-Rd-94010/home/687854,,,N,Y,37.5824065,-122.3545295
PAST SALE,June-2-2017,Condo/Co-op,525 Almer Rd #104,BURLINGAME,CA,94010,1160000,2,2.0,BURLINGAME,1353,,1975,242,857,506,Sold,,,http://www.redfin.com/CA/Burlingame/525-Almer-Rd-94010/unit-303/home/113609903,MLSListings,ML81644322,N,Y,37.5783309,-122.3532843
PAST SALE,October-6-2017,Single Family Residential,1435 Benito Ave,BURLINGAME,CA,94010,3650000,4,4.0,BURLINGAME,2881,5734,2014,116,1267,,Sold,,,http://www.redfin.com/CA/Burlingame/1435-Benito-Ave-94010/home/684401,MLSListings,ML81678045,Y,Y,37.5800366,-122.3809292
PAST SALE,June-5-2017,Single Family Residential,1701 Davis Dr,BURLINGAME,CA,94010,1900000,3,2.0,BURLINGAME,1670,5400,1950,239,1138,,Sold,,,http://www.redfin.com/CA/Burlingame/1701-Davis-Dr-94010/home/1683437,MLSListings,ML81648989,Y,Y,37.5905964,-122.3820583
PAST SALE,October-25-2017,Townhouse,1137 Paloma Ave Unit I,BURLINGAME,CA,94010,1320000,2,2.5,BURLINGAME,1402,17250,2007,97,942,390,Sold,,,http://www.redfin.com/CA/Burlingame/1137-Paloma-Ave-94010/unit-I/home/28511479,MLSListings,ML81678904,N,Y,37.5851002,-122.3647734
PAST SALE,November-13-2017,Single Family Residential,2300 Poppy Dr,BURLINGAME,CA,94010,3330000,4,3.5,BURLINGAME,4130,4998,1925,78,806,,Sold,,,http://www.redfin.com/CA/Burlingame/2300-Poppy-Dr-94010/home/2057072,MLSListings,ML81681480,Y,Y,37.5840113,-122.3793032
PAST SALE,November-24-2017,Condo/Co-op,1500 Willow Ave #302,BURLINGAME,CA,94010,862000,2,2.0,BURLINGAME,1032,15426,1981,67,835,338,Sold,,,http://www.redfin.com/CA/Burlingame/1500-Willow-Ave-94010/unit-302/home/1680994,MLSListings,ML81680312,N,Y,37.5795729,-122.3585077
PAST SALE,January-19-2018,Single Family Residential,1248 Paloma Ave,BURLINGAME,CA,94010,1650000,2,1.0,BURLINGAME,1180,6000,1920,11,1398,,Sold,,,http://www.redfin.com/CA/Burlingame/1248-Paloma-Ave-94010/home/1548104,MLSListings,ML81686814,N,Y,37.586816,-122.3668366
PAST SALE,October-24-2015,Single Family Residential,4 Kenmar Way,BURLINGAME,CA,94010,1865000,3,2.5,BURLINGAME,2320,14130,1954,829,804,,Sold,,,http://www.redfin.com/CA/Burlingame/4-Kenmar-Way-94010/home/113739468,MLSListings,ML81512031,N,Y,37.5754872,-122.3848862
PAST SALE,November-18-2015,Single Family Residential,136 Costa Rica Ave,BURLINGAME,CA,94010,2010000,2,1.0,BURLINGAME,1540,7038,1922,804,1305,,Sold,,,http://www.redfin.com/CA/Burlingame/136-Costa-Rica-Ave-94010/home/1983000,MLSListings,ML81520836,N,Y,37.5728701,-122.348846
PAST SALE,July-8-2016,Townhouse,1233 Bellevue Ave #5,BURLINGAME,CA,94010,1201000,2,2.5,BURLINGAME,1560,12519,1985,571,770,680,Sold,,,http://www.redfin.com/CA/Burlingame/1233-Bellevue-Ave-94010/unit-5/home/980023,MLSListings,ML81591423,N,Y,37.5795914,-122.3485188
PAST SALE,May-12-2017,Single Family Residential,215 Chapin Ln,BURLINGAME,CA,94010,2800000,2,2.0,BURLINGAME,2040,6600,1947,263,1373,,Sold,,,http://www.redfin.com/CA/Burlingame/215-Chapin-Ln-94010/home/1121441,MLSListings,ML81645065,Y,Y,37.5723895,-122.351606
PAST SALE,,Multi-Family (2-4 Unit),511 California Dr,Burlingame,CA,94010,1827000,4,4.0,,3936,6426,1924,,464,,,,,http://www.redfin.com/CA/Burlingame/511-California-Dr-94010/home/2026532,,,N,Y,37.5813506,-122.3497959
PAST SALE,September-15-2016,Single Family Residential,748 Farringdon Ln,BURLINGAME,CA,94010,1375000,2,1.0,BURLINGAME,1230,4970,1922,502,1118,,Sold,,,http://www.redfin.com/CA/Burlingame/748-Farringdon-Ln-94010/home/2047394,MLSListings,ML81597560,N,Y,37.5818271,-122.3550324
PAST SALE,September-26-2017,Condo/Co-op,1435 Bellevue Ave #102,BURLINGAME,CA,94010,1058000,2,2.0,BURLINGAME,1729,35965,1979,126,612,703,Sold,,,http://www.redfin.com/CA/Burlingame/1435-Bellevue-Ave-94010/unit-102/home/1670437,MLSListings,ML81655282,N,Y,37.578431,-122.3511056
PAST SALE,June-25-2015,Single Family Residential,160 Occidental Ave,BURLINGAME,CA,94010,2588000,4,3.0,BURLINGAME,2800,5356,1926,950,924,,Sold,,,http://www.redfin.com/CA/Burlingame/160-Occidental-Ave-94010/home/1822139,MLSListings,ML81467494,N,Y,37.5728636,-122.350013
PAST SALE,,Single Family Residential,1608 Ralston Ave,Burlingame,CA,94010,2300000,3,3.0,,2130,4560,1925,,1080,,,,,http://www.redfin.com/CA/Burlingame/1608-Ralston-Ave-94010/home/1834804,,,N,Y,37.5737463,-122.3511181
PAST SALE,,Single Family Residential,133 Crescent Ave,Burlingame,CA,94010,2550000,4,1.0,,1630,10150,1916,,1564,,,,,http://www.redfin.com/CA/Burlingame/133-Crescent-Ave-94010/home/2004880,,,N,Y,37.5730167,-122.3482675
PAST SALE,October-26-2016,Single Family Residential,141 Costa Rica Ave,BURLINGAME,CA,94010,2600000,5,4.5,BURLINGAME,3150,6420,2001,461,825,,Sold,,,http://www.redfin.com/CA/Burlingame/141-Costa-Rica-Ave-94010/home/1978664,MLSListings,ML81628867,N,Y,37.5727375,-122.3494515
PAST SALE,May-14-2015,Single Family Residential,722 Crossway Rd,BURLINGAME,CA,94010,1952000,3,2.0,BURLINGAME,2000,6500,1915,992,976,,Sold,,,http://www.redfin.com/CA/Burlingame/722-Crossway-Rd-94010/home/687875,MLSListings,ML81460024,N,Y,37.5816118,-122.353549
PAST SALE,April-21-2017,Single Family Residential,320 Clarendon Rd,BURLINGAME,CA,94010,2630000,4,2.0,BURLINGAME,2470,7650,1949,284,1065,,Sold,,,http://www.redfin.com/CA/Burlingame/320-Clarendon-Rd-94010/home/2024278,MLSListings,ML81643895,Y,Y,37.5843856,-122.3401705
PAST SALE,July-3-2017,Single Family Residential,304 Bayswater Ave,BURLINGAME,CA,94010,1875000,3,1.5,BURLINGAME,1490,4692,1929,211,1258,,Sold,,,http://www.redfin.com/CA/Burlingame/304-Bayswater-Ave-94010/home/690942,MLSListings,ML81668381,N,Y,37.5827636,-122.334949
PAST SALE,,Single Family Residential,521 Burlingame Ave,Burlingame,CA,94010,1350000,2,1.0,,1370,5800,1936,,985,,,,,http://www.redfin.com/CA/Burlingame/521-Burlingame-Ave-94010/home/2052126,,,N,Y,37.5835778,-122.3394789
PAST SALE,,Single Family Residential,13 Humboldt Rd,Burlingame,CA,94010,1650000,3,2.0,,1240,6000,1922,,1331,,,,,http://www.redfin.com/CA/Burlingame/13-Humboldt-Rd-94010/home/1935184,,,N,Y,37.5833576,-122.3314745
PAST SALE,September-29-2017,Single Family Residential,333 Clarendon Rd,BURLINGAME,CA,94010,2015000,3,2.0,BURLINGAME,1740,5250,1948,123,1158,,Sold,,,http://www.redfin.com/CA/Burlingame/333-Clarendon-Rd-94010/home/2033674,MLSListings,ML81675251,Y,Y,37.5844164,-122.3408751
PAST SALE,June-23-2017,Single Family Residential,125 Bancroft Rd,BURLINGAME,CA,94010,2450000,3,2.5,BURLINGAME,1876,5750,1922,221,1306,,Sold,,,http://www.redfin.com/CA/Burlingame/125-Bancroft-Rd-94010/home/1598319,MLSListings,ML81652312,Y,Y,37.5838895,-122.3348713
PAST SALE,,Single Family Residential,2683 Summit Dr,Hillsborough,CA,94010,1800000,3,2.0,,1670,10500,1952,,1078,,,,,http://www.redfin.com/CA/Hillsborough/2683-Summit-Dr-94010/home/1368933,,,N,Y,37.5748083,-122.3851938
PAST SALE,April-24-2015,Single Family Residential,126 Loma Vista Dr,BURLINGAME,CA,94010,1500000,2,2.0,BURLINGAME,1350,6175,1952,1012,1111,,Sold,,,http://www.redfin.com/CA/Burlingame/126-Loma-Vista-Dr-94010/home/2051131,MLSListings,ML81454526,N,Y,37.5713042,-122.3956477
PAST SALE,,Single Family Residential,118 Loma Vista Dr,Burlingame,CA,94010,1350000,2,1.0,,1190,6175,1946,,1134,,,,,http://www.redfin.com/CA/Burlingame/118-Loma-Vista-Dr-94010/home/1641486,,,N,Y,37.571622,-122.3958738
PAST SALE,February-4-2015,Single Family Residential,120 VALDEFLORES Dr,Burlingame,CA,94010,3300000,5,4.5,Burlingame,5600,13629,1991,1091,589,,Sold,,,http://www.redfin.com/CA/Burlingame/120-Valdeflores-Dr-94010/home/1292504,MLSListings,ML81435058,N,Y,37.5760777,-122.3917595
PAST SALE,September-1-2017,Single Family Residential,3131 Rivera Dr,BURLINGAME,CA,94010,1988888,4,2.5,BURLINGAME,2410,8700,1964,151,825,,Sold,,,http://www.redfin.com/CA/Burlingame/3131-Rivera-Dr-94010/home/1946005,MLSListings,ML81653025,N,Y,37.5772333,-122.3981551
PAST SALE,April-17-2017,Single Family Residential,2817 Hillside Dr,BURLINGAME,CA,94010,2960000,4,3.0,BURLINGAME,3145,10088,1928,288,941,,Sold,,,http://www.redfin.com/CA/Burlingame/2817-Hillside-Dr-94010/home/1265866,MLSListings,ML81641387,N,Y,37.5786307,-122.3821932
PAST SALE,June-21-2016,Single Family Residential,325 Clarendon Rd,BURLINGAME,CA,94010,1950000,3,2.0,BURLINGAME,1990,8197,1948,588,980,,Sold,,,http://www.redfin.com/CA/Burlingame/325-Clarendon-Rd-94010/home/1012658,MLSListings,ML81583199,N,Y,37.5842463,-122.3407234
PAST SALE,August-15-2016,Single Family Residential,394 Lexington Way,BURLINGAME,CA,94010,1950000,3,2.0,BURLINGAME,1611,5201,1946,533,1210,,Sold,,,http://www.redfin.com/CA/Burlingame/394-Lexington-Way-94010/home/1034577,MLSListings,ML81597406,N,Y,37.5857976,-122.340962
PAST SALE,April-21-2016,Multi-Family (5+ Unit),527 Rollins Rd,BURLINGAME,CA,94010,2450000,10,,BURLINGAME,5872,12872,1944,649,417,,Sold,,,http://www.redfin.com/CA/Burlingame/527-Rollins-Rd-94010/home/688883,MLSListings,ML81548115,N,Y,37.5862736,-122.3436546
PAST SALE,June-30-2017,Condo/Co-op,320 Peninsula Ave #405,SAN MATEO,CA,94401,700000,2,2.0,SAN MATEO,930,,1987,214,753,389,Sold,,,http://www.redfin.com/CA/San-Mateo/320-Peninsula-Ave-94401/unit-405/home/1922364,MLSListings,ML81654184,N,Y,37.5776793,-122.3377658
PAST SALE,July-7-2017,Condo/Co-op,80 El Camino Real Unit A,BURLINGAME,CA,94010,730000,2,1.0,BURLINGAME,884,6843,1972,207,826,375,Sold,,,http://www.redfin.com/CA/Burlingame/80-El-Camino-Real-94010/unit-A/home/113702784,MLSListings,ML81646088,N,Y,37.575212,-122.344497
PAST SALE,June-6-2017,Condo/Co-op,320 Peninsula Ave #407,SAN MATEO,CA,94401,660000,2,2.0,SAN MATEO,930,,1987,238,710,389,Sold,,,http://www.redfin.com/CA/San-Mateo/320-Peninsula-Ave-94401/unit-407/home/1165369,MLSListings,ML81649072,N,Y,37.5776793,-122.3377658
PAST SALE,July-31-2017,Condo/Co-op,320 Peninsula Ave #410,SAN MATEO,CA,94401,660000,2,2.0,SAN MATEO,930,50207,1987,183,710,389,Sold,,,http://www.redfin.com/CA/San-Mateo/320-Peninsula-Ave-94401/unit-410/home/981597,MLSListings,ML81654077,N,Y,37.5776793,-122.3377658
PAST SALE,September-14-2017,Condo/Co-op,800 N El Camino Real #104,SAN MATEO,CA,94401,830000,2,2.0,SAN MATEO,1378,,1990,138,602,550,Sold,,,http://www.redfin.com/CA/San-Mateo/800-N-El-Camino-Real-94401/unit-104/home/113818139,MLSListings,ML81675553,N,Y,37.573696,-122.340681
PAST SALE,April-21-2017,Single Family Residential,117 Dwight Rd,BURLINGAME,CA,94010,1070000,2,1.0,BURLINGAME,940,3125,1910,284,1138,,Sold,,,http://www.redfin.com/CA/Burlingame/117-Dwight-Rd-94010/home/690675,MLSListings,ML81641739,Y,Y,37.5820457,-122.3368374
PAST SALE,September-11-2017,Townhouse,33 Park Rd #5,BURLINGAME,CA,94010,1320000,2,2.5,BURLINGAME,1380,652,1978,141,957,425,Sold,,,http://www.redfin.com/CA/Burlingame/33-Park-Rd-94010/unit-5/home/1023973,MLSListings,ML81677438,N,Y,37.57547,-122.344096
PAST SALE,October-13-2017,Condo/Co-op,320 Peninsula Ave #307,SAN MATEO,CA,94401,675000,2,2.0,SAN MATEO,930,50207,1987,109,726,389,Sold,,,http://www.redfin.com/CA/San-Mateo/320-Peninsula-Ave-94401/unit-307/home/2003324,MLSListings,ML81676684,N,Y,37.5776793,-122.3377658
PAST SALE,,Townhouse,38 Lorton Ave Apt C,Burlingame,CA,94010,1475000,3,2.5,,1600,7500,1999,,922,,,,,http://www.redfin.com/CA/Burlingame/38-Lorton-Ave-94010/unit-C/home/1560128,,,N,Y,37.5764787,-122.3426788
PAST SALE,,Condo/Co-op,828 N El Camino Real Unit 8,San Mateo,CA,94401,2750000,1,1.0,,827,,1974,,3325,,,,,http://www.redfin.com/CA/San-Mateo/828-N-El-Camino-Real-94401/unit-8/home/1242825,,,N,Y,37.5741317,-122.3413784
PAST SALE,December-29-2017,Multi-Family (2-4 Unit),812 Bayswater Ave,BURLINGAME,CA,94010,2760000,4,,BURLINGAME,3458,5000,1962,32,798,,Sold,,,http://www.redfin.com/CA/Burlingame/812-Bayswater-Ave-94010/home/1925258,MLSListings,ML81682278,N,Y,37.5795183,-122.3396191
PAST SALE,July-14-2017,Multi-Family (2-4 Unit),545 Rollins Rd,Burlingame,CA,94010,1242500,4,2.0,Burlingame,1597,5500,1944,200,778,,Sold,,,http://www.redfin.com/CA/Burlingame/545-Rollins-Rd-94010/home/2047391,San Francisco MLS,458024,N,Y,37.5865328,-122.3442295
PAST SALE,August-17-2017,Single Family Residential,800 Maple Ave,BURLINGAME,CA,94010,2225000,4,2.5,BURLINGAME,2040,6000,1928,166,1091,,Sold,,,http://www.redfin.com/CA/Burlingame/800-Maple-Ave-94010/home/1121522,MLSListings,ML81669926,N,Y,37.5856665,-122.3505238
PAST SALE,,Single Family Residential,514 Corbitt Dr,Burlingame,CA,94010,2000000,4,3.0,,2948,7500,1932,,678,,,,,http://www.redfin.com/CA/Burlingame/514-Corbitt-Dr-94010/home/687972,,,N,Y,37.5862692,-122.3487226
PAST SALE,October-18-2017,Single Family Residential,489 Bloomfield Rd,BURLINGAME,CA,94010,2225000,3,2.5,BURLINGAME,1801,5750,1949,104,1235,,Sold,,,http://www.redfin.com/CA/Burlingame/489-Bloomfield-Rd-94010/home/2024268,MLSListings,ML81677339,N,Y,37.5862721,-122.3447944
PAST SALE,February-13-2017,Condo/Co-op,820 N Delaware St #309,SAN MATEO,CA,94401,500000,1,1.0,SAN MATEO,693,,1965,351,722,410,Sold,,,http://www.redfin.com/CA/San-Mateo/820-N-Delaware-St-94401/unit-309/home/12447948,MLSListings,ML81636224,N,Y,37.580688,-122.331245
PAST SALE,August-18-2017,Condo/Co-op,902 Peninsula Ave #205,SAN MATEO,CA,94401,612000,1,1.0,SAN MATEO,693,1114920,1965,165,883,409,Sold,,,http://www.redfin.com/CA/San-Mateo/902-Peninsula-Ave-94401/unit-205/home/17308619,MLSListings,ML81670902,N,Y,37.5810706,-122.3326397
PAST SALE,,Multi-Family (2-4 Unit),817 N Delaware St,San Mateo,CA,94401,1848000,5,4.0,,2455,6251,1927,,753,,,,,http://www.redfin.com/CA/San-Mateo/817-N-Delaware-St-94401/home/2044092,,,N,Y,37.5790713,-122.3334834
PAST SALE,November-13-2017,Condo/Co-op,845 N Humboldt St #306,SAN MATEO,CA,94401,615000,1,1.0,SAN MATEO,693,1114920,1965,78,887,420,Sold,,,http://www.redfin.com/CA/San-Mateo/845-N-Humboldt-St-94401/unit-306/home/17308346,MLSListings,ML81682183,N,Y,37.580688,-122.331245
PAST SALE,November-16-2017,Condo/Co-op,835 N Humboldt St #202,SAN MATEO,CA,94401,610300,1,1.0,SAN MATEO,758,1114920,1965,75,805,420,Sold,,,http://www.redfin.com/CA/San-Mateo/835-N-Humboldt-St-94401/unit-202/home/12447945,MLSListings,ML81680844,N,Y,37.5814613,-122.3305426
PAST SALE,June-2-2017,Multi-Family (2-4 Unit),817-819 N Delaware St,SAN MATEO,CA,94401,1848000,5,,SAN MATEO,2455,6250,1927,242,753,,Sold,,,http://www.redfin.com/CA/San-Mateo/819-N-Delaware-St-94401/home/102822769,MLSListings,ML81650158,N,Y,37.5791753,-122.3336249
PAST SALE,November-2-2016,Condo/Co-op,835 N Humboldt St #312,SAN MATEO,CA,94401,510000,1,1.0,SAN MATEO,693,,1965,454,736,410,Sold,,,http://www.redfin.com/CA/San-Mateo/835-N-Humboldt-St-94401/unit-312/home/17308388,MLSListings,ML81626119,N,Y,37.5814613,-122.3305426
PAST SALE,April-19-2017,Condo/Co-op,845 Woodside Way #112,SAN MATEO,CA,94401,702112,2,2.0,SAN MATEO,894,,1982,286,785,346,Sold,,,http://www.redfin.com/CA/San-Mateo/845-Woodside-Way-94401/unit-112/home/2041733,MLSListings,ML81641755,N,Y,37.5774548,-122.3362262
PAST SALE,March-17-2015,Condo/Co-op,902 Peninsula Ave #101,SAN MATEO,CA,94401,545000,2,1.0,SAN MATEO,895,,1965,1050,609,505,Sold,,,http://www.redfin.com/CA/San-Mateo/902-Peninsula-Ave-94401/unit-101/home/17308610,MLSListings,ML81449766,N,Y,37.5810706,-122.3326397
PAST SALE,April-27-2017,Condo/Co-op,320 Peninsula Ave #322,SAN MATEO,CA,94401,637500,2,2.0,SAN MATEO,930,,1987,278,685,389,Sold,,,http://www.redfin.com/CA/San-Mateo/320-Peninsula-Ave-94401/unit-322/home/1053432,MLSListings,ML81635640,N,Y,37.5776793,-122.3377658
PAST SALE,June-30-2017,Condo/Co-op,821 N Humboldt St #308,SAN MATEO,CA,94401,912000,2,2.0,SAN MATEO,1204,1114920,1965,214,757,584,Sold,,,http://www.redfin.com/CA/San-Mateo/821-N-Humboldt-St-94401/unit-308/home/17308496,MLSListings,ML81651553,N,Y,37.580688,-122.331245
PAST SALE,,Condo/Co-op,821 N Humboldt St Apt 302,San Mateo,CA,94401,377000,1,1.0,,758,,1965,,497,,,,,http://www.redfin.com/CA/San-Mateo/821-N-Humboldt-St-94401/unit-302/home/17308433,,,N,Y,37.580688,-122.331245
PAST SALE,June-15-2017,Condo/Co-op,835 N Humboldt St #208,SAN MATEO,CA,94401,740000,2,1.0,SAN MATEO,903,1114920,1965,229,819,528,Sold,,,http://www.redfin.com/CA/San-Mateo/835-N-Humboldt-St-94401/unit-208/home/17308446,MLSListings,ML81651222,N,Y,37.5814613,-122.3305426
PAST SALE,July-20-2017,Single Family Residential,121 Victoria Rd,BURLINGAME,CA,94010,1900000,3,2.0,BURLINGAME,1670,6000,1925,194,1138,,Sold,,,http://www.redfin.com/CA/Burlingame/121-Victoria-Rd-94010/home/1460123,MLSListings,ML81667325,N,Y,37.5842949,-122.3339346
PAST SALE,,Single Family Residential,3 Victoria Rd,Burlingame,CA,94010,1645000,2,1.0,,1000,5184,1939,,1645,,,,,http://www.redfin.com/CA/Burlingame/3-Victoria-Rd-94010/home/1740176,,,N,Y,37.5825345,-122.3319191
PAST SALE,September-26-2017,Condo/Co-op,904 Peninsula Ave #203,SAN MATEO,CA,94401,440000,0,1.0,SAN MATEO,492,1114920,1965,126,894,302,Sold,,,http://www.redfin.com/CA/San-Mateo/904-Peninsula-Ave-94401/unit-203/home/17308040,MLSListings,ML81674655,N,Y,37.582056,-122.3322199
PAST SALE,,Single Family Residential,908 N Humboldt St,San Mateo,CA,94401,400000,2,1.0,,1190,7650,1925,,336,,,,,http://www.redfin.com/CA/San-Mateo/908-N-Humboldt-St-94401/home/1034598,,,N,Y,37.583632,-122.331056
PAST SALE,March-23-2017,Single Family Residential,10 Peninsula Ave,BURLINGAME,CA,94010,1450000,3,2.5,BURLINGAME,1530,5184,1925,313,948,,Sold,,,http://www.redfin.com/CA/Burlingame/10-Peninsula-Ave-94010/home/2052130,MLSListings,ML81638373,Y,Y,37.5828851,-122.3314244
PAST SALE,January-4-2018,Single Family Residential,208 Peninsula Ave,BURLINGAME,CA,94010,1840000,2,1.0,BURLINGAME,840,4876,1910,26,2190,,Sold,,,http://www.redfin.com/CA/Burlingame/208-Peninsula-Ave-94010/home/693342,MLSListings,ML81688010,N,Y,37.5818519,-122.3328954
PAST SALE,May-12-2017,Single Family Residential,216 Victoria Rd,BURLINGAME,CA,94010,1550000,2,1.0,BURLINGAME,1500,6250,1932,263,1033,,Sold,,,http://www.redfin.com/CA/Burlingame/216-Victoria-Rd-94010/home/1369012,MLSListings,ML81641654,Y,Y,37.5857339,-122.334879
PAST SALE,March-30-2017,Single Family Residential,7 El Camino Real,BURLINGAME,CA,94010,1525000,2,2.0,BURLINGAME,1440,5760,1920,306,1059,,Sold,,,http://www.redfin.com/CA/Burlingame/7-El-Camino-Real-94010/home/2056123,MLSListings,ML81639231,N,Y,37.574188,-122.34273
PAST SALE,April-14-2017,Single Family Residential,19 E Carol Ave,BURLINGAME,CA,94010,2850000,3,3.0,BURLINGAME,2096,6000,2013,291,1360,,Sold,,,http://www.redfin.com/CA/Burlingame/19-E-Carol-Ave-94010/home/1565048,MLSListings,ML81644557,N,Y,37.5740709,-122.3437054
PAST SALE,March-31-2016,Multi-Family (2-4 Unit),521-523 Rollins Rd,BURLINGAME,CA,94010,1150000,4,,BURLINGAME,1597,5500,1944,670,720,,Sold,,,http://www.redfin.com/CA/Burlingame/521-Rollins-Rd-94010/home/2036651,MLSListings,ML81546413,N,Y,37.5864913,-122.3433664
PAST SALE,,Condo/Co-op,828 N El Camino Real Unit 6 828,San Mateo,CA,94401,540000,1,1.0,,833,,1974,,648,,,,,http://www.redfin.com/CA/San-Mateo/828-N-El-Camino-Real-94401/unit-6-828/home/1922218,,,N,Y,37.5741317,-122.3413784
PAST SALE,July-7-2017,Single Family Residential,720 Burlingame Ave,BURLINGAME,CA,94010,2010000,2,1.0,BURLINGAME,1710,5000,1936,207,1175,,Sold,,,http://www.redfin.com/CA/Burlingame/720-Burlingame-Ave-94010/home/1107029,MLSListings,ML81654094,N,Y,37.5825655,-122.3417598
PAST SALE,October-5-2017,Condo/Co-op,107 El Camino Real #101,BURLINGAME,CA,94010,740000,1,1.0,BURLINGAME,819,,2000,117,904,484,Sold,,,http://www.redfin.com/CA/Burlingame/107-El-Camino-Real-94010/unit-101/home/1004822,MLSListings,ML81675497,N,Y,37.5751014,-122.3461273
PAST SALE,December-15-2017,Townhouse,38 Lorton Ave Unit B,BURLINGAME,CA,94010,1625000,3,2.5,BURLINGAME,1789,7500,1999,46,908,400,Sold,,,http://www.redfin.com/CA/Burlingame/38-Lorton-Ave-94010/unit-B/home/1438849,MLSListings,ML81683884,N,Y,37.5764787,-122.3426788
PAST SALE,November-27-2017,Condo/Co-op,30 Lorton Ave #303,BURLINGAME,CA,94010,1170000,2,2.0,BURLINGAME,1219,14900,1986,64,960,600,Sold,,,http://www.redfin.com/CA/Burlingame/30-Lorton-Ave-94010/unit-303/home/1688586,MLSListings,ML81683744,N,Y,37.5763309,-122.3425314
PAST SALE,June-30-2017,Condo/Co-op,828 N El Camino Real #6,SAN MATEO,CA,94401,540000,1,1.0,SAN MATEO,776,18759,1974,214,696,485,Sold,,,http://www.redfin.com/CA/San-Mateo/828-N-El-Camino-Real-94401/unit-6/home/113739559,MLSListings,ML81653173,N,Y,37.5741317,-122.3413784
PAST SALE,January-22-2018,Single Family Residential,434 Bloomfield Rd,BURLINGAME,CA,94010,2310000,2,2.0,BURLINGAME,1560,5000,1938,8,1481,,Sold,,,http://www.redfin.com/CA/Burlingame/434-Bloomfield-Rd-94010/home/691463,MLSListings,ML81689733,N,Y,37.5847737,-122.3425341
PAST SALE,December-26-2017,Single Family Residential,620 Trenton Way,BURLINGAME,CA,94010,2125000,3,2.0,BURLINGAME,1500,7750,1949,35,1417,,Sold,,,http://www.redfin.com/CA/Burlingame/620-Trenton-Way-94010/home/688873,MLSListings,ML81687790,N,Y,37.5862089,-122.3431918
PAST SALE,December-6-2017,Multi-Family (2-4 Unit),119 Highland Ave,BURLINGAME,CA,94010,3025000,5,,BURLINGAME,4899,7500,1908,55,617,,Sold,,,http://www.redfin.com/CA/Burlingame/119-Highland-Ave-94010/home/1292836,MLSListings,ML81674255,N,Y,37.5777342,-122.3432615
PAST SALE,July-24-2015,Single Family Residential,1004 Morrell Ave,BURLINGAME,CA,94010,1500000,2,1.0,BURLINGAME,1400,5760,1916,921,1071,,Sold,,,http://www.redfin.com/CA/Burlingame/1004-Morrell-Ave-94010/home/689312,MLSListings,ML81471283,N,Y,37.5855009,-122.3541893
PAST SALE,April-10-2017,Single Family Residential,916 Carolan Ave,BURLINGAME,CA,94010,1400000,2,1.0,BURLINGAME,1080,5760,1946,295,1296,,Sold,,,http://www.redfin.com/CA/Burlingame/916-Carolan-Ave-94010/home/1822045,MLSListings,ML81640193,N,Y,37.5855128,-122.3564657
PAST SALE,June-30-2017,Multi-Family (5+ Unit),1405 Bellevue Ave,BURLINGAME,CA,94010,4450000,0,,BURLINGAME,7663,5320,1928,214,581,,Sold,,,http://www.redfin.com/CA/Burlingame/1405-Bellevue-Ave-94010/home/687320,MLSListings,ML81652988,N,Y,37.5790733,-122.3503648
PAST SALE,June-22-2017,Single Family Residential,723 Crossway Rd,BURLINGAME,CA,94010,2550000,5,3.0,BURLINGAME,2870,6528,1924,222,889,,Sold,,,http://www.redfin.com/CA/Burlingame/723-Crossway-Rd-94010/home/687845,MLSListings,ML81651265,N,Y,37.5813381,-122.3539661
PAST SALE,August-31-2017,Single Family Residential,1021 Laguna Ave,BURLINGAME,CA,94010,1750500,2,2.0,BURLINGAME,1430,5750,1924,152,1224,,Sold,,,http://www.redfin.com/CA/Burlingame/1021-Laguna-Ave-94010/home/680051,MLSListings,ML81669885,N,Y,37.5846852,-122.3615087
PAST SALE,April-26-2017,Single Family Residential,1738 Manor Dr,HILLSBOROUGH,CA,94010,7500000,4,3.5,HILLSBOROUGH,4500,36590,1940,279,1667,,Sold,,,http://www.redfin.com/CA/Hillsborough/1738-Manor-Dr-94010/home/1875219,MLSListings,ML81648555,N,Y,37.578693,-122.362686
PAST SALE,,Single Family Residential,1493 Oak Grove Ave,Burlingame,CA,94010,1375000,2,1.0,,1190,4280,1925,,1155,,,,,http://www.redfin.com/CA/Burlingame/1493-Oak-Grove-Ave-94010/home/690349,,,N,Y,37.5789003,-122.3555738
PAST SALE,,Condo/Co-op,525 Almer Rd Apt 104,Burlingame,CA,94010,1160000,2,2.0,,1353,,1975,,857,,,,,http://www.redfin.com/CA/Burlingame/525-Almer-Rd-94010/unit-104/home/1235032,,,N,Y,37.5783309,-122.3532843
PAST SALE,,Condo/Co-op,525 Almer Rd #210,Burlingame,CA,94010,1070000,2,2.0,,1644,,1975,,651,,,,,http://www.redfin.com/CA/Burlingame/525-Almer-Rd-94010/unit-210/home/972351,,,N,Y,37.5783309,-122.3532843
PAST SALE,,Condo/Co-op,1209 Oak Grove Ave Apt 201,Burlingame,CA,94010,815000,2,2.0,,1011,,1979,,806,,,,,http://www.redfin.com/CA/Burlingame/1209-Oak-Grove-Ave-94010/unit-201/home/975450,,,N,Y,37.5816841,-122.3513601
PAST SALE,October-11-2017,Multi-Family (5+ Unit),1123 Chula Vista Ave,BURLINGAME,CA,94010,2950000,,,BURLINGAME,4144,5750,1957,111,712,,Sold,,,http://www.redfin.com/CA/Burlingame/1123-Chula-Vista-Ave-94010/home/679926,MLSListings,ML81675474,N,Y,37.5862388,-122.3632366
PAST SALE,September-19-2017,Single Family Residential,800 Alpine Ave,BURLINGAME,CA,94010,1751000,3,2.0,BURLINGAME,1458,5400,1940,133,1201,,Sold,,,http://www.redfin.com/CA/Burlingame/800-Alpine-Ave-94010/home/1641625,MLSListings,ML81673495,N,Y,37.5840732,-122.3529291
PAST SALE,July-28-2017,Single Family Residential,747 Occidental Ave,SAN MATEO,CA,94402,1850000,3,1.5,SAN MATEO,1300,7000,1923,186,1423,,Sold,,,http://www.redfin.com/CA/San-Mateo/747-Occidental-Ave-94402/home/1170570,MLSListings,ML81652477,N,Y,37.570365,-122.3496526
PAST SALE,November-8-2017,Condo/Co-op,1427 Floribunda Ave #103,BURLINGAME,CA,94010,1230000,2,2.0,BURLINGAME,1732,26598,1974,83,710,454,Sold,,,http://www.redfin.com/CA/Burlingame/1427-Floribunda-Ave-94010/unit-103/home/970235,MLSListings,ML81682144,N,Y,37.5796704,-122.3521185
PAST SALE,November-13-2017,Condo/Co-op,1435 Bellevue Ave #202,BURLINGAME,CA,94010,1200000,2,2.0,BURLINGAME,1729,35965,1979,78,694,713,Sold,,,http://www.redfin.com/CA/Burlingame/1435-Bellevue-Ave-94010/unit-202/home/1374151,MLSListings,ML81680709,N,Y,37.578431,-122.3511056
PAST SALE,October-27-2017,Single Family Residential,714 Paloma Ave,BURLINGAME,CA,94010,1650000,3,2.0,BURLINGAME,1680,6650,1927,95,982,,Sold,,,http://www.redfin.com/CA/Burlingame/714-Paloma-Ave-94010/home/1503969,MLSListings,ML81679478,N,Y,37.5797949,-122.355935
PAST SALE,March-29-2017,Condo/Co-op,525 Almer Rd #312,BURLINGAME,CA,94010,1400000,2,2.0,BURLINGAME,1843,,1975,307,760,699,Sold,,,http://www.redfin.com/CA/Burlingame/525-Almer-Rd-94010/unit-312/home/112974418,MLSListings,ML81635831,N,Y,37.5783309,-122.3532843
PAST SALE,December-14-2017,Single Family Residential,711 Neuchatel Ave,BURLINGAME,CA,94010,1350000,2,1.0,BURLINGAME,1140,4500,1947,47,1184,,Sold,,,http://www.redfin.com/CA/Burlingame/711-Neuchatel-Ave-94010/home/1494769,MLSListings,ML81687099,N,Y,37.5816882,-122.3527358
PAST SALE,December-19-2017,Single Family Residential,616 Fairway Cir,HILLSBOROUGH,CA,94010,4570000,4,3.5,HILLSBOROUGH,2880,17500,1950,42,1587,,Sold,,,http://www.redfin.com/CA/Hillsborough/616-Fairway-Cir-94010/home/1265938,MLSListings,ML81680693,N,Y,37.576595,-122.3569894
PAST SALE,July-12-2016,Single Family Residential,2618 Trousdale Dr,BURLINGAME,CA,94010,2006240,3,2.0,BURLINGAME,1940,10375,1959,567,1034,,Sold,,,http://www.redfin.com/CA/Burlingame/2618-Trousdale-Dr-94010/home/1247041,MLSListings,ML81590235,N,Y,37.5860568,-122.3903363
PAST SALE,July-14-2017,Single Family Residential,2977 Mariposa,BURLINGAME,CA,94010,2475000,4,3.0,BURLINGAME,2157,7800,1964,200,1147,,Sold,,,http://www.redfin.com/CA/Burlingame/2977-Mariposa-Dr-94010/home/2008510,MLSListings,ML81655313,N,Y,37.5823117,-122.3985026
PAST SALE,June-14-2017,Single Family Residential,3035 Trousdale Dr,BURLINGAME,CA,94010,2400000,4,3.0,BURLINGAME,2220,12054,1964,230,1081,,Sold,,,http://www.redfin.com/CA/Burlingame/3035-Trousdale-Dr-94010/home/676263,MLSListings,ML81651200,N,Y,37.5813213,-122.3993852
PAST SALE,September-1-2017,Single Family Residential,2657 Martinez Dr,BURLINGAME,CA,94010,2200000,3,2.0,BURLINGAME,1740,8400,1959,151,1264,,Sold,,,http://www.redfin.com/CA/Burlingame/2657-Martinez-Dr-94010/home/672124,MLSListings,ML81671811,Y,Y,37.5849135,-122.3883858
PAST SALE,September-25-2017,Condo/Co-op,88 S Broadway St #1302,MILLBRAE,CA,94030,1450000,2,2.0,MILLBRAE,1715,13631,2007,127,845,687,Sold,,,http://www.redfin.com/CA/Millbrae/88-S-Broadway-94030/unit-1302/home/17307383,MLSListings,ML81669679,N,Y,37.5972985,-122.3879682
PAST SALE,September-18-2017,Single Family Residential,875 Pinon Ave,MILLBRAE,CA,94030,1725000,3,2.0,MILLBRAE,1520,9900,1955,134,1135,,Sold,,,http://www.redfin.com/CA/Millbrae/875-Pinon-Ave-94030/home/1707843,MLSListings,ML81678572,N,Y,37.588468,-122.390047
PAST SALE,October-22-2017,Condo/Co-op,88 S Broadway #1306,MILLBRAE,CA,94030,1450000,2,2.0,MILLBRAE,1711,13631,2007,100,847,687,Sold,,,http://www.redfin.com/CA/Millbrae/88-S-Broadway-94030/unit-1306/home/17307741,MLSListings,ML81676662,N,Y,37.5972985,-122.3879682
PAST SALE,,Single Family Residential,2837 Las Piedras Dr,Burlingame,CA,94010,2838000,4,3.5,,3304,8000,1964,,859,,,,,http://www.redfin.com/CA/Burlingame/2837-Las-Piedras-Dr-94010/home/1869495,,,N,Y,37.5842997,-122.3960823
PAST SALE,March-5-2015,Condo/Co-op,380 Vallejo Dr #223,MILLBRAE,CA,94030,465000,1,1.0,MILLBRAE,764,,1973,1062,609,415,Sold,,,http://www.redfin.com/CA/Millbrae/380-Vallejo-Dr-94030/unit-223/home/1728777,MLSListings,ML81447953,N,Y,37.5827685,-122.4036234
PAST SALE,June-23-2017,Single Family Residential,1457 Murchison Dr,MILLBRAE,CA,94030,1850000,5,3.0,MILLBRAE,2520,7592,1964,221,734,,Sold,,,http://www.redfin.com/CA/Millbrae/1457-Murchison-Dr-94030/home/2052091,MLSListings,ML81650271,N,Y,37.5841247,-122.4024002
PAST SALE,May-4-2017,Single Family Residential,3037 Rivera Dr,BURLINGAME,CA,94010,2050000,3,2.5,BURLINGAME,2520,7930,1962,271,813,,Sold,,,http://www.redfin.com/CA/Burlingame/3037-Rivera-Dr-94010/home/1548038,MLSListings,ML81643884,Y,Y,37.5792252,-122.395284
PAST SALE,May-17-2017,Single Family Residential,3066 Hillside Dr,BURLINGAME,CA,94010,2400000,4,4.0,BURLINGAME,3645,10640,1951,258,658,,Sold,,,http://www.redfin.com/CA/Burlingame/3066-Hillside-Dr-94010/home/677769,MLSListings,ML81642406,Y,Y,37.575106,-122.3930528
PAST SALE,February-27-2017,Single Family Residential,1423 Paloma Ave,BURLINGAME,CA,94010,2750000,3,3.0,BURLINGAME,2523,6000,2012,337,1090,,Sold,,,http://www.redfin.com/CA/Burlingame/1423-Paloma-Ave-94010/home/1675184,MLSListings,ML81638543,Y,Y,37.5886955,-122.3709534
PAST SALE,May-13-2016,Single Family Residential,1601 Broadway Ave,BURLINGAME,CA,94010,1935000,3,2.0,BURLINGAME,1700,5998,1906,627,1138,,Sold,,,http://www.redfin.com/CA/Burlingame/1601-Broadway-94010/home/679400,MLSListings,ML81579236,Y,Y,37.5832093,-122.3668309
PAST SALE,October-30-2015,Single Family Residential,1012 Cortez Ave,BURLINGAME,CA,94010,2850000,5,4.0,BURLINGAME,3000,6250,1996,823,950,,Sold,,,http://www.redfin.com/CA/Burlingame/1012-Cortez-Ave-94010/home/1782168,MLSListings,ML81501308,N,Y,37.5811464,-122.3640545
PAST SALE,March-11-2016,Multi-Family (5+ Unit),1225 Laguna Ave,BURLINGAME,CA,94010,2400000,6,,BURLINGAME,4844,6000,1964,690,495,,Sold,,,http://www.redfin.com/CA/Burlingame/1225-Laguna-Ave-94010/home/1539206,MLSListings,ML81515547,N,Y,37.5866011,-122.3657589
PAST SALE,,Condo/Co-op,1226 El Camino Real Apt 402,Burlingame,CA,94010,927500,2,2.0,,1500,,2010,,618,,,,,http://www.redfin.com/CA/Burlingame/1226-El-Camino-Real-94010/unit-402/home/28639922,,,N,Y,37.5850025,-122.367363
PAST SALE,,Single Family Residential,1751 Manor Dr,Hillsborough,CA,94010,4000100,4,2.0,,3180,21569,1965,,1258,,,,,http://www.redfin.com/CA/Hillsborough/1751-Manor-Dr-94010/home/1707962,,,N,Y,37.5789753,-122.3615478
PAST SALE,April-15-2015,Single Family Residential,1407 De Soto Ave,BURLINGAME,CA,94010,2900000,4,3.0,BURLINGAME,2940,6100,1922,1021,986,,Sold,,,http://www.redfin.com/CA/Burlingame/1407-De-Soto-Ave-94010/home/682973,MLSListings,ML81453850,N,Y,37.58282,-122.3768513
PAST SALE,June-23-2015,Single Family Residential,1413 Balboa Ave,BURLINGAME,CA,94010,2750000,4,3.0,BURLINGAME,3081,6000,1933,952,893,,Sold,,,http://www.redfin.com/CA/Burlingame/1413-Balboa-Ave-94010/home/674519,MLSListings,ML81466168,N,Y,37.5868653,-122.3733342
PAST SALE,February-2-2016,Single Family Residential,1521 Cabrillo Ave,BURLINGAME,CA,94010,4250000,5,4.5,BURLINGAME,4000,16942,2015,728,1063,,Sold,,,http://www.redfin.com/CA/Burlingame/1521-Cabrillo-Ave-94010/home/674808,MLSListings,ML81534868,Y,Y,37.5875262,-122.3783357
PAST SALE,March-18-2016,Single Family Residential,1621 Balboa Way,BURLINGAME,CA,94010,2655000,4,3.5,BURLINGAME,3020,5500,1970,683,879,,Sold,,,http://www.redfin.com/CA/Burlingame/1621-Balboa-Ave-94010/home/1773260,MLSListings,ML81562468,Y,Y,37.590265,-122.379923
PAST SALE,March-30-2015,Single Family Residential,1125 JACKLING Dr,HILLSBOROUGH,CA,94010,3400000,4,4.5,HILLSBOROUGH,3530,28952,2006,1037,963,,Sold,,,http://www.redfin.com/CA/Hillsborough/1125-Jackling-Dr-94010/home/1806954,MLSListings,ML81454593,N,Y,37.5796302,-122.3738314
PAST SALE,March-29-2016,Condo/Co-op,1800 Trousdale Dr #202,BURLINGAME,CA,94010,1000000,2,2.0,BURLINGAME,1275,24000,2015,672,784,438,Sold,,,http://www.redfin.com/CA/Burlingame/1800-Trousdale-Dr-94010/unit-202/home/103854706,MLSListings,ML81550928,N,Y,37.5927158,-122.3856679
PAST SALE,March-15-2017,Single Family Residential,815 Acacia Dr,BURLINGAME,CA,94010,2320000,4,2.0,BURLINGAME,2000,5760,1918,321,1160,,Sold,,,http://www.redfin.com/CA/Burlingame/815-Acacia-Dr-94010/home/1282899,MLSListings,ML81638258,N,Y,37.581883,-122.3572212
PAST SALE,November-22-2016,Single Family Residential,785 Willborough Rd,BURLINGAME,CA,94010,1575785,3,2.0,BURLINGAME,1610,3040,1931,434,979,,Sold,,,http://www.redfin.com/CA/Burlingame/785-Willborough-Rd-94010/home/1724387,MLSListings,ML81628470,N,Y,37.5823511,-122.354387
PAST SALE,August-10-2015,Single Family Residential,1336 Sanchez Ave,BURLINGAME,CA,94010,1503000,2,2.0,BURLINGAME,1330,4000,1922,904,1130,,Sold,,,http://www.redfin.com/CA/Burlingame/1336-Sanchez-Ave-94010/home/675417,MLSListings,ML81485561,N,Y,37.5835647,-122.3613895
PAST SALE,March-14-2017,Single Family Residential,807 Acacia Dr,BURLINGAME,CA,94010,1525000,2,1.0,BURLINGAME,1080,4620,1925,322,1412,,Sold,,,http://www.redfin.com/CA/Burlingame/807-Acacia-Dr-94010/home/1683671,MLSListings,ML81636119,Y,Y,37.5817229,-122.3569548
PAST SALE,April-10-2017,Single Family Residential,1129 Killarney Ln,BURLINGAME,CA,94010,1275000,3,2.0,BURLINGAME,1500,5000,1941,295,850,,Sold,,,http://www.redfin.com/CA/Burlingame/1129-Killarney-Ln-94010/home/673530,MLSListings,ML81646233,N,Y,37.5927448,-122.3789965
PAST SALE,May-11-2017,Condo/Co-op,300 Murchison Dr #309,MILLBRAE,CA,94030,672500,1,1.0,MILLBRAE,734,72970,1989,264,916,432,Sold,,,http://www.redfin.com/CA/Millbrae/300-Murchison-Dr-94030/unit-309/home/2030389,MLSListings,ML81648892,N,Y,37.5948231,-122.3882851
PAST SALE,September-1-2016,Single Family Residential,700 Newhall Rd,BURLINGAME,CA,94010,2234000,2,2.0,BURLINGAME,2310,6899,1977,516,967,,Sold,,,http://www.redfin.com/CA/Burlingame/700-Newhall-Rd-94010/home/1918841,MLSListings,ML81595400,N,Y,37.5774339,-122.358575
PAST SALE,,Condo/Co-op,518 Almer Rd Apt 8,Burlingame,CA,94010,187500,2,2.0,,1600,,1994,,117,,,,,http://www.redfin.com/CA/Burlingame/518-Almer-Rd-94010/unit-8/home/1288601,,,N,Y,37.5788161,-122.3526811
PAST SALE,December-15-2016,Condo/Co-op,777 Morrell Ave #101,BURLINGAME,CA,94010,550000,1,1.0,BURLINGAME,880,22686,1982,411,625,506,Sold,,,http://www.redfin.com/CA/Burlingame/777-Morrell-Ave-94010/unit-101/home/2054630,MLSListings,ML81599815,N,Y,37.5866034,-122.3511408
PAST SALE,,Single Family Residential,1517 Chapin Ave,Burlingame,CA,94010,2580000,5,4.0,,3585,7800,2015,,720,,,,,http://www.redfin.com/CA/Burlingame/1517-Chapin-Ave-94010/home/1822126,,,N,Y,37.5758825,-122.3511394
PAST SALE,April-14-2016,Single Family Residential,1520 Hoover Ave,BURLINGAME,CA,94010,2925000,4,2.5,BURLINGAME,2347,6000,1920,656,1246,,Sold,,,http://www.redfin.com/CA/Burlingame/1520-Hoover-Ave-94010/home/1376814,MLSListings,ML81562769,N,Y,37.5847079,-122.3809206
PAST SALE,March-20-2017,Single Family Residential,1120 Oxford Rd,BURLINGAME,CA,94010,1595000,2,1.0,BURLINGAME,1280,5950,1927,316,1246,,Sold,,,http://www.redfin.com/CA/Burlingame/1120-Oxford-Rd-94010/home/1869536,MLSListings,ML81637640,Y,Y,37.5908899,-122.3738076
PAST SALE,March-30-2017,Single Family Residential,1461 Bernal Ave,BURLINGAME,CA,94010,3120000,4,3.0,BURLINGAME,2484,6000,2007,306,1256,,Sold,,,http://www.redfin.com/CA/Burlingame/1461-Bernal-Ave-94010/home/1107698,MLSListings,ML81642737,Y,Y,37.5851409,-122.3774202
PAST SALE,April-5-2017,Single Family Residential,1812 Sanchez Ave,BURLINGAME,CA,94010,2184500,3,2.5,BURLINGAME,2362,5600,1920,300,925,,Sold,,,http://www.redfin.com/CA/Burlingame/1812-Sanchez-Ave-94010/home/2036590,MLSListings,ML81640838,Y,Y,37.5799476,-122.3653801
PAST SALE,April-3-2015,Single Family Residential,26 BLACKHAWK Ln,Burlingame,CA,94010,2616000,7,5.5,Burlingame,6000,22200,1990,1033,436,5,Sold,,,http://www.redfin.com/CA/Burlingame/26-Blackhawk-Ln-94010/home/1675242,MLSListings,ML81413975,N,Y,37.5823071,-122.3873286
PAST SALE,April-18-2017,Single Family Residential,1357 Bernal Ave,BURLINGAME,CA,94010,1825000,3,1.0,BURLINGAME,1520,6000,1907,287,1201,,Sold,,,http://www.redfin.com/CA/Burlingame/1357-Bernal-Ave-94010/home/1404183,MLSListings,ML81643831,Y,Y,37.5832648,-122.3740527
PAST SALE,July-14-2017,Other,1312 El Camino Real,BURLINGAME,CA,94010,3675000,7,,BURLINGAME,8147,6950,1986,200,451,,Sold,,,http://www.redfin.com/CA/Burlingame/1312-El-Camino-Real-94010/home/2031456,MLSListings,ML81648430,N,Y,37.586234,-122.369196
PAST SALE,May-12-2017,Single Family Residential,1800 Castenada Dr,BURLINGAME,CA,94010,2125000,3,2.0,BURLINGAME,2175,8360,1957,263,977,,Sold,,,http://www.redfin.com/CA/Burlingame/1800-Castenada-Dr-94010/home/1581482,MLSListings,ML81637027,N,Y,37.5873059,-122.3901095
PAST SALE,August-18-2017,Single Family Residential,720 Crescent Ave,SAN MATEO,CA,94402,3525000,4,2.0,SAN MATEO,2500,8525,1953,165,1410,,Sold,,,http://www.redfin.com/CA/San-Mateo/720-Crescent-Ave-94402/home/2058878,MLSListings,ML81669805,N,Y,37.5713023,-122.3448242
PAST SALE,March-8-2016,Single Family Residential,124 Pepper Ave,BURLINGAME,CA,94010,2750000,3,2.5,BURLINGAME,2110,11900,1932,693,1303,,Sold,,,http://www.redfin.com/CA/Burlingame/124-Pepper-Ave-94010/home/1890609,MLSListings,ML81550337,N,Y,37.5715011,-122.3509597
PAST SALE,,Single Family Residential,1255 Jackling Dr,Hillsborough,CA,94010,2335000,3,2.0,,2130,10192,1951,,1096,,,,,http://www.redfin.com/CA/Hillsborough/1255-Jackling-Dr-94010/home/2058844,,,Y,Y,37.580982,-122.372119
PAST SALE,July-14-2017,Single Family Residential,1280 Balboa Ave,BURLINGAME,CA,94010,2300000,5,3.0,BURLINGAME,2700,6100,1915,200,852,,Sold,,,http://www.redfin.com/CA/Burlingame/1280-Balboa-Ave-94010/home/1210432,MLSListings,ML81653272,N,Y,37.5853168,-122.369647
PAST SALE,May-26-2017,Single Family Residential,1327 Castillo Ave,BURLINGAME,CA,94010,2150000,3,1.5,BURLINGAME,1650,6000,1941,249,1303,,Sold,,,http://www.redfin.com/CA/Burlingame/1327-Castillo-Ave-94010/home/2053125,MLSListings,ML81648623,Y,Y,37.5801083,-122.3774248
PAST SALE,August-11-2017,Single Family Residential,1440 Cabrillo Ave,BURLINGAME,CA,94010,3925000,5,4.5,BURLINGAME,2980,6000,2013,172,1317,,Sold,,,http://www.redfin.com/CA/Burlingame/1440-Cabrillo-Ave-94010/home/678154,MLSListings,ML81668936,Y,Y,37.5863995,-122.3752586
PAST SALE,June-3-2017,Single Family Residential,1596 Columbus Ave,BURLINGAME,CA,94010,2850000,4,3.0,BURLINGAME,2975,6252,2012,241,958,,Sold,,,http://www.redfin.com/CA/Burlingame/1596-Columbus-Ave-94010/home/2010915,MLSListings,ML81653960,Y,Y,37.585432,-122.382673
PAST SALE,August-8-2017,Single Family Residential,1547 Drake Ave,BURLINGAME,CA,94010,3000000,4,4.5,BURLINGAME,2557,6000,2005,175,1173,,Sold,,,http://www.redfin.com/CA/Burlingame/1547-Drake-Ave-94010/home/1664419,MLSListings,ML81668033,Y,Y,37.5870595,-122.3791224
PAST SALE,August-28-2017,Single Family Residential,1625 Marco Polo Way,BURLINGAME,CA,94010,1601000,2,1.0,BURLINGAME,1360,5500,1948,155,1177,,Sold,,,http://www.redfin.com/CA/Burlingame/1625-Marco-Polo-Way-94010/home/670757,MLSListings,ML81654242,N,Y,37.5888785,-122.3819306
PAST SALE,August-23-2017,Condo/Co-op,1217 Paloma Ave #5,BURLINGAME,CA,94010,825000,2,1.0,BURLINGAME,902,6000,1968,160,915,269,Sold,,,http://www.redfin.com/CA/Burlingame/1217-Paloma-Ave-94010/unit-5/home/17308254,MLSListings,ML81670780,N,Y,37.5858094,-122.3660664
PAST SALE,June-20-2017,Single Family Residential,2301 Valdivia Way,BURLINGAME,CA,94010,2850000,3,2.0,BURLINGAME,2500,29000,1954,224,1140,,Sold,,,http://www.redfin.com/CA/Burlingame/2301-Valdivia-Way-94010/home/2053097,MLSListings,ML81651443,N,Y,37.5859985,-122.3830077
PAST SALE,,Single Family Residential,2202 Summit Dr,Hillsborough,CA,94010,1375000,4,5.0,,3917,109854,1975,,351,,,,,http://www.redfin.com/CA/Hillsborough/2202-Summit-Dr-94010/home/143944523,,,N,Y,37.5763033,-122.3832878
PAST SALE,September-11-2017,Single Family Residential,1452 Bernal Ave,BURLINGAME,CA,94010,2375000,3,2.0,BURLINGAME,1750,6000,1924,141,1357,,Sold,,,http://www.redfin.com/CA/Burlingame/1452-Bernal-Ave-94010/home/674743,MLSListings,ML81677406,N,Y,37.5853295,-122.3768648
PAST SALE,September-28-2017,Single Family Residential,12 Belvedere Ct,BURLINGAME,CA,94010,2880000,4,2.5,BURLINGAME,2480,17250,1961,124,1161,,Sold,,,http://www.redfin.com/CA/Burlingame/12-Belvedere-Ct-94010/home/1908208,MLSListings,ML81678211,N,Y,37.5761654,-122.3819145
PAST SALE,November-7-2017,Single Family Residential,2555 Summit Dr,HILLSBOROUGH,CA,94010,3600000,4,3.0,HILLSBOROUGH,3570,40761,1968,84,1008,,Sold,,,http://www.redfin.com/CA/Hillsborough/2555-Summit-Dr-94010/home/1292738,MLSListings,ML81676670,N,Y,37.5740059,-122.3816206
PAST SALE,November-3-2017,Single Family Residential,1510 Ray Dr,BURLINGAME,CA,94010,2600000,4,3.0,BURLINGAME,2320,5400,1947,88,1121,,Sold,,,http://www.redfin.com/CA/Burlingame/1510-Ray-Dr-94010/home/1304386,MLSListings,ML81677093,N,Y,37.590421,-122.3786211
PAST SALE,May-18-2017,Single Family Residential,2750 El Prado Rd,BURLINGAME,CA,94010,2038880,4,4.0,BURLINGAME,2341,25650,1966,257,871,,Sold,,,http://www.redfin.com/CA/Burlingame/2750-El-Prado-Rd-94010/home/1875243,MLSListings,ML81646081,N,Y,37.5736658,-122.3878122
PAST SALE,,Townhouse,1137 Paloma Ave #1,Burlingame,CA,94010,1320000,2,2.0,,1402,17250,2007,,942,,,,,http://www.redfin.com/CA/Burlingame/1137-Paloma-Ave-94010/unit-1/home/17307286,,,N,Y,37.5851002,-122.3647734
PAST SALE,January-5-2018,Single Family Residential,21 Hayward Ct,BURLINGAME,CA,94010,3170000,4,2.5,BURLINGAME,2546,15840,1949,25,1245,,Sold,,,http://www.redfin.com/CA/Burlingame/21-Hayward-Ct-94010/home/2054967,MLSListings,ML81684433,N,Y,37.5850894,-122.3852329
PAST SALE,December-27-2017,Single Family Residential,951 Baileyana Rd,HILLSBOROUGH,CA,94010,4525000,3,4.5,HILLSBOROUGH,3030,10000,1929,34,1493,,Sold,,,http://www.redfin.com/CA/Hillsborough/951-Baileyana-Rd-94010/home/1514076,MLSListings,ML81686098,Y,Y,37.5762818,-122.3768487
PAST SALE,July-14-2017,Single Family Residential,407 Occidental Ave,BURLINGAME,CA,94010,2575000,5,3.0,BURLINGAME,2550,5400,1920,200,1010,,Sold,,,http://www.redfin.com/CA/Burlingame/407-Occidental-Ave-94010/home/1658205,MLSListings,ML81651954,Y,Y,37.5759204,-122.3523848
PAST SALE,June-13-2017,Single Family Residential,340 Occidental Ave,BURLINGAME,CA,94010,2778000,3,2.5,BURLINGAME,2620,6156,1925,231,1060,,Sold,,,http://www.redfin.com/CA/Burlingame/340-Occidental-Ave-94010/home/1514027,MLSListings,ML81651150,Y,Y,37.5754248,-122.3514229
PAST SALE,,Condo/Co-op,80 El Camino Real Apt A,Burlingame,CA,94010,730000,2,1.0,,884,,1972,,826,,,,,http://www.redfin.com/CA/Burlingame/80-El-Camino-Real-94010/unit-A/home/965184,,,N,Y,37.575212,-122.344497
PAST SALE,,Single Family Residential,30 Country Club Dr,Hillsborough,CA,94010,3086500,3,3.0,,2910,25500,1956,,1061,,,,,http://www.redfin.com/CA/Hillsborough/30-Country-Club-Dr-94010/home/1589967,,,N,Y,37.5725236,-122.3547252
PAST SALE,,Single Family Residential,2050 Ralston Ave,Hillsborough,CA,94010,1500000,3,2.0,,3020,22275,1959,,497,,,,,http://www.redfin.com/CA/Hillsborough/2050-Ralston-Ave-94010/home/2054067,,,N,Y,37.57194,-122.3557314
PAST SALE,June-7-2017,Single Family Residential,1516 Howard Ave,BURLINGAME,CA,94010,4328000,5,5.5,BURLINGAME,3515,7008,1933,237,1231,,Sold,,,http://www.redfin.com/CA/Burlingame/1516-Howard-Ave-94010/home/1791256,MLSListings,ML81651183,Y,Y,37.5751768,-122.3482021
PAST SALE,November-7-2017,Single Family Residential,1640 Barroilhet Ave,BURLINGAME,CA,94010,2300000,3,2.0,BURLINGAME,1730,7500,1952,84,1329,,Sold,,,http://www.redfin.com/CA/Burlingame/1640-Barroilhet-Ave-94010/home/1282850,MLSListings,ML81679040,Y,Y,37.5715079,-122.3488716
PAST SALE,November-17-2017,Single Family Residential,503 Barroilhet Ave,SAN MATEO,CA,94402,2900000,4,2.5,SAN MATEO,2450,5185,1925,74,1184,,Sold,,,http://www.redfin.com/CA/San-Mateo/503-Barroilhet-Ave-94402/home/1751250,MLSListings,ML81678948,N,Y,37.5706605,-122.3496932
PAST SALE,November-8-2016,Single Family Residential,79 Loma Vista Dr,BURLINGAME,CA,94010,1810000,4,3.0,BURLINGAME,2091,6080,1947,448,866,,Sold,,,http://www.redfin.com/CA/Burlingame/79-Loma-Vista-Dr-94010/home/1256010,MLSListings,ML81627373,Y,Y,37.5728709,-122.3964246
PAST SALE,November-29-2016,Single Family Residential,1440 Alvarado Ave,BURLINGAME,CA,94010,2400000,4,3.5,BURLINGAME,2820,5732,1952,427,851,,Sold,,,http://www.redfin.com/CA/Burlingame/1440-Alvarado-Ave-94010/home/1800427,MLSListings,ML81628288,N,Y,37.5797823,-122.3813131
PAST SALE,,Multi-Family (2-4 Unit),1124 Douglas Ave,Burlingame,CA,94010,2000000,5,3.0,,4646,5966,1904,,430,,,,,http://www.redfin.com/CA/Burlingame/1124-Douglas-Ave-94010/home/2031522,,,N,Y,37.5807601,-122.3498941
PAST SALE,,Single Family Residential,103 Fey Dr,Burlingame,CA,94010,1850000,4,2.5,,3070,16100,1980,,603,,,,,http://www.redfin.com/CA/Burlingame/103-Fey-Dr-94010/home/1733302,,,N,Y,37.5747938,-122.3882951
PAST SALE,,Single Family Residential,2967 Dolores Way,Burlingame,CA,94010,370500,4,2.0,,2110,7675,1964,,176,,,,,http://www.redfin.com/CA/Burlingame/2967-Dolores-Way-94010/home/1982941,,,N,Y,37.5829142,-122.3996779
PAST SALE,February-27-2017,Single Family Residential,1566 Alturas Dr,BURLINGAME,CA,94010,2106000,3,2.5,BURLINGAME,2300,11315,1972,337,916,,Sold,,,http://www.redfin.com/CA/Burlingame/1566-Alturas-Dr-94010/home/1564963,MLSListings,ML81635321,Y,Y,37.5772623,-122.3955358
PAST SALE,April-1-2016,Single Family Residential,524 Francisco Dr,BURLINGAME,CA,94010,2040000,3,2.0,BURLINGAME,2105,6250,1930,669,969,,Sold,,,http://www.redfin.com/CA/Burlingame/524-Francisco-Dr-94010/home/690323,MLSListings,ML81563363,Y,Y,37.585966,-122.3476457
PAST SALE,July-7-2016,Condo/Co-op,777 Morrell Ave #103,BURLINGAME,CA,94010,612000,1,1.0,BURLINGAME,880,871,1982,572,695,506,Sold,,,http://www.redfin.com/CA/Burlingame/777-Morrell-Ave-94010/unit-103/home/976363,MLSListings,ML81585311,N,Y,37.5866034,-122.3511408
PAST SALE,June-29-2015,Condo/Co-op,777 Morrell Ave #105,BURLINGAME,CA,94010,510000,1,1.0,BURLINGAME,880,22687,1982,946,580,482,Sold,,,http://www.redfin.com/CA/Burlingame/777-Morrell-Ave-94010/unit-105/home/2012523,MLSListings,ML81465634,N,Y,37.5866034,-122.3511408
PAST SALE,June-24-2015,Single Family Residential,470 Marin Dr,BURLINGAME,CA,94010,1450000,2,1.0,BURLINGAME,1150,6000,1937,951,1261,,Sold,,,http://www.redfin.com/CA/Burlingame/470-Marin-Dr-94010/home/1647678,MLSListings,ML81466871,N,Y,37.5852032,-122.3455746
PAST SALE,,Single Family Residential,473 Bloomfield Rd,Burlingame,CA,94010,1450000,2,1.0,,1070,5750,1946,,1355,,,,,http://www.redfin.com/CA/Burlingame/473-Bloomfield-Rd-94010/home/1442338,,,N,Y,37.5858677,-122.3443687
PAST SALE,,Multi-Family (2-4 Unit),625 California Dr,Burlingame,CA,94010,1750000,2,1.0,,840,6222,1914,,2083,,,,,http://www.redfin.com/CA/Burlingame/625-California-Dr-94010/home/1782253,,,N,Y,37.582078,-122.3510439
PAST SALE,May-24-2017,Single Family Residential,1423 Balboa Ave,BURLINGAME,CA,94010,3450000,5,4.5,BURLINGAME,2984,6000,2002,251,1156,,Sold,,,http://www.redfin.com/CA/Burlingame/1423-Balboa-Ave-94010/home/1012225,MLSListings,ML81648771,N,Y,37.5871246,-122.3737697
PAST SALE,,Single Family Residential,612 Vernon Way,Burlingame,CA,94010,1350000,3,1.0,,1200,5000,1946,,1125,,,,,http://www.redfin.com/CA/Burlingame/612-Vernon-Way-94010/home/1321659,,,N,Y,37.5847842,-122.3411891
PAST SALE,,Single Family Residential,5 Winchester Pl,Burlingame,CA,94010,1200000,2,1.0,,1030,2480,1930,,1165,,,,,http://www.redfin.com/CA/Burlingame/5-Winchester-Pl-94010/home/1468184,,,N,Y,37.5865529,-122.3491481
PAST SALE,,Multi-Family (2-4 Unit),501 Marin Dr,Burlingame,CA,94010,1350000,4,2.0,,2212,5250,1941,,610,,,,,http://www.redfin.com/CA/Burlingame/501-Marin-Dr-94010/home/688271,,,N,Y,37.5865522,-122.3461142
PAST SALE,,Single Family Residential,603 Lexington Way,Burlingame,CA,94010,1520000,3,2.0,,1495,5000,1940,,1017,,,,,http://www.redfin.com/CA/Burlingame/603-Lexington-Way-94010/home/2019316,,,N,Y,37.5852202,-122.3412111
PAST SALE,,Condo/Co-op,1209 Oak Grove Ave Unit 304 1209,Burlingame,CA,94010,779000,2,2.0,,1052,,1979,,740,,,,,http://www.redfin.com/CA/Burlingame/1209-Oak-Grove-Ave-94010/unit-304-1209/home/1102942,,,N,Y,37.5816841,-122.3513601
PAST SALE,,Single Family Residential,155 Glen Aulin Ln,Burlingame,CA,94010,200000,3,2.0,,2160,36550,1960,,93,,,,,http://www.redfin.com/CA/Burlingame/155-Glen-Aulin-Ln-94010/home/686920,,,N,Y,37.571214,-122.3885673
PAST SALE,October-31-2016,Single Family Residential,2990 Trousdale Dr,BURLINGAME,CA,94010,2250000,4,2.5,BURLINGAME,2400,10711,1964,456,938,,Sold,,,http://www.redfin.com/CA/Burlingame/2990-Trousdale-Dr-94010/home/2038794,MLSListings,ML81614269,Y,Y,37.5819057,-122.3985936
PAST SALE,September-15-2015,Single Family Residential,1632 Skyline Blvd,BURLINGAME,CA,94010,1550000,4,2.0,BURLINGAME,2110,7600,1965,868,735,,Sold,,,http://www.redfin.com/CA/Burlingame/1632-Skyline-Blvd-94010/home/2050259,MLSListings,ML81472140,N,Y,37.5767986,-122.3983813
PAST SALE,August-19-2016,Single Family Residential,2204 Davis Dr,BURLINGAME,CA,94010,1690000,3,2.0,BURLINGAME,1720,5775,1950,529,983,,Sold,,,http://www.redfin.com/CA/Burlingame/2204-Davis-Dr-94010/home/1170092,MLSListings,ML81594397,N,Y,37.5878698,-122.38491
PAST SALE,August-21-2015,Single Family Residential,114 Loma Vista Dr,BURLINGAME,CA,94010,1610000,3,2.0,BURLINGAME,1570,6175,1950,893,1025,,Sold,,,http://www.redfin.com/CA/Burlingame/114-Loma-Vista-Dr-94010/home/1564969,MLSListings,ML81501086,N,Y,37.5717353,-122.395966
PAST SALE,April-13-2016,Single Family Residential,125 Alturas Dr,BURLINGAME,CA,94010,2280000,4,3.5,BURLINGAME,2870,12816,1928,657,794,,Sold,,,http://www.redfin.com/CA/Burlingame/125-Alturas-Dr-94010/home/1151304,MLSListings,ML81545844,N,Y,37.5732687,-122.3919975
PAST SALE,March-30-2016,Single Family Residential,117 Occidental Ave,BURLINGAME,CA,94010,1861000,3,1.5,BURLINGAME,1150,7248,1917,671,1618,,Sold,,,http://www.redfin.com/CA/Burlingame/117-Occidental-Ave-94010/home/1848844,MLSListings,ML81577632,N,Y,37.5716078,-122.3501056
PAST SALE,,Multi-Family (2-4 Unit),1206 Bayswater Ave,Burlingame,CA,94010,2400000,7,7.0,,4766,5000,1962,,504,,,,,http://www.redfin.com/CA/Burlingame/1206-Bayswater-Ave-94010/home/689574,,,N,Y,37.5765786,-122.3437611
PAST SALE,June-17-2016,Condo/Co-op,525 Almer Rd #310,BURLINGAME,CA,94010,1117500,2,2.0,BURLINGAME,1644,,1975,592,680,559,Sold,,,http://www.redfin.com/CA/Burlingame/525-Almer-Rd-94010/unit-310/home/972362,MLSListings,ML81584198,N,Y,37.5783309,-122.3532843
PAST SALE,March-12-2015,Townhouse,1233 Bellevue Ave #1,BURLINGAME,CA,94010,1060000,2,2.5,BURLINGAME,1550,12517,1985,1055,684,666,Sold,,,http://www.redfin.com/CA/Burlingame/1233-Bellevue-Ave-94010/unit-1/home/980015,MLSListings,ML81447287,N,Y,37.5795914,-122.3485188
PAST SALE,December-31-2015,Condo/Co-op,1515 Floribunda Ave #109,BURLINGAME,CA,94010,780000,2,1.0,BURLINGAME,1004,39430,1977,761,777,288,Sold,,,http://www.redfin.com/CA/Burlingame/1515-Floribunda-Ave-94010/unit-109/home/1345034,MLSListings,ML81522564,N,Y,37.5784838,-122.3542761
PAST SALE,January-8-2016,Condo/Co-op,512 Primrose Rd #202,BURLINGAME,CA,94010,2990000,3,2.0,BURLINGAME,2465,13069,2006,753,1213,691,Sold,,,http://www.redfin.com/CA/Burlingame/512-Primrose-Rd-94010/unit-202/home/12339794,MLSListings,ML81546418,N,Y,37.5803824,-122.3502577
PAST SALE,,Multi-Family (2-4 Unit),1469 Bellevue Ave,Burlingame,CA,94010,40575000,123,2.0,,99999,43167,1962,,406,,,,,http://www.redfin.com/CA/Burlingame/1469-Bellevue-Ave-94010/home/1460006,,,N,Y,37.5774367,-122.3522305
PAST SALE,May-9-2016,Condo/Co-op,1427 Floribunda Ave #101,BURLINGAME,CA,94010,1085000,2,2.0,BURLINGAME,1480,26598,1974,631,733,426,Sold,,,http://www.redfin.com/CA/Burlingame/1427-Floribunda-Ave-94010/unit-101/home/2041677,MLSListings,ML81578089,N,Y,37.5796704,-122.3521185
PAST SALE,,Condo/Co-op,525 Almer Rd #203,Burlingame,CA,94010,1012500,3,2.0,,1562,,1975,,648,,,,,http://www.redfin.com/CA/Burlingame/525-Almer-Rd-94010/unit-203/home/1447235,,,N,Y,37.5783309,-122.3532843
PAST SALE,March-3-2015,Condo/Co-op,616 Ansel Rd #3,BURLINGAME,CA,94010,950000,2,2.0,BURLINGAME,1662,12185,1981,1064,572,625,Sold,,,http://www.redfin.com/CA/Burlingame/616-Ansel-Rd-94010/unit-3/home/1819198,MLSListings,ML81446284,N,Y,37.5803679,-122.3530743
PAST SALE,,Single Family Residential,1032 Paloma Ave,Burlingame,CA,94010,1703000,4,4.0,,2430,5750,1927,,701,,,,,http://www.redfin.com/CA/Burlingame/1032-Paloma-Ave-94010/home/1078548,,,N,Y,37.5845409,-122.3622108
PAST SALE,October-30-2015,Multi-Family (2-4 Unit),1544 Albemarle Way,BURLINGAME,CA,94010,1800000,5,,BURLINGAME,2367,7200,1946,823,760,,Sold,,,http://www.redfin.com/CA/Burlingame/1544-Albemarle-Way-94010/home/673385,MLSListings,ML81517502,N,Y,37.590132,-122.3771352
PAST SALE,March-12-2015,Single Family Residential,1301 DRAKE Ave,Burlingame,CA,94010,2705000,4,3.5,Burlingame,2732,5400,2014,1055,990,,Sold,,,http://www.redfin.com/CA/Burlingame/1301-Drake-Ave-94010/home/2053104,MLSListings,ML81438357,N,Y,37.5831338,-122.3718947
PAST SALE,August-9-2016,Single Family Residential,35 Sheldon Way,HILLSBOROUGH,CA,94010,5700000,5,6.5,HILLSBOROUGH,4840,21784,1970,539,1178,,Sold,,,http://www.redfin.com/CA/Hillsborough/35-Sheldon-Way-94010/home/1773407,MLSListings,ML81599580,N,Y,37.5787184,-122.3745268
PAST SALE,November-18-2016,Single Family Residential,864 N Claremont St,SAN MATEO,CA,94401,1200000,4,2.0,SAN MATEO,1387,7104,1944,438,865,,Sold,,,http://www.redfin.com/CA/San-Mateo/864-N-Claremont-St-94401/home/2054097,MLSListings,ML81600715,N,Y,37.5795344,-122.3348649
PAST SALE,July-22-2016,Single Family Residential,224 Channing Rd,BURLINGAME,CA,94010,1600000,2,2.0,BURLINGAME,1445,5749,1924,557,1107,,Sold,,,http://www.redfin.com/CA/Burlingame/224-Channing-Rd-94010/home/689932,MLSListings,ML81589760,N,Y,37.5849364,-122.3365697
PAST SALE,July-7-2015,Single Family Residential,711 Burlingame Ave,BURLINGAME,CA,94010,1950000,4,3.0,BURLINGAME,2350,5000,1936,938,830,,Sold,,,http://www.redfin.com/CA/Burlingame/711-Burlingame-Ave-94010/home/692793,MLSListings,ML81471929,N,Y,37.582497,-122.34102
PAST SALE,June-9-2015,Condo/Co-op,525 Almer Rd #101,BURLINGAME,CA,94010,1080000,3,2.0,BURLINGAME,1562,,1975,966,691,486,Sold,,,http://www.redfin.com/CA/Burlingame/525-Almer-Rd-94010/unit-101/home/972329,MLSListings,ML81463913,N,Y,37.5783309,-122.3532843
PAST SALE,June-23-2015,Single Family Residential,341 Marcella Way,Millbrae,CA,94030,2999000,5,4.5,Millbrae,3213,9100,2015,952,933,,Sold,,,http://www.redfin.com/CA/Millbrae/341-Marcella-Way-94030/home/1800249,San Francisco MLS,432026,N,Y,37.5896116,-122.3913771
PAST SALE,,Single Family Residential,1120 Dufferin Ave,Burlingame,CA,94010,1450000,3,2.0,,1510,5035,1942,,960,,,,,http://www.redfin.com/CA/Burlingame/1120-Dufferin-Ave-94010/home/1521499,,,N,Y,37.5935434,-122.3800073
PAST SALE,July-1-2015,Condo/Co-op,300 Murchison Dr #310,San Mateo,CA,94030,880000,2,2.0,San Mateo,1052,,1989,944,837,475,Sold,,,http://www.redfin.com/CA/Millbrae/300-Murchison-Dr-94030/unit-310/home/1400693,San Francisco MLS,434270,N,Y,37.5948231,-122.3882851
PAST SALE,November-4-2016,Condo/Co-op,107 El Camino Real #104,BURLINGAME,CA,94010,1265000,3,3.0,BURLINGAME,1633,20384,2000,452,775,661,Sold,,,http://www.redfin.com/CA/Burlingame/107-El-Camino-Real-94010/unit-104/home/1301996,MLSListings,ML81626143,N,Y,37.5751014,-122.3461273
PAST SALE,August-25-2015,Single Family Residential,133 Pepper Ave,BURLINGAME,CA,94010,4200000,4,3.5,BURLINGAME,3080,21318,1924,889,1364,,Sold,,,http://www.redfin.com/CA/Burlingame/133-Pepper-Ave-94010/home/685410,MLSListings,ML81497925,N,Y,37.5715486,-122.3518443
PAST SALE,February-24-2017,Single Family Residential,1609 Quesada Way,BURLINGAME,CA,94010,2050000,3,2.0,BURLINGAME,1660,5565,1949,340,1235,,Sold,,,http://www.redfin.com/CA/Burlingame/1609-Quesada-Way-94010/home/2047355,MLSListings,ML81636932,Y,Y,37.5872913,-122.3836096
PAST SALE,December-23-2016,Single Family Residential,1421 Balboa Ave,BURLINGAME,CA,94010,2128000,4,2.0,BURLINGAME,2360,6000,1902,403,902,,Sold,,,http://www.redfin.com/CA/Burlingame/1421-Balboa-Ave-94010/home/1180869,MLSListings,ML81632046,Y,Y,37.5870587,-122.3735959
PAST SALE,September-30-2016,Single Family Residential,1661 Westmoor Rd,BURLINGAME,CA,94010,1370000,2,1.0,BURLINGAME,1030,5248,1942,487,1330,,Sold,,,http://www.redfin.com/CA/Burlingame/1661-Westmoor-Rd-94010/home/673642,MLSListings,ML81600699,N,Y,37.5924578,-122.3798844
PAST SALE,,Single Family Residential,1537 Meadow Ln,Burlingame,CA,94010,1050000,2,1.0,,1070,4950,1942,,981,,,,,http://www.redfin.com/CA/Burlingame/1537-Meadow-Ln-94010/home/673915,,,N,Y,37.5911709,-122.3759333
PAST SALE,September-15-2016,Single Family Residential,1262 Balboa Ave,BURLINGAME,CA,94010,2875000,4,3.5,BURLINGAME,2510,9226,1915,502,1145,,Sold,,,http://www.redfin.com/CA/Burlingame/1262-Balboa-Ave-94010/home/1494631,MLSListings,ML81598580,N,Y,37.5849205,-122.3689551
PAST SALE,July-13-2016,Single Family Residential,1654 Escalante Way,BURLINGAME,CA,94010,2308000,4,2.0,BURLINGAME,2110,7775,1965,566,1094,,Sold,,,http://www.redfin.com/CA/Burlingame/1654-Escalante-Way-94010/home/2019232,MLSListings,ML81590257,N,Y,37.5783772,-122.3984248
PAST SALE,July-14-2015,Condo/Co-op,1550 Frontera Way #210,MILLBRAE,CA,94030,750000,2,2.0,MILLBRAE,1400,,1973,931,536,500,Sold,,,http://www.redfin.com/CA/Millbrae/1550-Frontera-Way-94030/unit-210/home/2047912,MLSListings,ML81461663,N,Y,37.5827529,-122.402997
PAST SALE,April-15-2015,Single Family Residential,2951 Frontera Way,BURLINGAME,CA,94010,2000000,4,2.0,BURLINGAME,2000,7700,1964,1021,1000,,Sold,,,http://www.redfin.com/CA/Burlingame/2951-Frontera-Way-94010/home/1773297,MLSListings,ML81453883,N,Y,37.5840334,-122.399502
PAST SALE,April-22-2015,Single Family Residential,433 Occidental Ave,BURLINGAME,CA,94010,2620000,3,3.0,BURLINGAME,2530,8276,1982,1014,1036,,Sold,,,http://www.redfin.com/CA/Burlingame/433-Occidental-Ave-94010/home/1622769,MLSListings,ML81456858,N,Y,37.5760819,-122.3524508
PAST SALE,March-6-2017,Single Family Residential,150 Newton Dr,BURLINGAME,CA,94010,4600000,5,5.5,BURLINGAME,4700,17657,2009,330,979,,Sold,,,http://www.redfin.com/CA/Burlingame/150-Newton-Dr-94010/home/21967802,MLSListings,ML81637548,N,Y,37.5784371,-122.3874522
PAST SALE,June-9-2016,Condo/Co-op,1237 Capuchino Ave #2,BURLINGAME,CA,94010,992000,2,2.0,BURLINGAME,1210,12000,2001,600,820,580,Sold,,,http://www.redfin.com/CA/Burlingame/1237-Capuchino-Ave-94010/unit-2/home/1467160,MLSListings,ML81590062,N,Y,37.5856161,-122.3674042
PAST SALE,August-18-2016,Condo/Co-op,1210 Bellevue Ave #302,BURLINGAME,CA,94010,710000,1,1.0,BURLINGAME,800,21318,1979,530,888,562,Sold,,,http://www.redfin.com/CA/Burlingame/1210-Bellevue-Ave-94010/unit-302/home/2056726,MLSListings,ML81595007,N,Y,37.5804585,-122.3483168
PAST SALE,December-3-2015,Townhouse,733 Fairfield Rd #12,BURLINGAME,CA,94010,850000,2,2.5,BURLINGAME,1197,16618,1981,789,710,440,Sold,,,http://www.redfin.com/CA/Burlingame/733-Fairfield-Rd-94010/unit-12/home/978326,MLSListings,ML81518216,N,Y,37.5800845,-122.3584702
PAST SALE,October-27-2015,Single Family Residential,446 Marin Dr,BURLINGAME,CA,94010,2375000,4,3.5,BURLINGAME,2525,6000,1938,826,941,,Sold,,,http://www.redfin.com/CA/Burlingame/446-Marin-Dr-94010/home/1987321,MLSListings,ML81518917,N,Y,37.5845902,-122.344895
PAST SALE,May-6-2016,Condo/Co-op,1499 Oak Grove Ave #103,BURLINGAME,CA,94010,960000,2,2.0,BURLINGAME,1475,15132,1997,634,651,560,Sold,,,http://www.redfin.com/CA/Burlingame/1499-Oak-Grove-Ave-94010/unit-103/home/969588,MLSListings,ML81577141,N,Y,37.5787352,-122.3558055
PAST SALE,May-27-2015,Condo/Co-op,1499 Oak Grove Ave #304,BURLINGAME,CA,94010,950000,2,2.0,BURLINGAME,1590,15134,1997,979,597,560,Sold,,,http://www.redfin.com/CA/Burlingame/1499-Oak-Grove-Ave-94010/unit-304/home/1326675,MLSListings,ML81461720,N,Y,37.5787352,-122.3558055
PAST SALE,January-5-2016,Condo/Co-op,30 Lorton #204,BURLINGAME,CA,94010,775000,2,2.0,BURLINGAME,1219,,1986,756,636,540,Sold,,,http://www.redfin.com/CA/Burlingame/30-Lorton-Ave-94010/unit-204/home/1482117,MLSListings,ML81501191,N,Y,37.5763309,-122.3425314
PAST SALE,April-20-2017,Single Family Residential,1116 Oxford Rd,BURLINGAME,CA,94010,2700000,4,3.5,BURLINGAME,2810,5900,1929,285,961,,Sold,,,http://www.redfin.com/CA/Burlingame/1116-Oxford-Rd-94010/home/1935060,MLSListings,ML81643821,N,Y,37.5910141,-122.3737583
PAST SALE,August-1-2017,Single Family Residential,1501 Cypress Ave,BURLINGAME,CA,94010,1610000,4,3.0,BURLINGAME,1810,6300,1916,182,890,,Sold,,,http://www.redfin.com/CA/Burlingame/1501-Cypress-Ave-94010/home/684188,MLSListings,ML81667382,N,Y,37.5746828,-122.3452285
