SALE TYPE,SOLD DATE,PROPERTY TYPE,ADDRESS,CITY,STATE,ZIP,PRICE,BEDS,BATHS,LOCATION,SQUARE FEET,LOT SIZE,YEAR BUILT,DAYS ON MARKET,$/SQUARE FEET,HOA/MONTH,STATUS,NEXT OPEN HOUSE START TIME,NEXT OPEN HOUSE END TIME,URL (SEE http://www.redfin.com/buy-a-home/comparative-market-analysis FOR INFO ON PRICING),SOURCE,MLS#,FAVORITE,INTERESTED,LATITUDE,LONGITUDE
PAST SALE,,Condo/Co-op,185 Union Ave Apt 46,Campbell,CA,95008,405000,1,1.0,,704,,1978,,575,,,,,http://www.redfin.com/CA/Campbell/185-Union-Ave-95008/unit-46/home/1444535,,,N,Y,37.2843317,-121.9357697
PAST SALE,February-23-2017,Condo/Co-op,848 Apricot Ave Unit G,CAMPBELL,CA,95008,495000,1,1.0,CAMPBELL,887,924,1982,341,558,350,Sold,,,http://www.redfin.com/CA/Campbell/848-Apricot-Ave-95008/unit-G/home/825201,MLSListings,ML81635239,N,Y,37.283294,-121.934894
PAST SALE,December-15-2017,Condo/Co-op,325 N 3rd St #2,CAMPBELL,CA,95008,626000,2,1.0,CAMPBELL,903,2000,1971,46,693,230,Sold,,,http://www.redfin.com/CA/Campbell/325-N-3rd-St-95008/unit-2/home/1095720,MLSListings,ML81684085,N,Y,37.2919581,-121.9473956
PAST SALE,,Single Family Residential,90 Jane Ann Way,Campbell,CA,95008,2235000,5,4.0,,3692,10000,2017,,605,,,,,http://www.redfin.com/CA/Campbell/90-Jane-Ann-Way-95008/home/1727207,,,N,Y,37.2855019,-121.9639296
PAST SALE,August-7-2017,Condo/Co-op,3599 S Bascom Ave #48,CAMPBELL,CA,95008,470000,1,1.0,CAMPBELL,746,800,1984,176,630,361,Sold,,,http://www.redfin.com/CA/Campbell/3599-S-Bascom-Ave-95008/unit-48/home/1265129,MLSListings,ML81669901,N,Y,37.2616,-121.947503
PAST SALE,February-7-2017,Single Family Residential,616 Weston Dr,CAMPBELL,CA,95008,1045000,3,1.0,CAMPBELL,1124,6552,1953,357,930,,Sold,,,http://www.redfin.com/CA/Campbell/616-Weston-Dr-95008/home/1431977,MLSListings,ML81636370,N,Y,37.2772515,-121.9788682
PAST SALE,January-17-2018,Single Family Residential,251 N Leigh Ave,CAMPBELL,CA,95008,1260000,3,1.0,CAMPBELL,1680,8239,1925,13,750,,Sold,,,http://www.redfin.com/CA/Campbell/251-N-Leigh-Ave-95008/home/1829319,MLSListings,ML81685508,N,Y,37.2905238,-121.9228992
PAST SALE,,Condo/Co-op,207 Watson Dr Apt 2,Campbell,CA,95008,455000,2,1.0,,903,,1971,,504,,,,,http://www.redfin.com/CA/Campbell/207-Watson-Dr-95008/unit-2/home/1707731,,,N,Y,37.2931022,-121.9468421
PAST SALE,March-8-2016,Single Family Residential,1655 Walters Ave,CAMPBELL,CA,95008,800000,2,1.0,CAMPBELL,528,5404,1935,693,1515,,Sold,,,http://www.redfin.com/CA/Campbell/1655-Walters-Ave-95008/home/1337705,MLSListings,ML81547085,N,Y,37.2677393,-121.9790944
PAST SALE,,Single Family Residential,14101 Capri Dr,Los Gatos,CA,95032,165500,2,1.0,,1136,7560,1949,,146,,,,,http://www.redfin.com/CA/Los-Gatos/14101-Capri-Dr-95032/home/1259560,,,N,Y,37.2639,-121.962931
PAST SALE,May-20-2016,Condo/Co-op,21 N 2nd St #303,CAMPBELL,CA,95008,600000,1,1.0,CAMPBELL,873,570,2007,620,687,316,Sold,,,http://www.redfin.com/CA/Campbell/21-N-2nd-St-95008/unit-303/home/113739127,MLSListings,ML81580984,N,Y,37.2874155,-121.9467052
PAST SALE,October-21-2016,Condo/Co-op,573 Valley Forge Way #1,CAMPBELL,CA,95008,437500,2,1.0,CAMPBELL,840,1750,1964,466,521,275,Sold,,,http://www.redfin.com/CA/Campbell/573-Valley-Forge-Way-95008/unit-1/home/108561143,MLSListings,ML81599761,N,Y,37.297627,-121.960349
PAST SALE,October-21-2016,Single Family Residential,1019 Audrey Ave,CAMPBELL,CA,95008,1098000,3,1.0,CAMPBELL,1392,10950,1947,466,789,,Sold,,,http://www.redfin.com/CA/Campbell/1019-Audrey-Ave-95008/home/819139,MLSListings,ML81614028,N,Y,37.2663299,-121.9663697
PAST SALE,July-22-2016,Condo/Co-op,185 Union Ave #78,CAMPBELL,CA,95008,400000,1,1.0,CAMPBELL,704,704,1978,557,568,303,Sold,,,http://www.redfin.com/CA/Campbell/185-Union-Ave-95008/unit-78/home/826123,MLSListings,ML81591989,N,Y,37.2843317,-121.9357697
PAST SALE,August-31-2017,Townhouse,640 W Sunnyoaks Ave,CAMPBELL,CA,95008,705000,2,1.0,CAMPBELL,948,1820,1978,152,744,269,Sold,,,http://www.redfin.com/CA/Campbell/640-W-Sunnyoaks-Ave-95008/home/1727199,MLSListings,ML81671331,N,Y,37.2719639,-121.960661
PAST SALE,November-14-2017,Single Family Residential,240 Friar Way,CAMPBELL,CA,95008,985000,3,1.0,CAMPBELL,936,6000,1957,77,1052,,Sold,,,http://www.redfin.com/CA/Campbell/240-Friar-Way-95008/home/1789701,MLSListings,ML81682476,N,Y,37.2756115,-121.9536513
PAST SALE,September-27-2017,Condo/Co-op,1359 Phelps Ave #11,SAN JOSE,CA,95117,475000,2,1.0,SAN JOSE,840,840,1963,125,565,287,Sold,,,http://www.redfin.com/CA/San-Jose/1359-Phelps-Ave-95117/unit-11/home/754952,MLSListings,ML81668668,N,Y,37.299867,-121.961933
PAST SALE,September-5-2017,Single Family Residential,115 S 3rd St,CAMPBELL,CA,95008,1280000,2,1.0,CAMPBELL,1080,7650,1900,147,1185,,Sold,,,http://www.redfin.com/CA/Campbell/115-S-3rd-St-95008/home/861971,MLSListings,ML81676777,N,Y,37.285469,-121.9474781
PAST SALE,January-12-2017,Condo/Co-op,576 West Parr Ave #5,LOS GATOS,CA,95032,493000,2,1.0,LOS GATOS,934,,1987,383,528,436,Sold,,,http://www.redfin.com/CA/Los-Gatos/576-W-Parr-Ave-95032/unit-5/home/1767791,MLSListings,ML81633410,N,Y,37.2639008,-121.9636119
PAST SALE,February-3-2017,Condo/Co-op,220 Watson Dr #3,CAMPBELL,CA,95008,500000,2,1.0,CAMPBELL,903,,1971,361,554,240,Sold,,,http://www.redfin.com/CA/Campbell/220-Watson-Dr-95008/unit-3/home/724853,MLSListings,ML81629905,N,Y,37.292724,-121.946412
PAST SALE,July-7-2016,Condo/Co-op,230 Watson Dr #1,CAMPBELL,CA,95008,490000,2,1.0,CAMPBELL,810,2000,1971,572,605,230,Sold,,,http://www.redfin.com/CA/Campbell/230-Watson-Dr-95008/unit-1/home/724856,MLSListings,ML81587414,N,Y,37.292666,-121.9459546
PAST SALE,,Single Family Residential,1107 Bucknam Ave,Campbell,CA,95008,1135000,2,1.0,,1140,9344,1951,,996,,,,,http://www.redfin.com/CA/Campbell/1107-Bucknam-Ave-95008/home/1684845,,,N,Y,37.2715204,-121.968366
PAST SALE,,Single Family Residential,1891 McBain Ave,San Jose,CA,95125,500000,3,1.0,,1066,10125,1950,,469,,,,,http://www.redfin.com/CA/San-Jose/1891-McBain-Ave-95125/home/1544605,,,N,Y,37.2896393,-121.9206132
PAST SALE,November-29-2016,Condo/Co-op,1742 Braddock Ct,SAN JOSE,CA,95125,555000,2,1.0,SAN JOSE,865,1125,1984,427,642,380,Sold,,,http://www.redfin.com/CA/San-Jose/1742-Braddock-Ct-95125/home/754287,MLSListings,ML81615177,N,Y,37.295102,-121.92311
PAST SALE,,Single Family Residential,45 Kennedy Ave,Campbell,CA,95008,1205500,,,,,,,,,,,,,http://www.redfin.com/CA/Campbell/45-Kennedy-Ave-95008/home/108510444,,,N,Y,37.2820979,-121.9490193
PAST SALE,January-24-2017,Townhouse,1435 Woodgrove Sq,SAN JOSE,CA,95117,710000,2,1.0,SAN JOSE,968,1568,1972,371,733,242,Sold,,,http://www.redfin.com/CA/San-Jose/1435-Woodgrove-Sq-95117/home/1545293,MLSListings,ML81632950,N,Y,37.2987691,-121.960195
PAST SALE,,Condo/Co-op,185 Union Ave Apt 55,Campbell,CA,95008,405000,1,1.0,,704,,1978,,575,,,,,http://www.redfin.com/CA/Campbell/185-Union-Ave-95008/unit-55/home/1333637,,,N,Y,37.2843317,-121.9357697
PAST SALE,July-12-2017,Single Family Residential,150 Justo Ct,CAMPBELL,CA,95008,881000,3,1.0,CAMPBELL,936,6000,1957,202,941,,Sold,,,http://www.redfin.com/CA/Campbell/150-Justo-Ct-95008/home/1127616,MLSListings,ML81654502,N,Y,37.2757765,-121.9521332
PAST SALE,April-8-2016,Single Family Residential,1205 Lovell Ave,CAMPBELL,CA,95008,1175000,2,1.0,CAMPBELL,1085,14280,1947,662,1083,,Sold,,,http://www.redfin.com/CA/Campbell/1205-Lovell-Ave-95008/home/1014100,MLSListings,ML81549709,N,Y,37.272754,-121.970798
PAST SALE,May-3-2016,Condo/Co-op,374 Union Ave Unit C,CAMPBELL,CA,95008,459000,1,1.0,CAMPBELL,887,801,1984,637,517,312,Sold,,,http://www.redfin.com/CA/Campbell/374-Union-Ave-95008/unit-C/home/1645649,MLSListings,ML81577361,N,Y,37.281214,-121.935109
PAST SALE,June-9-2016,Condo/Co-op,3423 Wine Cork Way,SAN JOSE,CA,95124,395000,1,1.0,SAN JOSE,508,508,1985,600,778,246,Sold,,,http://www.redfin.com/CA/San-Jose/3423-Wine-Cork-Way-95124/home/872814,MLSListings,ML81581429,N,Y,37.2641354,-121.9417872
PAST SALE,,Single Family Residential,1110 Ridgeley Dr,Campbell,CA,95008,1050000,2,1.0,,1000,8940,1947,,1050,,,,,http://www.redfin.com/CA/Campbell/1110-Ridgeley-Dr-95008/home/1707934,,,N,Y,37.2899339,-121.9298444
PAST SALE,November-3-2016,Single Family Residential,1405 Sharp Ct,CAMPBELL,CA,95008,775000,3,1.0,CAMPBELL,900,9590,1955,453,861,,Sold,,,http://www.redfin.com/CA/Campbell/1405-Sharp-Ct-95008/home/635711,MLSListings,ML81626993,N,Y,37.2667258,-121.9436323
PAST SALE,May-19-2017,Single Family Residential,101 S 4th St,CAMPBELL,CA,95008,1135000,2,1.0,CAMPBELL,1012,9200,1945,256,1122,,Sold,,,http://www.redfin.com/CA/Campbell/101-S-4th-St-95008/home/714623,MLSListings,ML81651732,N,Y,37.2855671,-121.9486963
PAST SALE,,Condo/Co-op,214 Gomes Ct Apt 4,Campbell,CA,95008,171000,2,1.0,,798,,1971,,214,,,,,http://www.redfin.com/CA/Campbell/214-Gomes-Ct-95008/unit-4/home/1529789,,,N,Y,37.2918282,-121.9466218
PAST SALE,January-25-2017,Single Family Residential,192 W Rosemary Ln,CAMPBELL,CA,95008,855000,2,1.0,CAMPBELL,1052,9169,1941,370,813,,Sold,,,http://www.redfin.com/CA/Campbell/192-W-Rosemary-Ln-95008/home/1814740,MLSListings,ML81629761,N,Y,37.294969,-121.9530411
PAST SALE,July-21-2016,Single Family Residential,835 Pollard Rd,LOS GATOS,CA,95032,1260000,2,1.0,LOS GATOS,1040,13939,1940,558,1212,,Sold,,,http://www.redfin.com/CA/Los-Gatos/835-Pollard-Rd-95032/home/819480,MLSListings,ML81564105,N,Y,37.2631652,-121.9708705
PAST SALE,June-28-2017,Single Family Residential,671 Inwood Dr,CAMPBELL,CA,95008,1300000,3,1.0,CAMPBELL,1045,6000,1962,216,1244,,Sold,,,http://www.redfin.com/CA/Campbell/671-Inwood-Dr-95008/home/1616272,MLSListings,ML81654370,N,Y,37.2762495,-121.9746389
PAST SALE,June-2-2017,Townhouse,1411 Pinehurst Sq,SAN JOSE,CA,95117,700000,2,1.0,SAN JOSE,968,1568,1972,242,723,242,Sold,,,http://www.redfin.com/CA/San-Jose/1411-Pinehurst-Sq-95117/home/754261,MLSListings,ML81648213,N,Y,37.299197,-121.961046
PAST SALE,July-27-2017,Single Family Residential,2467 Le Bain Dr,SAN JOSE,CA,95130,1070000,3,1.0,SAN JOSE,1036,5865,1959,187,1033,,Sold,,,http://www.redfin.com/CA/San-Jose/2467-Le-Bain-Dr-95130/home/1838906,MLSListings,ML81668185,N,Y,37.2776061,-121.9823126
PAST SALE,August-9-2017,Condo/Co-op,1373 Phelps Ave #11,SAN JOSE,CA,95117,510000,2,1.0,SAN JOSE,840,840,1963,174,607,287,Sold,,,http://www.redfin.com/CA/San-Jose/1373-Phelps-Ave-95117/unit-11/home/1368953,MLSListings,ML81653728,N,Y,37.2993292,-121.961777
PAST SALE,May-27-2016,Condo/Co-op,1367 Phelps Ave #2,SAN JOSE,CA,95117,410000,2,1.0,SAN JOSE,840,840,1963,613,488,279,Sold,,,http://www.redfin.com/CA/San-Jose/1367-Phelps-Ave-95117/unit-2/home/550520,MLSListings,ML81578592,N,Y,37.2994579,-121.961466
PAST SALE,,Condo/Co-op,1367 Phelps Ave Apt 6,San Jose,CA,95117,400000,2,1.0,,840,,1963,,476,,,,,http://www.redfin.com/CA/San-Jose/1367-Phelps-Ave-95117/unit-6/home/1442696,,,N,Y,37.2994579,-121.961466
PAST SALE,April-5-2016,Condo/Co-op,2785 S Bascom Ave #5,SAN JOSE,CA,95124,385000,1,1.0,SAN JOSE,588,612,1984,665,655,313,Sold,,,http://www.redfin.com/CA/Campbell/2785-S-Bascom-Ave-95008/unit-5/home/1606244,MLSListings,ML81561222,N,Y,37.2712276,-121.9375636
PAST SALE,August-17-2017,Single Family Residential,1658 Beck Dr,SAN JOSE,CA,95130,975000,3,1.0,SAN JOSE,1122,6900,1961,166,869,,Sold,,,http://www.redfin.com/CA/San-Jose/1658-Beck-Dr-95130/home/1442798,MLSListings,ML81670893,N,Y,37.292438,-121.9714395
PAST SALE,,Condo/Co-op,573 Valley Forge Way Apt 1,San Jose,CA,95117,437500,2,1.0,,840,,1964,,521,,,,,http://www.redfin.com/CA/San-Jose/573-Valley-Forge-Way-95117/unit-1/home/754885,,,N,Y,37.297692,-121.96035
PAST SALE,,Condo/Co-op,443 E Latimer Ave Apt 2,Campbell,CA,95008,538000,2,1.0,,903,,1971,,596,,,,,http://www.redfin.com/CA/Campbell/443-E-Latimer-Ave-95008/unit-2/home/1296379,,,N,Y,37.2908966,-121.9444589
PAST SALE,September-26-2016,Single Family Residential,1350 Westmont Ave,CAMPBELL,CA,95008,1000000,3,1.0,CAMPBELL,1096,9339,1943,491,912,,Sold,,,http://www.redfin.com/CA/Campbell/1350-Westmont-Ave-95008/home/1494402,MLSListings,ML81598014,N,Y,37.2717334,-121.9737364
PAST SALE,October-26-2016,Single Family Residential,1536 Capri Dr,CAMPBELL,CA,95008,1125000,3,1.0,CAMPBELL,1168,16700,1952,461,963,,Sold,,,http://www.redfin.com/CA/Campbell/1536-Capri-Dr-95008/home/819113,MLSListings,ML81627896,N,Y,37.2647508,-121.9621919
PAST SALE,October-28-2016,Single Family Residential,1089 Salerno Dr,CAMPBELL,CA,95008,1015000,3,1.0,CAMPBELL,1316,9099,1947,459,771,,Sold,,,http://www.redfin.com/CA/Campbell/1089-Salerno-Dr-95008/home/1203567,MLSListings,ML81613097,N,Y,37.271236,-121.94148
PAST SALE,,Condo/Co-op,1729 Braddock Ct,San Jose,CA,95125,560000,1,1.0,,841,,1984,,666,,,,,http://www.redfin.com/CA/San-Jose/1729-Braddock-Ct-95125/home/730759,,,N,Y,37.294792,-121.923666
PAST SALE,November-13-2017,Single Family Residential,220 Friar Way,CAMPBELL,CA,95008,1150000,3,1.0,CAMPBELL,1503,6180,1957,78,765,,Sold,,,http://www.redfin.com/CA/Campbell/220-Friar-Way-95008/home/1847121,MLSListings,ML81680176,N,Y,37.275616,-121.9532282
PAST SALE,April-20-2016,Single Family Residential,1394 Walnut Dr,CAMPBELL,CA,95008,1010000,3,1.0,CAMPBELL,1070,7749,1949,650,944,,Sold,,,http://www.redfin.com/CA/Campbell/1394-Walnut-Dr-95008/home/1494486,MLSListings,ML81562825,N,Y,37.2661443,-121.9596414
PAST SALE,June-8-2017,Condo/Co-op,866 Apricot Ave Unit B,CAMPBELL,CA,95008,570000,1,1.0,CAMPBELL,887,924,1982,236,643,340,Sold,,,http://www.redfin.com/CA/Campbell/866-Apricot-Ave-95008/unit-B/home/569922,MLSListings,ML81652551,N,Y,37.282981,-121.933724
PAST SALE,January-30-2017,Condo/Co-op,21 N 2nd St #311,CAMPBELL,CA,95008,575000,1,1.0,CAMPBELL,838,570,2007,365,686,373,Sold,,,http://www.redfin.com/CA/Campbell/21-N-2nd-St-95008/unit-311/home/17291609,MLSListings,ML81632640,N,Y,37.2874155,-121.9467052
PAST SALE,October-31-2017,Condo/Co-op,208 Watson Dr #2,CAMPBELL,CA,95008,622500,2,1.0,CAMPBELL,903,2000,1971,91,689,230,Sold,,,http://www.redfin.com/CA/Campbell/208-Watson-Dr-95008/unit-2/home/1263771,MLSListings,ML81678794,N,Y,37.2926684,-121.9468377
PAST SALE,December-1-2017,Condo/Co-op,848 Apricot Ave Unit B,CAMPBELL,CA,95008,610000,1,1.0,CAMPBELL,887,,1982,60,688,340,Sold,,,http://www.redfin.com/CA/Campbell/848-Apricot-Ave-95008/unit-B/home/1427533,MLSListings,ML81682891,N,Y,37.283294,-121.934894
PAST SALE,November-14-2016,Condo/Co-op,1756 Braddock Ct,SAN JOSE,CA,95125,425000,1,1.0,SAN JOSE,688,975,1981,442,618,380,Sold,,,http://www.redfin.com/CA/San-Jose/1756-Braddock-Ct-95125/home/1738593,MLSListings,ML81626319,N,Y,37.295479,-121.923684
PAST SALE,March-21-2017,Condo/Co-op,1765 Braddock Ct,SAN JOSE,CA,95125,579000,2,1.0,SAN JOSE,841,1056,1981,315,688,405,Sold,,,http://www.redfin.com/CA/San-Jose/1765-Braddock-Ct-95125/home/549834,MLSListings,ML81639812,N,Y,37.295705,-121.923444
PAST SALE,August-25-2017,Other,1445 Westmont Ave,CAMPBELL,CA,95008,3725000,,,CAMPBELL,,54013,,158,,,Sold,,,http://www.redfin.com/CA/Campbell/1445-Westmont-Ave-95008/home/1799770,MLSListings,ML81670434,N,Y,37.2719845,-121.9756566
PAST SALE,August-18-2017,Condo/Co-op,1735 Braddock Ct,SAN JOSE,CA,95125,567000,1,1.0,SAN JOSE,841,1125,1984,165,674,405,Sold,,,http://www.redfin.com/CA/San-Jose/1735-Braddock-Ct-95125/unit-79/home/1474922,MLSListings,ML81667885,N,Y,37.294789,-121.923406
PAST SALE,June-23-2017,Condo/Co-op,1749 Braddock Ct,SAN JOSE,CA,95125,550000,1,1.0,SAN JOSE,841,1125,1984,221,654,405,Sold,,,http://www.redfin.com/CA/San-Jose/1749-Braddock-Ct-95125/home/1059904,MLSListings,ML81651151,N,Y,37.295312,-121.923114
PAST SALE,October-7-2016,Single Family Residential,1606 Phantom Ave,SAN JOSE,CA,95125,917000,3,1.0,SAN JOSE,1372,8058,1946,480,668,,Sold,,,http://www.redfin.com/CA/San-Jose/1606-Phantom-Ave-95125/home/581069,MLSListings,ML81614154,N,Y,37.2953506,-121.9195515
PAST SALE,May-15-2017,Condo/Co-op,234 Gomes Ct #2,CAMPBELL,CA,95008,560000,2,1.0,CAMPBELL,903,2000,1971,260,620,230,Sold,,,http://www.redfin.com/CA/Campbell/234-Gomes-Ct-95008/unit-2/home/724839,MLSListings,ML81644558,N,Y,37.2918192,-121.9463973
PAST SALE,September-30-2016,Condo/Co-op,225 Gomes Ct #2,CAMPBELL,CA,95008,500000,2,1.0,CAMPBELL,903,1999,1971,487,554,230,Sold,,,http://www.redfin.com/CA/Campbell/225-Gomes-Ct-95008/unit-2/home/723442,MLSListings,ML81599018,N,Y,37.2922505,-121.9466299
PAST SALE,July-6-2016,Condo/Co-op,304 N 3rd St #2,CAMPBELL,CA,95008,542200,2,1.0,CAMPBELL,903,,1971,573,600,230,Sold,,,http://www.redfin.com/CA/Campbell/304-N-3rd-St-95008/unit-2/home/1139538,MLSListings,ML81588886,N,Y,37.2911751,-121.9468025
PAST SALE,,Condo/Co-op,3593 S Bascom Ave Apt 22,Campbell,CA,95008,506500,2,1.0,,908,,1984,,558,,,,,http://www.redfin.com/CA/Campbell/3593-S-Bascom-Ave-95008/unit-22/home/830931,,,N,Y,37.2616446,-121.946466
PAST SALE,November-4-2016,Condo/Co-op,374 Union Ave Unit A,CAMPBELL,CA,95008,482000,1,1.0,CAMPBELL,887,801,1984,452,543,312,Sold,,,http://www.redfin.com/CA/Campbell/374-Union-Ave-95008/unit-A/home/1384644,MLSListings,ML81614084,N,Y,37.281214,-121.935109
PAST SALE,April-14-2017,Single Family Residential,171 Bland Ave,CAMPBELL,CA,95008,1000000,3,1.0,CAMPBELL,1225,8250,1950,291,816,,Sold,,,http://www.redfin.com/CA/Campbell/171-Bland-Ave-95008/home/1280971,MLSListings,ML81642251,N,Y,37.2895306,-121.9544235
PAST SALE,,Single Family Residential,387 N Milton Ave,Campbell,CA,95008,1051000,2,1.0,,849,12852,1950,,1238,,,,,http://www.redfin.com/CA/Campbell/387-N-Milton-Ave-95008/home/754068,,,N,Y,37.2926388,-121.9552652
PAST SALE,March-28-2017,Condo/Co-op,576 W Parr Ave #4,LOS GATOS,CA,95032,505000,2,1.0,LOS GATOS,934,1587,1987,308,541,436,Sold,,,http://www.redfin.com/CA/Los-Gatos/576-W-Parr-Ave-95032/unit-4/home/1755611,MLSListings,ML81641227,N,Y,37.2639008,-121.9636119
PAST SALE,December-9-2016,Condo/Co-op,265 Gomes Ct #3,CAMPBELL,CA,95008,464888,2,1.0,CAMPBELL,903,1999,1971,417,515,230,Sold,,,http://www.redfin.com/CA/Campbell/265-Gomes-Ct-95008/unit-3/home/1502374,MLSListings,ML81628666,N,Y,37.2922571,-121.945737
PAST SALE,,Single Family Residential,1252 Walnut Dr,Campbell,CA,95008,1250000,3,1.0,,1463,18730,1954,,854,,,,,http://www.redfin.com/CA/Campbell/1252-Walnut-Dr-95008/home/1636833,,,N,Y,37.2682896,-121.9586612
PAST SALE,,Condo/Co-op,3586 Payne Ave Apt 4,San Jose,CA,95117,102500,2,1.0,,910,,1963,,113,,,,,http://www.redfin.com/CA/San-Jose/3586-Payne-Ave-95117/unit-4/home/1859426,,,N,Y,37.299771,-121.962429
PAST SALE,February-18-2016,Single Family Residential,1639 Walters Ave,CAMPBELL,CA,95008,900000,2,1.0,CAMPBELL,600,7811,1900,712,1500,,Sold,,,http://www.redfin.com/CA/Campbell/1639-Walters-Ave-95008/home/830629,MLSListings,ML81547087,N,Y,37.267694,-121.978827
PAST SALE,April-29-2016,Condo/Co-op,2873 S Bascom Ave #201,SAN JOSE,CA,95124,400000,1,1.0,SAN JOSE,648,779,1984,641,617,340,Sold,,,http://www.redfin.com/CA/Campbell/2873-S-Bascom-Ave-95008/unit-201/home/827196,MLSListings,ML81565263,N,Y,37.270466,-121.937796
PAST SALE,March-3-2017,Single Family Residential,207 S Leigh Ave,CAMPBELL,CA,95008,875000,2,1.0,CAMPBELL,1005,7209,1940,333,871,,Sold,,,http://www.redfin.com/CA/Campbell/207-S-Leigh-Ave-95008/home/1720588,MLSListings,ML81636913,N,Y,37.2837832,-121.9227765
PAST SALE,October-11-2016,Condo/Co-op,309 N 3rd St #4,CAMPBELL,CA,95008,430000,2,1.0,CAMPBELL,798,1999,1971,476,539,230,Sold,,,http://www.redfin.com/CA/Campbell/309-N-3rd-St-95008/unit-4/home/1645211,MLSListings,ML81611818,N,Y,37.291395,-121.94729
PAST SALE,August-10-2016,Condo/Co-op,3599 S Bascom Ave #47,CAMPBELL,CA,95008,440000,1,1.0,CAMPBELL,746,801,1984,538,590,361,Sold,,,http://www.redfin.com/CA/Campbell/3599-S-Bascom-Ave-95008/unit-47/home/1457360,MLSListings,ML81591105,N,Y,37.2616,-121.947503
PAST SALE,,Condo/Co-op,3595 S Bascom Ave Apt 27,Campbell,CA,95008,390000,1,1.0,,742,,1984,,526,,,,,http://www.redfin.com/CA/Campbell/3595-S-Bascom-Ave-95008/unit-27/home/829380,,,N,Y,37.2617161,-121.9468655
PAST SALE,,Single Family Residential,514 Sunnybrook Dr,Campbell,CA,95008,331000,3,1.0,,850,8001,1953,,389,,,,,http://www.redfin.com/CA/Campbell/514-Sunnybrook-Dr-95008/home/818141,,,N,Y,37.2800389,-121.9587794
PAST SALE,February-3-2017,Condo/Co-op,561 Valley Forge Way #4,CAMPBELL,CA,95008,450000,2,1.0,CAMPBELL,840,1750,1964,361,536,275,Sold,,,http://www.redfin.com/CA/Campbell/561-Valley-Forge-Way-95008/unit-4/home/110009306,MLSListings,ML81631873,N,Y,37.297612,-121.960163
PAST SALE,July-7-2017,Vacant Land,1180 Abbott Ave,CAMPBELL,CA,95008,5100000,,,CAMPBELL,,92978,,207,,,Sold,,,http://www.redfin.com/CA/Campbell/1180-Abbott-Ave-95008/home/1431853,MLSListings,ML81592326,N,Y,37.2699916,-121.9757505
PAST SALE,,Condo/Co-op,3485 Wine Barrel Way,San Jose,CA,95124,545000,2,1.0,,868,,1985,,628,,,,,http://www.redfin.com/CA/San-Jose/3485-Wine-Barrel-Way-95124/home/1050045,,,N,Y,37.2639886,-121.9423959
PAST SALE,August-25-2016,Condo/Co-op,257 Watson Dr #4,CAMPBELL,CA,95008,490000,2,1.0,CAMPBELL,798,2000,1971,523,614,230,Sold,,,http://www.redfin.com/CA/Campbell/257-Watson-Dr-95008/unit-4/home/1829099,MLSListings,ML81595049,N,Y,37.2931076,-121.9452796
PAST SALE,,Single Family Residential,1236 E Campbell Ave,Campbell,CA,95008,522000,2,1.0,,1254,10650,1950,,416,,,,,http://www.redfin.com/CA/Campbell/1236-E-Campbell-Ave-95008/home/1492418,,,N,Y,37.2866682,-121.9275557
PAST SALE,March-9-2017,Condo/Co-op,236 Watson Dr #2,CAMPBELL,CA,95008,540000,2,1.0,CAMPBELL,903,2000,1971,327,598,230,Sold,,,http://www.redfin.com/CA/Campbell/236-Watson-Dr-95008/unit-2/home/723487,MLSListings,ML81638743,N,Y,37.2926627,-121.9457357
PAST SALE,,Single Family Residential,120 N 3rd St,Campbell,CA,95008,1450000,2,1.0,,850,15000,1941,,1706,,,,,http://www.redfin.com/CA/Campbell/120-N-3rd-St-95008/home/723992,,,N,Y,37.2888046,-121.9472352
PAST SALE,,Condo/Co-op,343 E Latimer Ave Apt 2,Campbell,CA,95008,593500,2,1.0,,903,,1971,,657,,,,,http://www.redfin.com/CA/Campbell/343-E-Latimer-Ave-95008/unit-2/home/1098203,,,N,Y,37.2908983,-121.9455922
PAST SALE,December-5-2017,Townhouse,151 Heritage Pl,CAMPBELL,CA,95008,900000,2,1.0,CAMPBELL,1136,1721,2004,56,792,215,Sold,,,http://www.redfin.com/CA/Campbell/151-Heritage-Pl-95008/home/910006,MLSListings,ML81683445,N,Y,37.2858203,-121.9409913
PAST SALE,August-17-2017,Single Family Residential,1128 Shamrock Dr,CAMPBELL,CA,95008,1060000,2,1.0,CAMPBELL,1160,10070,1947,166,914,,Sold,,,http://www.redfin.com/CA/Campbell/1128-Shamrock-Dr-95008/home/1755896,MLSListings,ML81668063,N,Y,37.2706432,-121.9446267
PAST SALE,,Condo/Co-op,215 Gomes Ct Apt 2,Campbell,CA,95008,565000,2,1.0,,903,,1971,,626,,,,,http://www.redfin.com/CA/Campbell/215-Gomes-Ct-95008/unit-2/home/1283171,,,N,Y,37.2922599,-121.9468487
PAST SALE,October-26-2017,Single Family Residential,256 Beverly Ct,CAMPBELL,CA,95008,1070000,3,1.0,CAMPBELL,1125,6120,1955,96,951,,Sold,,,http://www.redfin.com/CA/Campbell/256-Beverly-Ct-95008/home/1359917,MLSListings,ML81678702,N,Y,37.2831388,-121.9640156
PAST SALE,October-6-2017,Condo/Co-op,576 W Parr Ave #10,LOS GATOS,CA,95032,575000,2,1.0,LOS GATOS,934,1587,1987,116,616,436,Sold,,,http://www.redfin.com/CA/Los-Gatos/576-W-Parr-Ave-95032/unit-10/home/1778505,MLSListings,ML81679631,N,Y,37.2639008,-121.9636119
PAST SALE,March-3-2017,Condo/Co-op,341 N 1st St #4,CAMPBELL,CA,95008,495000,2,1.0,CAMPBELL,798,2000,1971,333,620,240,Sold,,,http://www.redfin.com/CA/Campbell/341-N-1st-St-95008/unit-4/home/1497289,MLSListings,ML81637718,N,Y,37.2919467,-121.944977
PAST SALE,,Single Family Residential,1089 Fewtrell Dr,Campbell,CA,95008,905000,2,1.0,,1112,8160,1947,,814,,,,,http://www.redfin.com/CA/Campbell/1089-Fewtrell-Dr-95008/home/730370,,,N,Y,37.2880443,-121.9301543
PAST SALE,January-27-2017,Condo/Co-op,576 W Parr Ave #11,LOS GATOS,CA,95032,500000,2,1.0,LOS GATOS,934,1585,1987,368,535,423,Sold,,,http://www.redfin.com/CA/Los-Gatos/576-W-Parr-Ave-95032/unit-11/home/773138,MLSListings,ML81629660,N,Y,37.2639008,-121.9636119
PAST SALE,October-6-2016,Condo/Co-op,320 N First St #2,CAMPBELL,CA,95008,495000,2,1.0,CAMPBELL,903,2000,1971,481,548,235,Sold,,,http://www.redfin.com/CA/Campbell/320-N-1st-St-95008/unit-2/home/724719,MLSListings,ML81592667,N,Y,37.2915733,-121.9444211
PAST SALE,March-15-2016,Condo/Co-op,185 Union Ave #18,CAMPBELL,CA,95008,400900,1,1.0,CAMPBELL,704,704,1978,686,569,297,Sold,,,http://www.redfin.com/CA/Campbell/185-Union-Ave-95008/unit-18/home/1127897,MLSListings,ML81563852,N,Y,37.2843317,-121.9357697
PAST SALE,May-5-2016,Condo/Co-op,185 Union Ave #9,CAMPBELL,CA,95008,410000,1,1.0,CAMPBELL,704,705,1978,635,582,303,Sold,,,http://www.redfin.com/CA/Campbell/185-Union-Ave-95008/unit-9/home/1517455,MLSListings,ML81564999,N,Y,37.2843317,-121.9357697
PAST SALE,,Condo/Co-op,263 E Latimer Ave Apt 2,Campbell,CA,95008,550000,2,1.0,,903,,1971,,609,,,,,http://www.redfin.com/CA/Campbell/263-E-Latimer-Ave-95008/unit-2/home/1564162,,,N,Y,37.2908957,-121.9464967
PAST SALE,April-14-2016,Condo/Co-op,3597 Bascom Ave #40,CAMPBELL,CA,95008,400000,1,1.0,CAMPBELL,742,800,1984,656,539,361,Sold,,,http://www.redfin.com/CA/Campbell/3597-S-Bascom-Ave-95008/unit-40/home/635726,MLSListings,ML81563175,N,Y,37.261634,-121.9472543
PAST SALE,April-29-2016,Townhouse,5078 Pinetree Ter,CAMPBELL,CA,95008,611000,2,1.0,CAMPBELL,920,1711,1973,641,664,315,Sold,,,http://www.redfin.com/CA/Campbell/5078-Pinetree-Ter-95008/home/1285644,MLSListings,ML81566417,N,Y,37.270355278,-121.9901229
PAST SALE,December-23-2016,Condo/Co-op,185 Union Ave #91,CAMPBELL,CA,95008,390000,1,1.0,CAMPBELL,704,705,1978,403,554,303,Sold,,,http://www.redfin.com/CA/Campbell/185-Union-Ave-95008/unit-91/home/826140,MLSListings,ML81630619,N,Y,37.2843317,-121.9357697
PAST SALE,January-12-2018,Condo/Co-op,2857 S Bascom Ave #101,SAN JOSE,CA,95124,446000,1,1.0,SAN JOSE,668,780,1984,18,668,375,Sold,,,http://www.redfin.com/CA/San-Jose/2857-S-Bascom-Ave-95124/unit-101/home/827184,MLSListings,ML81684423,N,Y,37.270769,-121.937645
PAST SALE,April-21-2017,Condo/Co-op,1771 Braddock Ct,SAN JOSE,CA,95125,560000,1,1.0,SAN JOSE,841,1056,1981,284,666,405,Sold,,,http://www.redfin.com/CA/San-Jose/1771-Braddock-Ct-95125/home/1296560,MLSListings,ML81643661,N,Y,37.295707,-121.923162
PAST SALE,December-27-2017,Condo/Co-op,263 E Latimer Ave #3,CAMPBELL,CA,95008,622000,2,1.0,CAMPBELL,903,449,1971,34,689,230,Sold,,,http://www.redfin.com/CA/Campbell/263-E-Latimer-Ave-95008/unit-3/home/1378335,MLSListings,ML81685655,N,Y,37.2908957,-121.9464967
PAST SALE,,Condo/Co-op,561 Valley Forge Way,Campbell,CA,95008,450000,2,1.0,,840,,1964,,536,,,,,http://www.redfin.com/CA/Campbell/561-Valley-Forge-Way-95008/home/1493066,,,N,Y,37.297612,-121.960163
PAST SALE,September-16-2016,Single Family Residential,540 Sunnybrook Dr,CAMPBELL,CA,95008,854000,3,1.0,CAMPBELL,1135,8001,1953,501,752,,Sold,,,http://www.redfin.com/CA/Campbell/540-Sunnybrook-Dr-95008/home/818253,MLSListings,ML81594690,N,Y,37.2800094,-121.9592142
PAST SALE,,Single Family Residential,1022 Erin Way,Campbell,CA,95008,1047000,3,1.0,,1453,8100,1947,,721,,,,,http://www.redfin.com/CA/Campbell/1022-Erin-Way-95008/home/1049995,,,N,Y,37.2722557,-121.9431424
PAST SALE,December-15-2017,Condo/Co-op,185 Union Ave #32,CAMPBELL,CA,95008,508000,1,1.0,CAMPBELL,704,704,1978,46,722,330,Sold,,,http://www.redfin.com/CA/Campbell/185-Union-Ave-95008/unit-32/home/826085,MLSListings,ML81684617,N,Y,37.2843317,-121.9357697
PAST SALE,November-1-2016,Condo/Co-op,576 W Parr Ave #14,LOS GATOS,CA,95032,465000,1,1.0,LOS GATOS,920,1587,1987,455,505,422,Sold,,,http://www.redfin.com/CA/Los-Gatos/576-W-Parr-Ave-95032/unit-14/home/599013,MLSListings,ML81615124,N,Y,37.2639008,-121.9636119
PAST SALE,November-14-2016,Condo/Co-op,300 Union Ave #2,CAMPBELL,CA,95008,440000,1,1.0,CAMPBELL,621,621,1979,442,709,258,Sold,,,http://www.redfin.com/CA/Campbell/300-Union-Ave-95008/unit-2/home/827849,MLSListings,ML81614060,N,Y,37.282469,-121.935215
PAST SALE,February-15-2017,Condo/Co-op,185 Union Ave #11,CAMPBELL,CA,95008,403000,1,1.0,CAMPBELL,704,704,1978,349,572,310,Sold,,,http://www.redfin.com/CA/Campbell/185-Union-Ave-95008/unit-11/home/1402639,MLSListings,ML81635491,N,Y,37.2843317,-121.9357697
PAST SALE,June-8-2017,Single Family Residential,931 Harrison Ave,CAMPBELL,CA,95008,1052500,3,1.0,CAMPBELL,1332,10000,1952,236,790,,Sold,,,http://www.redfin.com/CA/Campbell/931-Harrison-Ave-95008/home/721789,MLSListings,ML81651877,N,Y,37.3006983,-121.9427599
PAST SALE,April-7-2016,Single Family Residential,318 Harrison Ave,CAMPBELL,CA,95008,1025000,2,1.0,CAMPBELL,1018,7618,1939,663,1007,,Sold,,,http://www.redfin.com/CA/Campbell/318-Harrison-Ave-95008/home/1514976,MLSListings,ML81564132,N,Y,37.2917556,-121.9423129
PAST SALE,September-1-2017,Single Family Residential,1197 Lovell Ave,CAMPBELL,CA,95008,1340000,2,1.0,CAMPBELL,1068,14280,1947,151,1255,,Sold,,,http://www.redfin.com/CA/Campbell/1197-Lovell-Ave-95008/home/1663759,MLSListings,ML81647912,N,Y,37.2725975,-121.9705946
PAST SALE,,Condo/Co-op,21 N 2nd St Unit 303,Campbell,CA,95008,600000,1,1.0,,873,,2007,,687,,,,,http://www.redfin.com/CA/Campbell/21-N-2nd-St-95008/unit-303/home/17289185,,,N,Y,37.2874155,-121.9467052
PAST SALE,,Condo/Co-op,255 Gomes Ct Apt 1,Campbell,CA,95008,500000,2,1.0,,810,,1971,,617,,,,,http://www.redfin.com/CA/Campbell/255-Gomes-Ct-95008/unit-1/home/1579239,,,N,Y,37.2922475,-121.9459854
PAST SALE,July-25-2016,Condo/Co-op,185 Union Ave #25,CAMPBELL,CA,95008,425000,1,1.0,CAMPBELL,704,705,1978,554,604,303,Sold,,,http://www.redfin.com/CA/Campbell/185-Union-Ave-95008/unit-25/home/1026812,MLSListings,ML81591804,N,Y,37.2843317,-121.9357697
PAST SALE,,Condo/Co-op,866 Apricot Ave Apt A,Campbell,CA,95008,73500,1,1.0,,887,,1982,,83,,,,,http://www.redfin.com/CA/Campbell/866-Apricot-Ave-95008/unit-A/home/825177,,,N,Y,37.282981,-121.933724
PAST SALE,April-21-2017,Single Family Residential,20 Alice Ave,CAMPBELL,CA,95008,956000,2,1.0,CAMPBELL,910,7340,1939,284,1051,,Sold,,,http://www.redfin.com/CA/Campbell/20-Alice-Ave-95008/home/824883,MLSListings,ML81644282,N,Y,37.2836925,-121.949465
PAST SALE,December-6-2016,Condo/Co-op,111 W Rincon Ave,CAMPBELL,CA,95008,650007,2,1.0,CAMPBELL,949,1752,1976,420,685,321,Sold,,,http://www.redfin.com/CA/Campbell/111-W-Rincon-Ave-95008/home/1177858,MLSListings,ML81631601,N,Y,37.2851491,-121.9518456
PAST SALE,April-11-2017,Condo/Co-op,363 E Latimer Ave #4,CAMPBELL,CA,95008,485000,2,1.0,CAMPBELL,798,2000,1971,294,608,230,Sold,,,http://www.redfin.com/CA/Campbell/363-E-Latimer-Ave-95008/unit-4/home/549659,MLSListings,ML81638191,N,Y,37.2909307,-121.9453532
PAST SALE,May-18-2017,Condo/Co-op,208 Watson Dr #3,CAMPBELL,CA,95008,555000,2,1.0,CAMPBELL,903,2000,1971,257,615,230,Sold,,,http://www.redfin.com/CA/Campbell/208-Watson-Dr-95008/unit-3/home/1497242,MLSListings,ML81646283,N,Y,37.2926684,-121.9468377
PAST SALE,December-7-2016,Single Family Residential,940 Crockett Ave,CAMPBELL,CA,95008,1000000,2,1.0,CAMPBELL,910,10715,1960,419,1099,,Sold,,,http://www.redfin.com/CA/Campbell/940-Crockett-Ave-95008/home/1121883,MLSListings,ML81580869,N,Y,37.2734807,-121.9730446
PAST SALE,May-23-2017,Single Family Residential,1389 Munro Ave,CAMPBELL,CA,95008,950000,2,1.0,CAMPBELL,1105,7380,1943,252,860,,Sold,,,http://www.redfin.com/CA/Campbell/1389-Munro-Ave-95008/home/1234817,MLSListings,ML81641080,N,Y,37.2710241,-121.9744574
PAST SALE,September-22-2017,Single Family Residential,1194 Holmes Ave Ave,CAMPBELL,CA,95008,1050000,3,1.0,CAMPBELL,1072,8190,1955,130,979,,Sold,,,http://www.redfin.com/CA/Campbell/1194-Holmes-Ave-95008/home/1645933,MLSListings,ML81670646,N,Y,37.2574956,-121.9510152
PAST SALE,May-28-2017,Single Family Residential,626 Weston Dr,CAMPBELL,CA,95008,985000,3,1.0,CAMPBELL,1080,6552,1953,247,912,,Sold,,,http://www.redfin.com/CA/Campbell/626-Weston-Dr-95008/home/815752,MLSListings,ML81653506,N,Y,37.2771058,-121.9789008
PAST SALE,May-12-2017,Condo/Co-op,2867 S Bascom Ave #606,SAN JOSE,CA,95124,410000,1,1.0,SAN JOSE,668,780,1984,263,614,375,Sold,,,http://www.redfin.com/CA/Campbell/2867-S-Bascom-Ave-95008/unit-606/home/828688,MLSListings,ML81644423,N,Y,37.270532,-121.938332
PAST SALE,February-10-2017,Condo/Co-op,1729 Braddock Ct #85,SAN JOSE,CA,95125,559999,1,1.0,SAN JOSE,841,1125,1984,354,666,380,Sold,,,http://www.redfin.com/CA/San-Jose/1729-Braddock-Ct-95125/unit-85/home/109233610,MLSListings,ML81635615,N,Y,37.294792,-121.923666
PAST SALE,September-30-2016,Condo/Co-op,365 N 3rd St #2,CAMPBELL,CA,95008,520000,2,1.0,CAMPBELL,903,2000,1971,487,576,230,Sold,,,http://www.redfin.com/CA/Campbell/365-N-3rd-St-95008/unit-2/home/1148743,MLSListings,ML81601251,N,Y,37.2926746,-121.9474034
PAST SALE,March-11-2016,Condo/Co-op,1758 Braddock Ct,SAN JOSE,CA,95125,438000,1,1.0,SAN JOSE,688,975,1981,690,637,378,Sold,,,http://www.redfin.com/CA/San-Jose/1758-Braddock-Ct-95125/home/1283360,MLSListings,ML81546266,N,Y,37.295566,-121.923683
PAST SALE,,Single Family Residential,1286 Munro Ave,Campbell,CA,95008,885000,2,1.0,,932,8424,1940,,950,,,,,http://www.redfin.com/CA/Campbell/1286-Munro-Ave-95008/home/814486,,,N,Y,37.2708294,-121.9724964
PAST SALE,February-26-2016,Single Family Residential,170 Virginia Ave,CAMPBELL,CA,95008,970000,3,1.0,CAMPBELL,1059,10507,1951,704,916,,Sold,,,http://www.redfin.com/CA/Campbell/170-Virginia-Ave-95008/home/802195,MLSListings,ML81546386,N,Y,37.2845238,-121.9617323
PAST SALE,,Condo/Co-op,185 Union Ave Apt 13,Campbell,CA,95008,405000,1,1.0,,704,,1978,,575,,,,,http://www.redfin.com/CA/Campbell/185-Union-Ave-95008/unit-13/home/826074,,,N,Y,37.2843317,-121.9357697
PAST SALE,October-7-2016,Condo/Co-op,185 Union Ave #31,CAMPBELL,CA,95008,502000,3,1.0,CAMPBELL,1093,705,1978,480,459,303,Sold,,,http://www.redfin.com/CA/Campbell/185-Union-Ave-95008/unit-31/home/830903,MLSListings,ML81598653,N,Y,37.2843317,-121.9357697
PAST SALE,February-8-2017,Condo/Co-op,3429 Wine Cork Way,SAN JOSE,CA,95124,499000,2,1.0,SAN JOSE,868,840,1985,356,575,276,Sold,,,http://www.redfin.com/CA/San-Jose/3429-Wine-Cork-Way-95124/home/1265061,MLSListings,ML81638334,N,Y,37.2640137,-121.9418053
PAST SALE,February-16-2017,Single Family Residential,275 S San Tomas Aquino Rd,CAMPBELL,CA,95008,1350000,3,1.0,CAMPBELL,1095,11250,1950,348,1233,,Sold,,,http://www.redfin.com/CA/Campbell/275-S-San-Tomas-Aquino-Rd-95008/home/1184220,MLSListings,ML81637712,N,Y,37.280284,-121.977718
PAST SALE,May-19-2016,Condo/Co-op,607 Valley Forge Way #2,SAN JOSE,CA,95117,439000,2,1.0,SAN JOSE,840,1750,1964,621,523,275,Sold,,,http://www.redfin.com/CA/San-Jose/607-Valley-Forge-Way-95117/unit-2/home/113738358,MLSListings,ML81550545,N,Y,37.2977172,-121.9610675
PAST SALE,,Townhouse,114 Salice Way,Campbell,CA,95008,570000,2,1.0,,949,1752,1976,,601,,,,,http://www.redfin.com/CA/Campbell/114-Salice-Way-95008/home/753701,,,N,Y,37.2859153,-121.9517062
PAST SALE,October-3-2016,Condo/Co-op,576 W Parr Ave #21,LOS GATOS,CA,95032,469999,2,1.0,LOS GATOS,934,1585,1987,484,503,423,Sold,,,http://www.redfin.com/CA/Los-Gatos/576-W-Parr-Ave-95032/unit-21/home/973353,MLSListings,ML81596077,N,Y,37.2639008,-121.9636119
PAST SALE,,Single Family Residential,920 S McGlincy Ln,Campbell,CA,95008,1515000,3,1.0,,1052,18000,1947,,1440,,,,,http://www.redfin.com/CA/Campbell/920-S-McGlincy-Ln-95008/home/1741008,,,N,Y,37.2738311,-121.9448726
PAST SALE,April-19-2017,Single Family Residential,4475 Madoc Way,SAN JOSE,CA,95130,1180000,3,1.0,SAN JOSE,1036,5974,1959,286,1139,,Sold,,,http://www.redfin.com/CA/San-Jose/4475-Madoc-Way-95130/home/813197,MLSListings,ML81643079,N,Y,37.2822372,-121.9810108
PAST SALE,November-10-2017,Single Family Residential,1250 Hoffman Ln,CAMPBELL,CA,95008,1050000,2,1.0,CAMPBELL,1136,12792,1964,81,924,,Sold,,,http://www.redfin.com/CA/Campbell/1250-Hoffman-Ln-95008/home/599225,MLSListings,ML81680893,N,Y,37.2686182,-121.9453434
PAST SALE,December-5-2017,Single Family Residential,1408 Burrows Rd,CAMPBELL,CA,95008,1500000,3,1.0,CAMPBELL,1295,10437,1946,56,1158,,Sold,,,http://www.redfin.com/CA/Campbell/1408-Burrows-Rd-95008/home/818757,MLSListings,ML81684043,N,Y,37.2666762,-121.9725964
PAST SALE,May-25-2017,Condo/Co-op,308 N 3rd St #1,CAMPBELL,CA,95008,546000,2,1.0,CAMPBELL,810,2000,1971,250,674,230,Sold,,,http://www.redfin.com/CA/Campbell/308-N-3rd-St-95008/unit-1/home/1672773,MLSListings,ML81646841,N,Y,37.2913487,-121.9467903
PAST SALE,,Condo/Co-op,335 N 3rd St Apt 2,Campbell,CA,95008,450000,2,1.0,,903,,1971,,498,,,,,http://www.redfin.com/CA/Campbell/335-N-3rd-St-95008/unit-2/home/566714,,,N,Y,37.292127,-121.947287
PAST SALE,October-24-2017,Single Family Residential,605 Weston Dr,CAMPBELL,CA,95008,1420000,3,1.0,CAMPBELL,1080,6552,1953,98,1315,,Sold,,,http://www.redfin.com/CA/Campbell/605-Weston-Dr-95008/home/1472602,MLSListings,ML81677880,N,Y,37.2773888,-121.9794686
PAST SALE,,Condo/Co-op,1369 Phelps Ave Apt 2,San Jose,CA,95117,410000,2,1.0,,840,,1963,,488,,,,,http://www.redfin.com/CA/San-Jose/1369-Phelps-Ave-95117/unit-2/home/1621862,,,N,Y,37.2993189,-121.962552
PAST SALE,April-29-2016,Condo/Co-op,311 N 2nd St #3,CAMPBELL,CA,95008,530000,2,1.0,CAMPBELL,903,2008,1971,641,587,230,Sold,,,http://www.redfin.com/CA/Campbell/311-N-2nd-St-95008/unit-3/home/1104775,MLSListings,ML81562322,N,Y,37.291352,-121.946207
PAST SALE,March-23-2017,Condo/Co-op,230 Watson Dr #4,CAMPBELL,CA,95008,475000,2,1.0,CAMPBELL,798,2000,1971,313,595,240,Sold,,,http://www.redfin.com/CA/Campbell/230-Watson-Dr-95008/unit-4/home/1436841,MLSListings,ML81639505,N,Y,37.292666,-121.9459546
PAST SALE,May-6-2016,Condo/Co-op,3589 S Bascom Ave #7,CAMPBELL,CA,95008,415000,1,1.0,CAMPBELL,778,800,1984,634,533,361,Sold,,,http://www.redfin.com/CA/Campbell/3589-S-Bascom-Ave-95008/unit-7/home/1265099,MLSListings,ML81577412,N,Y,37.261888,-121.945611
PAST SALE,January-26-2017,Condo/Co-op,185 Union Ave #46,CAMPBELL,CA,95008,405000,1,1.0,CAMPBELL,704,705,1978,369,575,303,Sold,,,http://www.redfin.com/CA/Campbell/185-Union-Ave-95008/unit-46/home/112975454,MLSListings,ML81626409,N,Y,37.2843317,-121.9357697
PAST SALE,August-26-2016,Condo/Co-op,365 N Third St #4,CAMPBELL,CA,95008,480000,2,1.0,CAMPBELL,798,1999,1971,522,602,230,Sold,,,http://www.redfin.com/CA/Campbell/365-N-3rd-St-95008/unit-4/home/1118225,MLSListings,ML81584646,N,Y,37.2926746,-121.9474034
PAST SALE,September-1-2016,Condo/Co-op,917 Apricot Ave Unit A,CAMPBELL,CA,95008,450000,1,1.0,CAMPBELL,895,940,1980,516,503,419,Sold,,,http://www.redfin.com/CA/Campbell/917-Apricot-Ave-95008/unit-A/home/1606204,MLSListings,ML81589953,N,Y,37.2837257,-121.932837
PAST SALE,,Condo/Co-op,607 W Valley Dr #2,Campbell,CA,95008,439000,2,1.0,,840,,1964,,523,,,,,http://www.redfin.com/CA/Campbell/607-W-Valley-Dr-95008/unit-2/home/1764104,,,N,Y,37.2800565,-121.9386222
PAST SALE,,Single Family Residential,1829 Regina Way,Campbell,CA,95008,1200000,2,1.0,,1198,11250,1952,,1002,,,,,http://www.redfin.com/CA/Campbell/1829-Regina-Way-95008/home/1494398,,,N,Y,37.2695898,-121.9826233
PAST SALE,August-9-2016,Condo/Co-op,576 W Parr Ave #16,LOS GATOS,CA,95032,474000,2,1.0,LOS GATOS,934,1742,1987,539,507,423,Sold,,,http://www.redfin.com/CA/Los-Gatos/576-W-Parr-Ave-95032/unit-16/home/1333331,MLSListings,ML81590338,N,Y,37.2639008,-121.9636119
PAST SALE,December-20-2016,Condo/Co-op,3599 S Bascom Ave #49,CAMPBELL,CA,95008,505000,2,1.0,CAMPBELL,908,800,1984,406,556,361,Sold,,,http://www.redfin.com/CA/Campbell/3599-S-Bascom-Ave-95008/unit-49/home/831105,MLSListings,ML81630898,N,Y,37.2616,-121.947503
PAST SALE,October-17-2016,Single Family Residential,857 Sydnor Dr,CAMPBELL,CA,95008,1168000,3,1.5,CAMPBELL,1637,10354,1951,470,714,,Sold,,,http://www.redfin.com/CA/Campbell/857-Sydnor-Dr-95008/home/1633072,MLSListings,ML81614328,N,Y,37.2750329,-121.9377564
PAST SALE,March-9-2016,Townhouse,1132 Capri Dr,CAMPBELL,CA,95008,580000,1,1.5,CAMPBELL,1020,930,1981,692,569,230,Sold,,,http://www.redfin.com/CA/Campbell/1132-Capri-Dr-95008/home/1727304,MLSListings,ML81548360,N,Y,37.2704635,-121.960643
PAST SALE,October-30-2017,Townhouse,613 Marathon Dr,CAMPBELL,CA,95008,687000,2,1.5,CAMPBELL,953,1104,1978,92,721,450,Sold,,,http://www.redfin.com/CA/Campbell/613-Marathon-Dr-95008/home/1549906,MLSListings,ML81680119,N,Y,37.295591,-121.965706
PAST SALE,May-16-2017,Townhouse,128 Salice Way,CAMPBELL,CA,95008,710000,2,1.5,CAMPBELL,1141,1168,1976,259,622,321,Sold,,,http://www.redfin.com/CA/Campbell/128-Salice-Way-95008/home/1119461,MLSListings,ML81645222,N,Y,37.285589,-121.951707
PAST SALE,February-23-2016,Single Family Residential,613 N Central Ave,CAMPBELL,CA,95008,1000000,3,1.5,CAMPBELL,1639,7841,1953,707,610,,Sold,,,http://www.redfin.com/CA/Campbell/613-N-Central-Ave-95008/home/815998,MLSListings,ML81547753,N,Y,37.2960399,-121.9438202
PAST SALE,October-30-2017,Single Family Residential,961 W Campbell Ave,CAMPBELL,CA,95008,1100000,2,1.5,CAMPBELL,1229,11775,1948,92,895,,Sold,,,http://www.redfin.com/CA/Campbell/961-W-Campbell-Ave-95008/home/1580338,MLSListings,ML81676944,N,Y,37.2869865,-121.9661727
PAST SALE,,Townhouse,136 Salice Way,Campbell,CA,95008,143500,2,1.0,,1141,1168,1976,,126,,,,,http://www.redfin.com/CA/Campbell/136-Salice-Way-95008/home/1061582,,,N,Y,37.2854162,-121.9517244
PAST SALE,December-15-2016,Single Family Residential,1620 Norman Ave,SAN JOSE,CA,95125,880000,2,1.5,SAN JOSE,1092,10284,1950,411,806,,Sold,,,http://www.redfin.com/CA/San-Jose/1620-Norman-Ave-95125/home/623700,MLSListings,ML81627239,N,Y,37.2950182,-121.9206725
PAST SALE,,Townhouse,5027 Pinetree Ter,Campbell,CA,95008,318500,2,1.0,,970,855,1973,,328,,,,,http://www.redfin.com/CA/Campbell/5027-Pinetree-Ter-95008/home/815667,,,N,Y,37.2705367,-121.9899398
PAST SALE,,Single Family Residential,1167 Bucknam Ct,Campbell,CA,95008,295000,3,1.0,,1992,15092,1954,,148,,,,,http://www.redfin.com/CA/Campbell/1167-Bucknam-Ct-95008/home/820500,,,N,Y,37.2705508,-121.9703356
PAST SALE,,Single Family Residential,764 Almarida Dr,Campbell,CA,95008,1150000,3,2.0,,1872,6175,2015,,614,,,,,http://www.redfin.com/CA/Campbell/764-Almarida-Dr-95008/home/1085413,,,N,Y,37.2982856,-121.9411296
PAST SALE,January-26-2017,Townhouse,4996 Peach Ter,CAMPBELL,CA,95008,685000,2,1.5,CAMPBELL,970,855,1973,369,706,315,Sold,,,http://www.redfin.com/CA/Campbell/4996-Peach-Ter-95008/home/1689152,MLSListings,ML81633941,N,Y,37.269645,-121.989513
PAST SALE,April-28-2017,Townhouse,1455 Golden Meadow Sq,SAN JOSE,CA,95117,789000,2,1.5,SAN JOSE,1220,1278,1972,277,647,235,Sold,,,http://www.redfin.com/CA/San-Jose/1455-Golden-Meadow-Sq-95117/home/711675,MLSListings,ML81641467,N,Y,37.298315,-121.961086
PAST SALE,August-9-2017,Single Family Residential,603 Cambrian Dr,CAMPBELL,CA,95008,1382000,3,1.5,CAMPBELL,1316,11875,1951,174,1050,,Sold,,,http://www.redfin.com/CA/Campbell/603-Cambrian-Dr-95008/home/825798,MLSListings,ML81656409,N,Y,37.2758149,-121.9383802
PAST SALE,November-16-2017,Townhouse,601 Marathon Dr,CAMPBELL,CA,95008,700000,2,1.5,CAMPBELL,953,1560,1978,75,735,450,Sold,,,http://www.redfin.com/CA/Campbell/601-Marathon-Dr-95008/home/757464,MLSListings,ML81681644,N,Y,37.295592,-121.965451
PAST SALE,August-29-2017,Mobile/Manufactured Home,51 Timbercove Dr,CAMPBELL,CA,95008,299900,3,1.5,CAMPBELL,1292,,2001,154,232,,Sold,,,http://www.redfin.com/CA/Campbell/51-Timber-Cove-Dr-95008/unit-51/home/63743148,MLSListings,ML81670704,N,Y,37.2769397,-121.9472195
PAST SALE,June-2-2017,Single Family Residential,831 Virginia Ave,CAMPBELL,CA,95008,980000,2,1.5,CAMPBELL,1019,6900,1945,242,962,,Sold,,,http://www.redfin.com/CA/Campbell/831-Virginia-Ave-95008/home/1777407,MLSListings,ML81649433,N,Y,37.2747746,-121.9644556
PAST SALE,May-28-2017,Townhouse,65 Dot Ave,CAMPBELL,CA,95008,570000,2,1.5,CAMPBELL,1060,900,1981,247,538,530,Sold,,,http://www.redfin.com/CA/Campbell/65-Dot-Ave-95008/home/1515615,MLSListings,ML81653496,N,Y,37.286109,-121.959047
PAST SALE,July-7-2017,Townhouse,433 W Rincon Ave Unit K,CAMPBELL,CA,95008,730000,2,1.5,CAMPBELL,1134,1201,1979,207,644,370,Sold,,,http://www.redfin.com/CA/Campbell/433-W-Rincon-Ave-95008/unit-K/home/1530820,MLSListings,ML81650773,N,Y,37.285924,-121.957391
PAST SALE,June-20-2017,Single Family Residential,1680 Phantom Ave,SAN JOSE,CA,95125,1110000,3,1.5,SAN JOSE,1653,8125,1958,224,672,,Sold,,,http://www.redfin.com/CA/San-Jose/1680-Phantom-Ave-95125/home/970839,MLSListings,ML81654730,N,Y,37.2936404,-121.9200295
PAST SALE,February-22-2016,Townhouse,1130 Capri Dr,CAMPBELL,CA,95008,715000,2,1.5,CAMPBELL,1336,1149,1981,708,535,230,Sold,,,http://www.redfin.com/CA/Campbell/1130-Capri-Dr-95008/home/819675,MLSListings,ML81546458,N,Y,37.2704701,-121.9607738
PAST SALE,September-22-2017,Single Family Residential,1369 Theresa Ave,CAMPBELL,CA,95008,1300000,3,1.5,CAMPBELL,1464,14850,1951,130,888,,Sold,,,http://www.redfin.com/CA/Campbell/1369-Theresa-Ave-95008/home/1466794,MLSListings,ML81672221,N,Y,37.266843,-121.963461
PAST SALE,April-28-2017,Condo/Co-op,364 W Sunnyoaks Ave,CAMPBELL,CA,95008,720000,2,1.5,CAMPBELL,1178,700,1988,277,611,370,Sold,,,http://www.redfin.com/CA/Campbell/364-W-Sunnyoaks-Ave-95008/home/1282679,MLSListings,ML81644152,N,Y,37.271813,-121.956151
PAST SALE,August-31-2016,Single Family Residential,824 Bucknall Rd,CAMPBELL,CA,95008,905000,3,1.5,CAMPBELL,1564,6000,1955,517,579,,Sold,,,http://www.redfin.com/CA/Campbell/824-Bucknall-Rd-95008/home/1689159,MLSListings,ML81585866,N,Y,37.2839568,-121.9646568
PAST SALE,September-8-2016,Single Family Residential,1091 Erin Way,CAMPBELL,CA,95008,795000,3,1.5,CAMPBELL,1368,8856,1955,509,581,,Sold,,,http://www.redfin.com/CA/Campbell/1091-Erin-Way-95008/home/827925,MLSListings,ML81589378,N,Y,37.2711306,-121.9436733
PAST SALE,November-22-2016,Condo/Co-op,342 W Sunnyoaks Ave,CAMPBELL,CA,95008,670000,2,1.5,CAMPBELL,1178,701,1988,434,569,350,Sold,,,http://www.redfin.com/CA/Campbell/342-W-Sunnyoaks-Ave-95008/home/1623457,MLSListings,ML81615484,N,Y,37.271984,-121.956618
PAST SALE,June-22-2017,Condo/Co-op,101 Redding Rd Unit A6,CAMPBELL,CA,95008,722000,2,1.5,CAMPBELL,1279,944,1980,222,565,354,Sold,,,http://www.redfin.com/CA/Campbell/101-Redding-Rd-95008/unit-A6/home/1595684,MLSListings,ML81651648,N,Y,37.2656646,-121.9471341
PAST SALE,,Single Family Residential,295 Beverly Ct,Campbell,CA,95008,190000,3,1.0,,1125,10115,1955,,169,,,,,http://www.redfin.com/CA/Campbell/295-Beverly-Ct-95008/home/1532292,,,N,Y,37.28244,-121.9644192
PAST SALE,December-30-2016,Condo/Co-op,668 W Sunnyoaks Ave,CAMPBELL,CA,95008,700000,2,1.5,CAMPBELL,1152,1216,1978,396,608,257,Sold,,,http://www.redfin.com/CA/Campbell/668-W-Sunnyoaks-Ave-95008/home/1370482,MLSListings,ML81631910,N,Y,37.270901,-121.960699
PAST SALE,September-15-2017,Single Family Residential,2248 Middletown Dr,CAMPBELL,CA,95008,1260000,4,1.5,CAMPBELL,1166,6000,1962,137,1081,,Sold,,,http://www.redfin.com/CA/Campbell/2248-Middletown-Dr-95008/home/1142094,MLSListings,ML81673164,N,Y,37.2804899,-121.969217
PAST SALE,June-28-2016,Townhouse,4928 Poplar Ter,CAMPBELL,CA,95008,750000,3,1.5,CAMPBELL,1176,1035,1973,581,638,315,Sold,,,http://www.redfin.com/CA/San-Jose/4928-Poplar-Dr-95122/home/1129143,MLSListings,ML81585552,N,Y,37.269221,-121.988286
PAST SALE,February-23-2017,Townhouse,116 Salice Way,CAMPBELL,CA,95008,710000,2,1.5,CAMPBELL,1141,1168,1976,341,622,321,Sold,,,http://www.redfin.com/CA/Campbell/116-Salice-Way-95008/home/754708,MLSListings,ML81635250,N,Y,37.2858615,-121.951733
PAST SALE,May-20-2016,Single Family Residential,3887 Acapulco Dr,CAMPBELL,CA,95008,920000,4,1.5,CAMPBELL,1166,6599,1962,620,789,,Sold,,,http://www.redfin.com/CA/Campbell/3887-Acapulco-Dr-95008/home/996957,MLSListings,ML81580348,N,Y,37.2814117,-121.9696166
PAST SALE,December-22-2017,Townhouse,5029 Pinetree Ter,CAMPBELL,CA,95008,901000,3,1.5,CAMPBELL,1176,1035,1973,39,766,328,Sold,,,http://www.redfin.com/CA/San-Jose/5029-Pinetree-Ter-95130/home/1439791,MLSListings,ML81684625,N,Y,37.2706159,-121.990014
PAST SALE,October-26-2017,Townhouse,4946 Poplar Ter,CAMPBELL,CA,95008,890000,3,1.5,CAMPBELL,1176,1035,1973,96,757,328,Sold,,,http://www.redfin.com/CA/Campbell/4946-Poplar-Ter-95008/home/1156314,MLSListings,ML81676182,N,Y,37.269536,-121.988966
PAST SALE,October-7-2016,Condo/Co-op,621 Marathon Dr,CAMPBELL,CA,95008,605000,2,1.5,CAMPBELL,953,1102,1978,480,635,450,Sold,,,http://www.redfin.com/CA/Campbell/621-Marathon-Dr-95008/home/1035085,MLSListings,ML81612406,N,Y,37.29559,-121.965785
PAST SALE,December-4-2017,Single Family Residential,1583 Saint Francis Dr,SAN JOSE,CA,95125,1225000,2,1.5,SAN JOSE,1394,6203,1954,57,879,,Sold,,,http://www.redfin.com/CA/San-Jose/1583-Saint-Francis-Dr-95125/home/1738602,MLSListings,ML81686252,N,Y,37.2958748,-121.9182002
PAST SALE,,Townhouse,95 W Rincon Ave,Campbell,CA,95008,500000,2,1.0,,1141,1168,1976,,438,,,,,http://www.redfin.com/CA/Campbell/95-W-Rincon-Ave-95008/home/1566494,,,N,Y,37.2851552,-121.9513617
PAST SALE,,Townhouse,666 W Sunnyoaks Ave,Campbell,CA,95008,710000,2,1.5,,1152,1216,1978,,616,,,,,http://www.redfin.com/CA/Campbell/666-W-Sunnyoaks-Ave-95008/home/820861,,,N,Y,37.270901,-121.960649
PAST SALE,,Single Family Residential,783 Springfield Dr,Campbell,CA,95008,596500,3,2.0,,1464,6039,1967,,407,,,,,http://www.redfin.com/CA/Campbell/783-Springfield-Dr-95008/home/1035029,,,N,Y,37.2918732,-121.9626434
PAST SALE,June-13-2016,Single Family Residential,236 N 3rd St,CAMPBELL,CA,95008,1100000,3,2.0,CAMPBELL,1134,10019,1947,596,970,,Sold,,,http://www.redfin.com/CA/Campbell/236-N-3rd-St-95008/home/1738520,MLSListings,ML81585314,N,Y,37.2905069,-121.9470074
PAST SALE,,Single Family Residential,375 Knowles Dr,Los Gatos,CA,95032,1754000,3,2.0,,2224,3321,2017,,789,,,,,http://www.redfin.com/CA/Los-Gatos/375-Knowles-Dr-95032/home/142955400,,,N,Y,37.262272,-121.964153
PAST SALE,November-7-2017,Single Family Residential,371 Pamlar Ave,SAN JOSE,CA,95128,995000,3,2.0,SAN JOSE,1232,9180,1960,84,808,,Sold,,,http://www.redfin.com/CA/San-Jose/371-Pamlar-Ave-95128/home/726405,MLSListings,ML81675878,N,Y,37.299565,-121.9401341
PAST SALE,December-23-2016,Single Family Residential,2268 Wren Way,CAMPBELL,CA,95008,1150000,4,2.0,CAMPBELL,1486,6000,1962,403,774,,Sold,,,http://www.redfin.com/CA/Campbell/2268-Wren-Way-95008/home/1179323,MLSListings,ML81626633,N,Y,37.2801281,-121.9649128
PAST SALE,,Single Family Residential,418 Pamlar Ave,San Jose,CA,95128,460000,5,2.0,,2122,9112,1949,,217,,,,,http://www.redfin.com/CA/San-Jose/418-Pamlar-Ave-95128/home/754200,,,N,Y,37.2990579,-121.9389739
PAST SALE,September-11-2017,Mobile/Manufactured Home,44 Quail Hollow Dr #44,SAN JOSE,CA,95128,235500,2,2.0,SAN JOSE,1512,,1974,141,156,,Sold,,,http://www.redfin.com/CA/San-Jose/44-Quail-Hollow-Dr-95128/unit-44/home/45495422,MLSListings,ML81670679,N,Y,37.2973021,-121.9336203
PAST SALE,July-25-2017,Single Family Residential,1455 Regalo Ct,SAN JOSE,CA,95128,1210000,4,2.0,SAN JOSE,1742,6270,1976,189,695,,Sold,,,http://www.redfin.com/CA/San-Jose/1455-Regalo-Ct-95128/home/1497408,MLSListings,ML81656741,N,Y,37.2970855,-121.9377001
PAST SALE,September-21-2017,Single Family Residential,1315 El Moro Dr,CAMPBELL,CA,95008,1300000,3,2.0,CAMPBELL,1791,9558,1954,131,726,,Sold,,,http://www.redfin.com/CA/Campbell/1315-El-Moro-Dr-95008/home/732105,MLSListings,ML81672588,N,Y,37.2844348,-121.9258363
PAST SALE,May-31-2017,Single Family Residential,1412 Rojo Pl,SAN JOSE,CA,95128,1110000,4,2.0,SAN JOSE,1642,6000,1977,244,676,,Sold,,,http://www.redfin.com/CA/San-Jose/1412-Rojo-Pl-95128/home/1515045,MLSListings,ML81646765,N,Y,37.295915,-121.934378
PAST SALE,April-1-2016,Single Family Residential,1097 Linda Dr,CAMPBELL,CA,95008,1100000,4,2.0,CAMPBELL,1364,6866,1963,669,806,,Sold,,,http://www.redfin.com/CA/Campbell/1097-Linda-Dr-95008/home/1660042,MLSListings,ML81549765,N,Y,37.2736274,-121.9683516
PAST SALE,April-6-2016,Single Family Residential,4551 Norwich Way,SAN JOSE,CA,95130,1310000,4,2.0,SAN JOSE,1433,6320,1964,664,914,,Sold,,,http://www.redfin.com/CA/San-Jose/4551-Norwich-Way-95130/home/1439715,MLSListings,ML81563005,N,Y,37.2829456,-121.9823194
PAST SALE,,Condo/Co-op,184 Redding Rd,Campbell,CA,95008,1010000,3,2.0,,1308,,2017,,772,,,,,http://www.redfin.com/CA/Campbell/184-Redding-Rd-95008/home/143043707,,,N,Y,37.2647955,-121.9463778
PAST SALE,June-26-2017,Single Family Residential,71 E Rosemary Ln,CAMPBELL,CA,95008,1080000,3,2.0,CAMPBELL,1252,7755,2008,218,863,,Sold,,,http://www.redfin.com/CA/Campbell/71-E-Rosemary-Ln-95008/home/724369,MLSListings,ML81651718,N,Y,37.2954864,-121.948625
PAST SALE,August-8-2016,Mobile/Manufactured Home,24 Timber Cove Dr #24,CAMPBELL,CA,95008,269900,3,2.0,CAMPBELL,1428,,2006,540,189,,Sold,,,http://www.redfin.com/CA/Campbell/24-Timber-Cove-Dr-95008/unit-24/home/17495897,MLSListings,ML81586304,N,Y,37.2771442,-121.9488127
PAST SALE,June-23-2017,Mobile/Manufactured Home,97 Timber Cove Dr,CAMPBELL,CA,95008,237000,3,2.0,CAMPBELL,1200,,1997,221,198,,Sold,,,http://www.redfin.com/CA/Campbell/97-Timber-Cove-Dr-95008/home/113535787,MLSListings,ML81643769,N,Y,37.2784141,-121.9472432
PAST SALE,May-18-2017,Single Family Residential,1467 Regalo Ct,SAN JOSE,CA,95128,1195000,4,2.0,SAN JOSE,2109,6270,1976,257,567,,Sold,,,http://www.redfin.com/CA/San-Jose/1467-Regalo-Ct-95128/home/1707772,MLSListings,ML81647258,N,Y,37.2966417,-121.9376353
PAST SALE,January-3-2017,Condo/Co-op,100 Calle Larga,LOS GATOS,CA,95032,1100000,2,2.0,LOS GATOS,1693,3959,1980,392,650,597,Sold,,,http://www.redfin.com/CA/Los-Gatos/100-Calle-Larga-95032/home/1606085,MLSListings,ML81631760,N,Y,37.2629168,-121.9854875
PAST SALE,July-19-2016,Single Family Residential,894 Virginia Ave,CAMPBELL,CA,95008,1000000,3,2.0,CAMPBELL,1680,6298,1961,560,595,,Sold,,,http://www.redfin.com/CA/Campbell/894-Virginia-Ave-95008/home/1179346,MLSListings,ML81591600,N,Y,37.2737654,-121.9639117
PAST SALE,,Single Family Residential,4036 Twyla Ln,Campbell,CA,95008,475000,4,2.0,,1782,6160,1970,,267,,,,,http://www.redfin.com/CA/Campbell/4036-Twyla-Ln-95008/home/1193285,,,N,Y,37.2778141,-121.9730645
PAST SALE,June-2-2017,Single Family Residential,1458 Via Codorniz,SAN JOSE,CA,95128,1100000,4,2.0,SAN JOSE,1742,6100,1976,242,631,,Sold,,,http://www.redfin.com/CA/San-Jose/1458-Via-Codorniz-95128/home/726840,MLSListings,ML81649863,N,Y,37.2970826,-121.9381379
PAST SALE,October-28-2016,Single Family Residential,777 Jeffrey Ave,CAMPBELL,CA,95008,900000,3,2.0,CAMPBELL,1752,7440,1961,459,514,,Sold,,,http://www.redfin.com/CA/Campbell/777-Jeffrey-Ave-95008/home/1298979,MLSListings,ML81629462,N,Y,37.2788845,-121.9630435
PAST SALE,May-13-2016,Mobile/Manufactured Home,16 Quail Hollow Dr #16,SAN JOSE,CA,95128,176500,2,2.0,SAN JOSE,1440,,1974,627,123,,Sold,,,http://www.redfin.com/CA/San-Jose/16-Quail-Hollow-Dr-95128/unit-16/home/21856747,MLSListings,ML81548990,N,Y,37.2984941,-121.9328309
PAST SALE,February-3-2017,Single Family Residential,1095 W Hacienda Ave,CAMPBELL,CA,95008,1225000,3,2.0,CAMPBELL,1309,16000,1954,361,936,,Sold,,,http://www.redfin.com/CA/Campbell/1095-W-Hacienda-Ave-95008/home/1026578,MLSListings,ML81631011,N,Y,37.2693402,-121.9681216
PAST SALE,,Single Family Residential,2276 Gunar Dr,San Jose,CA,95124,1250000,4,2.0,,1823,8090,1962,,686,,,,,http://www.redfin.com/CA/San-Jose/2276-Gunar-Dr-95124/home/851268,,,N,Y,37.2803377,-121.9267487
PAST SALE,May-19-2016,Single Family Residential,1071 Bucknam Ave,CAMPBELL,CA,95008,1475000,3,2.0,CAMPBELL,1947,9344,1950,621,758,,Sold,,,http://www.redfin.com/CA/Campbell/1071-Bucknam-Ave-95008/home/1595949,MLSListings,ML81578958,N,Y,37.2715346,-121.967632
PAST SALE,October-18-2017,Single Family Residential,51 Welker Ct,CAMPBELL,CA,95008,1350000,3,2.0,CAMPBELL,1430,6627,1967,104,944,,Sold,,,http://www.redfin.com/CA/Campbell/51-Welker-Ct-95008/home/1243079,MLSListings,ML81678603,N,Y,37.2870498,-121.9736355
PAST SALE,December-22-2016,Single Family Residential,3714 Century Dr,CAMPBELL,CA,95008,1075000,3,2.0,CAMPBELL,1244,5978,1963,404,864,,Sold,,,http://www.redfin.com/CA/Campbell/3714-Century-Dr-95008/home/1333302,MLSListings,ML81631689,N,Y,37.2787604,-121.9654118
PAST SALE,,Single Family Residential,2494 Neville Ave,San Jose,CA,95130,925000,4,2.0,,2229,6438,1964,,415,,,,,http://www.redfin.com/CA/San-Jose/2494-Neville-Ave-95130/home/1298914,,,N,Y,37.2772932,-121.9799266
PAST SALE,October-28-2016,Mobile/Manufactured Home,104 La Paz,CAMPBELL,CA,95008,329500,2,2.0,CAMPBELL,1140,,1967,459,289,,Sold,,,http://www.redfin.com/CA/Campbell/104-La-Paz-95008/home/63743137,MLSListings,ML81614202,N,Y,37.2805513,-121.9405134
PAST SALE,May-25-2016,Mobile/Manufactured Home,48 PALOMAR REAL,CAMPBELL,CA,95008,296000,2,2.0,CAMPBELL,1440,,1968,615,206,,Sold,,,http://www.redfin.com/CA/Campbell/48-Palomar-Real-95008/home/105510953,MLSListings,ML81584597,N,Y,37.282029,-121.9396655
PAST SALE,,Condo/Co-op,866 Apricot Ave,Campbell,CA,95008,600000,2,2.0,,1065,,1982,,563,,,,,http://www.redfin.com/CA/Campbell/866-Apricot-Ave-95008/home/825184,,,N,Y,37.282981,-121.933724
PAST SALE,September-22-2016,Single Family Residential,1479 Via Codorniz,SAN JOSE,CA,95128,890000,3,2.0,SAN JOSE,1497,8001,1976,495,595,,Sold,,,http://www.redfin.com/CA/San-Jose/1479-Via-Codorniz-95128/home/726833,MLSListings,ML81599097,N,Y,37.296201,-121.9385642
PAST SALE,June-16-2016,Mobile/Manufactured Home,156 Quail Hollow Dr,SAN JOSE,CA,95128,90000,2,2.0,SAN JOSE,1536,,1973,593,59,,Sold,,,http://www.redfin.com/CA/San-Jose/156-Quail-Hollow-Dr-95128/home/105286587,MLSListings,ML81581683,N,Y,37.2972443,-121.9331161
PAST SALE,December-1-2017,Single Family Residential,927 Emory Ave,CAMPBELL,CA,95008,1635480,3,2.0,CAMPBELL,1596,19000,1947,60,1025,,Sold,,,http://www.redfin.com/CA/Campbell/927-Emory-Ave-95008/home/817276,MLSListings,ML81683029,N,Y,37.2734323,-121.9576797
PAST SALE,,Single Family Residential,1155 Shadle Ave,Campbell,CA,95008,1150000,3,2.0,,1334,8280,1960,,862,,,,,http://www.redfin.com/CA/Campbell/1155-Shadle-Ave-95008/home/635267,,,N,Y,37.2703749,-121.9712278
PAST SALE,,Single Family Residential,357 Market St,Los Gatos,CA,95032,1686500,3,2.0,,2026,3387,2017,,832,,,,,http://www.redfin.com/CA/Los-Gatos/357-Market-St-95032/home/143042118,,,N,Y,37.2626233,-121.9644593
PAST SALE,,Single Family Residential,1650 ELWOOD DR,CAMPBELL,CA,95008,1250000,4,2.0,,1854,6000,1966,,674,,,,,http://www.redfin.com/CA/CAMPBELL/1650-ELWOOD-DR-95008/home/1337752,,,N,Y,37.264803,-121.988484
PAST SALE,April-26-2016,Single Family Residential,1910 Castro Dr,SAN JOSE,CA,95130,1275000,3,2.0,SAN JOSE,1333,5998,1967,644,956,,Sold,,,http://www.redfin.com/CA/San-Jose/1910-Castro-Dr-95130/home/755296,MLSListings,ML81564992,N,Y,37.2875293,-121.9828541
PAST SALE,July-28-2017,Condo/Co-op,131 Union Ave Unit E,CAMPBELL,CA,95008,710000,2,2.0,CAMPBELL,1346,768,1983,186,527,372,Sold,,,http://www.redfin.com/CA/Campbell/131-Union-Ave-95008/unit-E/home/105500420,MLSListings,ML81655706,N,Y,37.2850814,-121.9359025
PAST SALE,,Single Family Residential,1112 Greenbriar Ave,San Jose,CA,95128,1250000,4,2.0,,1714,6264,1961,,729,,,,,http://www.redfin.com/CA/San-Jose/1112-Greenbriar-Ave-95128/home/1424781,,,N,Y,37.306352,-121.9461557
PAST SALE,May-3-2016,Single Family Residential,3948 Penwith Ave,SAN JOSE,CA,95130,1010000,3,2.0,SAN JOSE,1218,6000,1960,637,829,,Sold,,,http://www.redfin.com/CA/San-Jose/3948-Penwith-Ave-95130/home/1325026,MLSListings,ML81562847,N,Y,37.295513,-121.9706926
PAST SALE,November-14-2016,Single Family Residential,176 Hardy Ave,CAMPBELL,CA,95008,1270000,4,2.0,CAMPBELL,1623,9374,1950,442,783,,Sold,,,http://www.redfin.com/CA/Campbell/176-Hardy-Ave-95008/home/633675,MLSListings,ML81613410,N,Y,37.2895864,-121.9571544
PAST SALE,,Condo/Co-op,182 Redding Rd,Campbell,CA,95008,1010000,3,2.0,,1308,,2017,,772,,,,,http://www.redfin.com/CA/Campbell/182-Redding-Rd-95008/home/143043706,,,N,Y,37.2647955,-121.9463828
PAST SALE,February-24-2017,Single Family Residential,2393 Stratford Dr,SAN JOSE,CA,95124,1110000,3,2.0,SAN JOSE,1376,6150,1961,340,807,,Sold,,,http://www.redfin.com/CA/San-Jose/2393-Stratford-Dr-95124/home/1542211,MLSListings,ML81636214,N,Y,37.2590755,-121.9456001
PAST SALE,,Single Family Residential,189 N 3rd St,Campbell,CA,95008,625500,4,2.0,,1764,10764,1947,,355,,,,,http://www.redfin.com/CA/Campbell/189-N-3rd-St-95008/home/723605,,,N,Y,37.2898551,-121.9478937
PAST SALE,,Single Family Residential,1111 Cameo Dr,Campbell,CA,95008,341000,3,2.0,,1739,8030,1958,,196,,,,,http://www.redfin.com/CA/Campbell/1111-Cameo-Dr-95008/home/1047146,,,N,Y,37.2826309,-121.9296161
PAST SALE,September-9-2016,Single Family Residential,1220 Peggy Ave,CAMPBELL,CA,95008,1200000,3,2.0,CAMPBELL,1722,13960,1950,508,697,,Sold,,,http://www.redfin.com/CA/Campbell/1220-Peggy-Ave-95008/home/818992,MLSListings,ML81596187,N,Y,37.2693351,-121.9687115
PAST SALE,June-9-2016,Single Family Residential,4499 Madoc Way,SAN JOSE,CA,95130,1225000,4,2.0,SAN JOSE,1596,5993,1959,600,768,,Sold,,,http://www.redfin.com/CA/San-Jose/4499-Madoc-Way-95130/home/887237,MLSListings,ML81580708,N,Y,37.2822537,-121.9813959
PAST SALE,,Single Family Residential,1178 Greenbriar Ave,San Jose,CA,95128,389955,3,2.0,,1516,11600,1962,,257,,,,,http://www.redfin.com/CA/San-Jose/1178-Greenbriar-Ave-95128/home/1738309,,,N,Y,37.3046512,-121.945678
PAST SALE,,Single Family Residential,95 S 3rd St,Campbell,CA,95008,1160000,3,2.0,,1372,7800,1935,,845,,,,,http://www.redfin.com/CA/Campbell/95-S-3rd-St-95008/home/1345759,,,N,Y,37.2857735,-121.9475077
PAST SALE,September-22-2017,Single Family Residential,2318 Maximilian Dr,CAMPBELL,CA,95008,1353000,3,2.0,CAMPBELL,1486,6489,1962,130,910,,Sold,,,http://www.redfin.com/CA/Campbell/2318-Maximilian-Dr-95008/home/817860,MLSListings,ML81673982,N,Y,37.2789874,-121.9665869
PAST SALE,October-27-2017,Single Family Residential,2560 Oak Park Ln,CAMPBELL,CA,95008,1420000,4,2.0,CAMPBELL,1687,6500,1961,95,842,,Sold,,,http://www.redfin.com/CA/Campbell/2560-Oak-Park-Ln-95008/home/826952,MLSListings,ML81679028,N,Y,37.2755633,-121.9402758
PAST SALE,July-27-2016,Single Family Residential,1145 Paula Dr,CAMPBELL,CA,95008,1197000,4,2.0,CAMPBELL,1373,9774,1961,552,872,,Sold,,,http://www.redfin.com/CA/Campbell/1145-Paula-Dr-95008/home/726271,MLSListings,ML81589685,N,Y,37.2901158,-121.9699538
PAST SALE,October-26-2017,Single Family Residential,3672 Mona Way,SAN JOSE,CA,95130,1550000,4,2.0,SAN JOSE,1564,6300,1965,96,991,,Sold,,,http://www.redfin.com/CA/San-Jose/3672-Mona-Way-95130/home/757319,MLSListings,ML81679459,N,Y,37.2958006,-121.9654005
PAST SALE,,Condo/Co-op,131 Union Ave,Campbell,CA,95008,710000,2,2.0,,1346,,1983,,527,,,,,http://www.redfin.com/CA/Campbell/131-Union-Ave-95008/home/793176,,,N,Y,37.2850814,-121.9359024
PAST SALE,October-19-2016,Single Family Residential,1641 Beck Dr,SAN JOSE,CA,95130,1260000,4,2.0,SAN JOSE,1805,7139,1961,468,698,,Sold,,,http://www.redfin.com/CA/San-Jose/1641-Beck-Dr-95130/home/1530247,MLSListings,ML81614675,N,Y,37.2928436,-121.9720385
PAST SALE,January-10-2017,Mobile/Manufactured Home,3 Quail Hollow Dr,SAN JOSE,CA,95128,235000,2,2.0,SAN JOSE,1536,,1974,385,153,,Sold,,,http://www.redfin.com/CA/San-Jose/3-Quail-Hollow-Dr-95128/home/108563584,MLSListings,ML81599908,N,Y,37.297452,-121.9332406
PAST SALE,October-13-2016,Single Family Residential,1116 Boise Dr,CAMPBELL,CA,95008,1210000,4,2.0,CAMPBELL,1504,6882,1958,474,805,,Sold,,,http://www.redfin.com/CA/Campbell/1116-Boise-Dr-95008/home/757824,MLSListings,ML81613125,N,Y,37.2929955,-121.9694502
PAST SALE,May-9-2017,Single Family Residential,1954 Patio Dr,SAN JOSE,CA,95125,1310000,3,2.0,SAN JOSE,1267,10065,1953,266,1034,,Sold,,,http://www.redfin.com/CA/San-Jose/1954-Patio-Dr-95125/home/1181819,MLSListings,ML81647089,N,Y,37.2882645,-121.9215083
PAST SALE,September-29-2017,Condo/Co-op,102 Cherry Wood Ct,LOS GATOS,CA,95032,865000,2,2.0,LOS GATOS,1461,2040,1972,123,592,358,Sold,,,http://www.redfin.com/CA/Los-Gatos/102-Cherry-Wood-Ct-95032/home/1494567,MLSListings,ML81674934,N,Y,37.2630865,-121.9737474
PAST SALE,,Single Family Residential,1849 Dry Creek Rd,San Jose,CA,95124,1234000,3,2.0,,1770,14396,1950,,697,,,,,http://www.redfin.com/CA/San-Jose/1849-Dry-Creek-Rd-95124/home/731268,,,N,Y,37.2808687,-121.9238606
PAST SALE,September-12-2016,Single Family Residential,1600 Phantom Ave,SAN JOSE,CA,95125,1118888,3,2.0,SAN JOSE,2000,9517,1955,505,559,,Sold,,,http://www.redfin.com/CA/San-Jose/1600-Phantom-Ave-95125/home/1544538,MLSListings,ML81594682,N,Y,37.295526,-121.9195907
PAST SALE,,Townhouse,680 Birch Dr,Campbell,CA,95008,719000,2,2.0,,990,2208,1979,,726,,,,,http://www.redfin.com/CA/Campbell/680-Birch-Dr-95008/home/1634828,,,N,Y,37.291329,-121.937781
PAST SALE,,Townhouse,90 Union Ave,Campbell,CA,95008,150000,3,2.0,,1289,1426,1978,,116,,,,,http://www.redfin.com/CA/Campbell/90-Union-Ave-95008/home/827495,,,N,Y,37.2854816,-121.9352634
PAST SALE,,Single Family Residential,1550 Elwood Dr,Los Gatos,CA,95032,1630000,4,2.0,,1854,6000,1967,,879,,,,,http://www.redfin.com/CA/Los-Gatos/1550-Elwood-Dr-95032/home/1234891,,,N,Y,37.2664124,-121.9890277
PAST SALE,October-10-2017,Condo/Co-op,1727 Braddock Ct,SAN JOSE,CA,95125,715000,2,2.0,SAN JOSE,1044,1440,1984,112,685,405,Sold,,,http://www.redfin.com/CA/San-Jose/1727-Braddock-Ct-95125/home/1118505,MLSListings,ML81677145,N,Y,37.295102,-121.923602
PAST SALE,August-25-2016,Single Family Residential,3808 Ainsley Ct,CAMPBELL,CA,95008,1350000,4,2.0,CAMPBELL,2036,5863,1972,523,663,,Sold,,,http://www.redfin.com/CA/Campbell/3808-Ainsley-Ct-95008/home/1314482,MLSListings,ML81597562,N,Y,37.2854929,-121.9666382
PAST SALE,February-2-2017,Single Family Residential,862 Wellington Pl,CAMPBELL,CA,95008,1210000,4,2.0,CAMPBELL,1364,6000,1965,362,887,,Sold,,,http://www.redfin.com/CA/Campbell/862-Wellington-Pl-95008/home/714434,MLSListings,ML81633776,N,Y,37.2746105,-121.9675874
PAST SALE,March-23-2017,Condo/Co-op,854 Apricot Ave Unit D,CAMPBELL,CA,95008,679500,2,2.0,CAMPBELL,1065,1100,1982,313,638,340,Sold,,,http://www.redfin.com/CA/Campbell/854-Apricot-Ave-95008/unit-D/home/887756,MLSListings,ML81638934,N,Y,37.2827504,-121.9345817
PAST SALE,,Single Family Residential,128 English Rose Cir,Campbell,CA,95008,535000,4,2.0,,2159,2259,2017,,248,,,,,http://www.redfin.com/CA/Campbell/128-English-Rose-Cir-95008/home/112868870,,,N,Y,37.2841429,-121.9770568
PAST SALE,,Single Family Residential,3961 Acapulco Dr,Campbell,CA,95008,1300000,4,2.0,,1675,6000,1974,,776,,,,,http://www.redfin.com/CA/Campbell/3961-Acapulco-Dr-95008/home/1084797,,,N,Y,37.2813793,-121.9710009
PAST SALE,August-1-2017,Single Family Residential,1985 White Oaks Rd,CAMPBELL,CA,95008,1400000,3,2.0,CAMPBELL,1915,10075,1955,182,731,,Sold,,,http://www.redfin.com/CA/Campbell/1985-White-Oaks-Rd-95008/home/836232,MLSListings,ML81657072,N,Y,37.258944,-121.9491702
PAST SALE,June-23-2016,Mobile/Manufactured Home,10 Timber Cove Dr,CAMPBELL,CA,95008,315000,3,2.0,CAMPBELL,1440,27007,2006,586,219,,Sold,,,http://www.redfin.com/CA/Campbell/10-Timber-Cove-Dr-95008/home/12181592,MLSListings,ML81581807,N,Y,37.2768777,-121.948744
PAST SALE,June-9-2017,Condo/Co-op,1658 Braddock Ct,SAN JOSE,CA,95125,710000,2,2.0,SAN JOSE,1044,1440,1984,235,680,405,Sold,,,http://www.redfin.com/CA/San-Jose/1658-Braddock-Ct-95125/home/1791065,MLSListings,ML81650332,N,Y,37.295885,-121.924382
PAST SALE,November-17-2017,Single Family Residential,924 Kenneth Ave,CAMPBELL,CA,95008,1270000,3,2.0,CAMPBELL,1350,8733,1949,74,941,,Sold,,,http://www.redfin.com/CA/Campbell/924-Kenneth-Ave-95008/home/583646,MLSListings,ML81678941,N,Y,37.2734553,-121.9588845
PAST SALE,August-22-2017,Single Family Residential,1199 Emerson Ave,CAMPBELL,CA,95008,1360631,3,2.0,CAMPBELL,1600,9282,1955,161,850,,Sold,,,http://www.redfin.com/CA/Campbell/1199-Emerson-Ave-95008/home/1419328,MLSListings,ML81670352,N,Y,37.2582344,-121.9521966
PAST SALE,April-7-2017,Single Family Residential,635 Birch Dr,CAMPBELL,CA,95008,800000,2,2.0,CAMPBELL,1067,2208,1979,298,750,114,Sold,,,http://www.redfin.com/CA/Campbell/635-Birch-Dr-95008/home/1474736,MLSListings,ML81640697,N,Y,37.2916576,-121.9383767
PAST SALE,July-18-2017,Single Family Residential,1581 Hyde Dr,LOS GATOS,CA,95032,1700000,4,2.0,LOS GATOS,1854,7200,1967,196,917,,Sold,,,http://www.redfin.com/CA/Los-Gatos/1581-Hyde-Dr-95032/home/839878,MLSListings,ML81656100,N,Y,37.2660584,-121.989445
PAST SALE,,Single Family Residential,177 Budd Ave,Campbell,CA,95008,1200000,3,2.0,,2030,11100,1976,,591,,,,,http://www.redfin.com/CA/Campbell/177-Budd-Ave-95008/home/757185,,,N,Y,37.2809167,-121.9532539
PAST SALE,March-30-2017,Single Family Residential,1189 W Hacienda Ave,CAMPBELL,CA,95008,1169025,3,2.0,CAMPBELL,1213,10560,1954,306,964,,Sold,,,http://www.redfin.com/CA/Campbell/1189-W-Hacienda-Ave-95008/home/1501085,MLSListings,ML81639045,N,Y,37.2693415,-121.9704944
PAST SALE,April-21-2016,Single Family Residential,4185 Lemoyne Way,CAMPBELL,CA,95008,1150000,4,2.0,CAMPBELL,1520,6089,1964,649,757,,Sold,,,http://www.redfin.com/CA/SAN-JOSE/4185-LEMOYNE-WAY-95130/home/1660011,MLSListings,ML81577893,N,Y,37.28059,-121.97596
PAST SALE,,Single Family Residential,3907 Via Salice,Campbell,CA,95008,1420000,4,2.0,,1735,6480,1962,,818,,,,,http://www.redfin.com/CA/Campbell/3907-Via-Salice-95008/home/1142090,,,N,Y,37.2828615,-121.9696058
PAST SALE,May-11-2016,Single Family Residential,3949 Via Montalvo,CAMPBELL,CA,95008,1200000,3,2.0,CAMPBELL,1458,6300,1968,629,823,,Sold,,,http://www.redfin.com/CA/Campbell/3949-Via-Montalvo-95008/home/1777289,MLSListings,ML81565742,N,Y,37.2850138,-121.9705194
PAST SALE,October-21-2016,Single Family Residential,2085 Arrowood Ln,SAN JOSE,CA,95130,1170000,4,2.0,SAN JOSE,1468,7200,1960,466,797,,Sold,,,http://www.redfin.com/CA/San-Jose/2085-Arrowood-Ln-95130/home/1259341,MLSListings,ML81613386,N,Y,37.2839043,-121.9837169
PAST SALE,,Single Family Residential,4072 Acapulco Dr,Campbell,CA,95008,163500,4,2.0,,1322,5225,1964,,124,,,,,http://www.redfin.com/CA/Campbell/4072-Acapulco-Dr-95008/home/1217249,,,N,Y,37.2808986,-121.9739844
PAST SALE,October-5-2017,Single Family Residential,1235 Lorelei Ct,CAMPBELL,CA,95008,1557000,4,2.0,CAMPBELL,1408,6400,1961,117,1106,,Sold,,,http://www.redfin.com/CA/Campbell/1235-Lorelei-Ct-95008/home/758470,MLSListings,ML81675825,N,Y,37.287743,-121.971733
PAST SALE,April-18-2017,Single Family Residential,4043 Via Cristobal,CAMPBELL,CA,95008,1380000,3,2.0,CAMPBELL,1884,6000,1972,287,732,,Sold,,,http://www.redfin.com/CA/Campbell/4043-Via-Cristobal-95008/home/1740794,MLSListings,ML81641477,N,Y,37.2856301,-121.9733633
PAST SALE,April-12-2017,Single Family Residential,653 Maple Ave,CAMPBELL,CA,95008,1365000,3,2.0,CAMPBELL,2180,9920,2014,293,626,,Sold,,,http://www.redfin.com/CA/Campbell/653-Maple-Ave-95008/home/837655,MLSListings,ML81635797,N,Y,37.2885082,-121.9382864
PAST SALE,May-19-2017,Single Family Residential,1165 Bucknam Ave,CAMPBELL,CA,95008,1250000,3,2.0,CAMPBELL,1528,7936,1960,256,818,,Sold,,,http://www.redfin.com/CA/Campbell/1165-Bucknam-Ave-95008/home/1727265,MLSListings,ML81647158,N,Y,37.2715376,-121.9699813
PAST SALE,April-8-2016,Single Family Residential,1217 Monica Ln,SAN JOSE,CA,95128,1209000,3,2.0,SAN JOSE,1409,6060,1962,662,858,,Sold,,,http://www.redfin.com/CA/San-Jose/1217-Monica-Ln-95128/home/1454331,MLSListings,ML81562093,N,Y,37.304866,-121.9452467
PAST SALE,June-2-2017,Single Family Residential,606 Louise Ct,CAMPBELL,CA,95008,1320000,4,2.0,CAMPBELL,1799,8775,1960,242,734,,Sold,,,http://www.redfin.com/CA/Campbell/606-Louise-Ct-95008/home/1234918,MLSListings,ML81644501,N,Y,37.2783156,-121.9651103
PAST SALE,May-22-2017,Single Family Residential,23 Superior Dr,CAMPBELL,CA,95008,1000000,3,2.0,CAMPBELL,1270,4383,1978,253,787,,Sold,,,http://www.redfin.com/CA/Campbell/23-Superior-Dr-95008/home/1503256,MLSListings,ML81646752,N,Y,37.286519,-121.974471
PAST SALE,August-26-2016,Single Family Residential,1096 Bent Dr,CAMPBELL,CA,95008,1230000,4,2.0,CAMPBELL,1997,7480,1958,522,616,,Sold,,,http://www.redfin.com/CA/Campbell/1096-Bent-Dr-95008/home/1424954,MLSListings,ML81588729,N,Y,37.2829281,-121.9298641
PAST SALE,May-26-2017,Single Family Residential,3823 Bucknall Rd,CAMPBELL,CA,95008,1350000,4,2.0,CAMPBELL,2036,5974,1972,249,663,,Sold,,,http://www.redfin.com/CA/SAN-JOSE/3823-BUCKNALL-RD-95130/home/1356606,MLSListings,ML81640379,N,Y,37.284405,-121.966953
PAST SALE,April-28-2017,Single Family Residential,1603 Walters Ave,CAMPBELL,CA,95008,1190000,4,2.0,CAMPBELL,2022,9086,1938,277,589,,Sold,,,http://www.redfin.com/CA/Campbell/1603-Walters-Ave-95008/home/1659930,MLSListings,ML81641266,N,Y,37.2678497,-121.9782322
PAST SALE,November-30-2016,Single Family Residential,586 Budd Ave,CAMPBELL,CA,95008,1088000,3,2.0,CAMPBELL,1202,11155,1952,426,905,,Sold,,,http://www.redfin.com/CA/Campbell/586-Budd-Ave-95008/home/818704,MLSListings,ML81627622,N,Y,37.2790816,-121.9599768
PAST SALE,,Condo/Co-op,21 N 2nd St Unit 406,Campbell,CA,95008,755000,2,2.0,,1309,,2007,,577,,,,,http://www.redfin.com/CA/Campbell/21-N-2nd-St-95008/unit-406/home/17289179,,,N,Y,37.2874155,-121.9467052
PAST SALE,July-7-2016,Single Family Residential,2485 Stokes St,SAN JOSE,CA,95128,1104000,3,2.0,SAN JOSE,1464,6159,1960,572,754,,Sold,,,http://www.redfin.com/CA/San-Jose/2485-Stokes-St-95128/home/1118278,MLSListings,ML81588557,N,Y,37.3014819,-121.9378232
PAST SALE,September-15-2016,Townhouse,1404 Cherrywood Sq,SAN JOSE,CA,95117,740500,2,2.0,SAN JOSE,1056,1346,1972,502,701,242,Sold,,,http://www.redfin.com/CA/San-Jose/1404-Cherrywood-Sq-95117/home/1662368,MLSListings,ML81599066,N,Y,37.299369,-121.959729
PAST SALE,,Single Family Residential,1242 Maggio Ct,Campbell,CA,95008,1218000,4,2.0,,1850,6161,1978,,658,,,,,http://www.redfin.com/CA/Campbell/1242-Maggio-Ct-95008/home/1326817,,,N,Y,37.2687228,-121.9704379
PAST SALE,June-30-2017,Single Family Residential,2265 Maximilian Dr,CAMPBELL,CA,95008,1355000,4,2.0,CAMPBELL,1486,6000,1962,214,912,,Sold,,,http://www.redfin.com/CA/Campbell/2265-Maximilian-Dr-95008/home/665279,MLSListings,ML81653989,N,Y,37.2800531,-121.9663468
PAST SALE,,Condo/Co-op,1404 Pinehurst Sq,San Jose,CA,95117,725000,2,2.0,,1368,,1972,,530,,,,,http://www.redfin.com/CA/San-Jose/1404-Pinehurst-Sq-95117/home/1201580,,,N,Y,37.29928,-121.960508
PAST SALE,,Single Family Residential,1321 Porgy Ct,San Jose,CA,95128,546955,4,2.0,,1946,12154,1960,,281,,,,,http://www.redfin.com/CA/San-Jose/1321-Porgy-Ct-95128/home/1033873,,,N,Y,37.299969,-121.9379333
PAST SALE,September-28-2016,Single Family Residential,654 Whitethorne Dr,SAN JOSE,CA,95128,893000,3,2.0,SAN JOSE,1162,6381,1963,489,769,,Sold,,,http://www.redfin.com/CA/CAMPBELL/654-WHITETHORNE-DR-95008/home/566784,MLSListings,ML81600014,N,Y,37.300284,-121.938204
PAST SALE,February-14-2017,Townhouse,1383 Millich Ln,SAN JOSE,CA,95117,812000,2,2.0,SAN JOSE,1152,1568,1972,350,705,243,Sold,,,http://www.redfin.com/CA/San-Jose/1383-Millich-Ln-95117/home/1182589,MLSListings,ML81635043,N,Y,37.299715,-121.960166
PAST SALE,April-12-2016,Condo/Co-op,718 Millich Dr Unit A,CAMPBELL,CA,95008,630000,2,2.0,CAMPBELL,1018,1197,1964,658,619,312,Sold,,,http://www.redfin.com/CA/Campbell/718-Millich-Dr-95008/unit-A/home/21859348,MLSListings,ML81561205,N,Y,37.2958887,-121.959503
PAST SALE,June-21-2016,Single Family Residential,421 Century Dr,CAMPBELL,CA,95008,1303421,3,2.0,CAMPBELL,1570,5998,1955,588,830,,Sold,,,http://www.redfin.com/CA/Campbell/421-Century-Dr-95008/home/1660038,MLSListings,ML81583133,N,Y,37.2809242,-121.964601
PAST SALE,March-30-2017,Single Family Residential,1133 Lovell Ave,CAMPBELL,CA,95008,1550000,3,2.0,CAMPBELL,1225,14280,1947,306,1265,,Sold,,,http://www.redfin.com/CA/Campbell/1133-Lovell-Ave-95008/home/1541717,MLSListings,ML81641673,N,Y,37.2726352,-121.9691341
PAST SALE,March-29-2016,Single Family Residential,2386 Loment Ct,SAN JOSE,CA,95124,968000,3,2.0,SAN JOSE,1459,4599,1979,672,663,,Sold,,,http://www.redfin.com/CA/San-Jose/2386-Loment-Ct-95124/home/836654,MLSListings,ML81577556,N,Y,37.2564949,-121.9472462
PAST SALE,February-5-2016,Single Family Residential,2249 Maximilian Dr,CAMPBELL,CA,95008,988000,3,2.0,CAMPBELL,1244,6000,1962,725,794,,Sold,,,http://www.redfin.com/CA/Campbell/2249-Maximilian-Dr-95008/home/1765418,MLSListings,ML81547636,N,Y,37.2805532,-121.9663233
PAST SALE,April-14-2017,Single Family Residential,961 Crockett Ave,CAMPBELL,CA,95008,1320000,3,2.0,CAMPBELL,1243,12158,1961,291,1062,,Sold,,,http://www.redfin.com/CA/Campbell/961-Crockett-Ave-95008/home/1148492,MLSListings,ML81641300,N,Y,37.2730023,-121.9736441
PAST SALE,May-15-2017,Single Family Residential,2424 Verwood Dr,SAN JOSE,CA,95130,1375000,3,2.0,SAN JOSE,1407,5974,1964,260,977,,Sold,,,http://www.redfin.com/CA/San-Jose/2424-Verwood-Dr-95130/home/816215,MLSListings,ML81647155,N,Y,37.2783429,-121.9808934
PAST SALE,March-24-2017,Single Family Residential,1405 Antonio Ln,SAN JOSE,CA,95117,1015000,4,2.0,SAN JOSE,1490,5880,1960,312,681,,Sold,,,http://www.redfin.com/CA/San-Jose/1405-Antonio-Ln-95117/home/1012659,MLSListings,ML81639239,N,Y,37.2988187,-121.9580084
PAST SALE,January-6-2017,Single Family Residential,1997 Mcbain Ave,SAN JOSE,CA,95125,1150000,3,2.0,SAN JOSE,2040,11040,1944,389,564,,Sold,,,http://www.redfin.com/CA/San-Jose/1997-McBain-Ave-95125/home/1603834,MLSListings,ML81628956,N,Y,37.289614,-121.9223498
PAST SALE,August-9-2016,Single Family Residential,899 Scott Ct,CAMPBELL,CA,95008,971000,3,2.0,CAMPBELL,1326,6298,1963,539,732,,Sold,,,http://www.redfin.com/CA/Campbell/899-Scott-Ct-95008/home/1345619,MLSListings,ML81591106,N,Y,37.2686154,-121.9656436
PAST SALE,July-24-2017,Single Family Residential,1195 Cameo Dr,CAMPBELL,CA,95008,1415000,3,2.0,CAMPBELL,1723,8030,1958,190,821,,Sold,,,http://www.redfin.com/CA/Campbell/1195-Cameo-Dr-95008/home/994528,MLSListings,ML81656733,N,Y,37.2825993,-121.9281087
PAST SALE,March-7-2017,Single Family Residential,2451 Neville Ave,SAN JOSE,CA,95130,1310000,3,2.0,SAN JOSE,1322,5974,1964,329,991,,Sold,,,http://www.redfin.com/CA/San-Jose/2451-Neville-Ave-95130/home/1701475,MLSListings,ML81638009,N,Y,37.2780382,-121.98048
PAST SALE,July-25-2017,Single Family Residential,4028 Twyla Ln,CAMPBELL,CA,95008,1368000,3,2.0,CAMPBELL,1538,6380,1970,189,889,,Sold,,,http://www.redfin.com/CA/Campbell/4028-Twyla-Ln-95008/home/598928,MLSListings,ML81667653,N,Y,37.2778396,-121.9726865
PAST SALE,April-14-2017,Single Family Residential,766 Loyalton Dr,CAMPBELL,CA,95008,1548000,4,2.0,CAMPBELL,1954,9100,1962,291,792,,Sold,,,http://www.redfin.com/CA/Campbell/766-Loyalton-Dr-95008/home/1753820,MLSListings,ML81641304,N,Y,37.2748219,-121.9773113
PAST SALE,May-9-2017,Single Family Residential,1054 Longfellow Ave,CAMPBELL,CA,95008,1100000,3,2.0,CAMPBELL,1191,13000,1955,266,924,,Sold,,,http://www.redfin.com/CA/Campbell/1054-Longfellow-Ave-95008/home/1596295,MLSListings,ML81645272,N,Y,37.2619382,-121.9498549
PAST SALE,March-30-2016,Single Family Residential,1767 Willowhurst Ave,SAN JOSE,CA,95125,1225000,3,2.0,SAN JOSE,1906,7000,1940,671,643,,Sold,,,http://www.redfin.com/CA/San-Jose/1767-Willowhurst-Ave-95125/home/1713358,MLSListings,ML81546442,N,Y,37.2936489,-121.9174041
PAST SALE,July-28-2017,Single Family Residential,852 Marilyn Dr,CAMPBELL,CA,95008,1165000,4,2.0,CAMPBELL,1474,6000,1960,186,790,,Sold,,,http://www.redfin.com/CA/Campbell/852-Marilyn-Dr-95008/home/802213,MLSListings,ML81668025,N,Y,37.2743601,-121.9623472
PAST SALE,June-16-2017,Condo/Co-op,3477 Wine Barrel Way,SAN JOSE,CA,95124,670000,2,2.0,SAN JOSE,1052,840,1985,228,637,281,Sold,,,http://www.redfin.com/CA/San-Jose/3477-Wine-Barrel-Way-95124/home/1664040,MLSListings,ML81651275,N,Y,37.2641017,-121.9423447
PAST SALE,November-30-2016,Mobile/Manufactured Home,39 Quail Hollow Dr,SAN JOSE,CA,95128,295000,3,2.0,SAN JOSE,1750,,1976,426,169,,Sold,,,http://www.redfin.com/CA/San-Jose/39-Quail-Hollow-Dr-95128/unit-39/home/21855646,MLSListings,ML81594179,N,Y,37.2984773,-121.9323933
PAST SALE,,Townhouse,357 W Rincon Ave,Campbell,CA,95008,930000,3,2.0,,1665,1176,1981,,559,,,,,http://www.redfin.com/CA/Campbell/357-W-Rincon-Ave-95008/home/1083448,,,N,Y,37.2855845,-121.9564925
PAST SALE,August-24-2017,Single Family Residential,828 Sunnypark Ct,CAMPBELL,CA,95008,1010000,3,2.0,CAMPBELL,1222,3915,1972,159,827,26,Sold,,,http://www.redfin.com/CA/Campbell/828-Sunnypark-Ct-95008/home/1427319,MLSListings,ML81669332,N,Y,37.2708045,-121.963663
PAST SALE,,Townhouse,1165 Smith Ave,Campbell,CA,95008,705000,2,2.0,,1288,1701,1984,,547,,,,,http://www.redfin.com/CA/Campbell/1165-Smith-Ave-95008/home/1184447,,,N,Y,37.2742114,-121.969852
PAST SALE,June-7-2017,Condo/Co-op,300 Union #23,CAMPBELL,CA,95008,630000,2,2.0,CAMPBELL,1127,1127,1979,237,559,328,Sold,,,http://www.redfin.com/CA/Campbell/300-Union-Ave-95008/unit-23/home/824551,MLSListings,ML81647211,N,Y,37.282469,-121.935215
PAST SALE,May-16-2017,Condo/Co-op,862 Apricot Ave Unit D,CAMPBELL,CA,95008,730000,2,2.0,CAMPBELL,1065,1100,1982,259,685,340,Sold,,,http://www.redfin.com/CA/Campbell/862-Apricot-Ave-95008/unit-D/home/1098387,MLSListings,ML81646559,N,Y,37.283299,-121.933942
PAST SALE,September-15-2017,Condo/Co-op,131 Union Ave Unit H,CAMPBELL,CA,95008,762000,2,2.0,CAMPBELL,1346,768,1983,137,566,372,Sold,,,http://www.redfin.com/CA/Campbell/131-Union-Ave-95008/unit-H/home/1151782,MLSListings,ML81673956,N,Y,37.2850814,-121.9359025
PAST SALE,September-12-2017,Townhouse,143 Gilman Ave,CAMPBELL,CA,95008,1000000,2,2.0,CAMPBELL,1402,1466,2004,140,713,215,Sold,,,http://www.redfin.com/CA/Campbell/143-Gilman-Ave-95008/home/687359,MLSListings,ML81672252,N,Y,37.2852265,-121.9411788
PAST SALE,,Condo/Co-op,3492 Wine Barrel Way,San Jose,CA,95124,610000,2,2.0,,960,,1985,,635,,,,,http://www.redfin.com/CA/San-Jose/3492-Wine-Barrel-Way-95124/home/1244953,,,N,Y,37.2637411,-121.9421333
PAST SALE,June-21-2016,Mobile/Manufactured Home,9 LA PALOMA,CAMPBELL,CA,95008,314000,2,2.0,CAMPBELL,1140,,1967,588,275,,Sold,,,http://www.redfin.com/CA/Campbell/9-La-Paloma-95008/unit-9/home/41393976,MLSListings,ML81584107,N,Y,37.2817933,-121.9386494
PAST SALE,May-24-2017,Mobile/Manufactured Home,87 La Paz,CAMPBELL,CA,95008,279000,2,2.0,CAMPBELL,1440,,1968,251,194,,Sold,,,http://www.redfin.com/CA/Campbell/87-La-Paz-95008/home/113858193,MLSListings,ML81649656,N,Y,37.2815027,-121.9400351
PAST SALE,May-10-2017,Mobile/Manufactured Home,83 La Paz,CAMPBELL,CA,95008,279000,2,2.0,CAMPBELL,1120,,1968,265,249,,Sold,,,http://www.redfin.com/CA/Campbell/83-La-Paz-95008/unit-83/home/63743070,MLSListings,ML81643552,N,Y,37.2817634,-121.9400166
PAST SALE,June-26-2017,Mobile/Manufactured Home,1 Timbercove Dr #1,CAMPBELL,CA,95008,261000,3,2.0,CAMPBELL,1111,,2007,218,235,,Sold,,,http://www.redfin.com/CA/Campbell/1-Timber-Cove-Dr-95008/unit-1/home/113899338,MLSListings,ML81651078,N,Y,37.2760061,-121.9478924
PAST SALE,August-25-2017,Single Family Residential,3795 Bucknall Rd,CAMPBELL,CA,95008,1315000,3,2.0,CAMPBELL,1607,10396,1972,158,818,,Sold,,,http://www.redfin.com/CA/Campbell/3795-Bucknall-Rd-95008/home/1701478,MLSListings,ML81667823,N,Y,37.284411,-121.9658831
PAST SALE,,Single Family Residential,312 Redding Rd,Campbell,CA,95008,939000,2,2.0,,1093,4175,2009,,859,,,,,http://www.redfin.com/CA/Campbell/312-Redding-Rd-95008/home/28895396,,,N,Y,37.2649696,-121.9434082
PAST SALE,July-21-2017,Single Family Residential,1095 Arroyo Seco Dr,CAMPBELL,CA,95008,1305000,3,2.0,CAMPBELL,1510,8190,1957,193,864,,Sold,,,http://www.redfin.com/CA/Campbell/1095-Arroyo-Seco-Dr-95008/home/1280175,MLSListings,ML81656926,N,Y,37.2862258,-121.9299353
PAST SALE,March-4-2016,Single Family Residential,383 Virginia Ave,CAMPBELL,CA,95008,1025000,3,2.0,CAMPBELL,1530,8300,1955,697,670,,Sold,,,http://www.redfin.com/CA/Campbell/383-Virginia-Ave-95008/home/773051,MLSListings,ML81548736,N,Y,37.2815111,-121.9629747
PAST SALE,September-12-2017,Single Family Residential,224 Warwick Dr,CAMPBELL,CA,95008,1560000,4,2.0,CAMPBELL,1832,6111,1958,140,852,,Sold,,,http://www.redfin.com/CA/Campbell/224-Warwick-Dr-95008/home/758893,MLSListings,ML81673348,N,Y,37.2898225,-121.9678296
PAST SALE,June-22-2016,Mobile/Manufactured Home,31 LaPaloma,CAMPBELL,CA,95008,300000,2,2.0,CAMPBELL,1440,,1968,587,208,450,Sold,,,http://www.redfin.com/CA/Campbell/31-La-Paloma-95008/home/104224989,MLSListings,ML81566328,N,Y,37.2803435,-121.9387544
PAST SALE,April-21-2017,Mobile/Manufactured Home,52 PALOMAR REAL,CAMPBELL,CA,95008,259900,2,2.0,CAMPBELL,1080,,1965,284,241,,Sold,,,http://www.redfin.com/CA/Campbell/52-Palomar-Real-95008/home/105235307,MLSListings,ML81633669,N,Y,37.2817639,-121.9396634
PAST SALE,March-23-2017,Single Family Residential,1204 Fewtrell Dr,CAMPBELL,CA,95008,1180000,3,2.0,CAMPBELL,2240,8040,1953,313,527,,Sold,,,http://www.redfin.com/CA/Campbell/1204-Fewtrell-Dr-95008/home/1199044,MLSListings,ML81635161,N,Y,37.2876142,-121.9280776
PAST SALE,July-6-2016,Single Family Residential,1330 S Baywood Ave,CAMPBELL,CA,95008,1130000,3,2.0,CAMPBELL,1671,9639,1959,573,676,,Sold,,,http://www.redfin.com/CA/CAMPBELL/1330-S-Baywood-Ave-95008/home/106160267,MLSListings,ML81589257,N,Y,37.3068,-121.9452
PAST SALE,July-20-2017,Single Family Residential,1173 Shamrock Dr,CAMPBELL,CA,95008,1150000,3,2.0,CAMPBELL,2191,8100,1953,194,525,,Sold,,,http://www.redfin.com/CA/Campbell/1173-Shamrock-Dr-95008/home/1295157,MLSListings,ML81656275,N,Y,37.2699572,-121.9446433
PAST SALE,July-31-2017,Single Family Residential,116 Calado,CAMPBELL,CA,95008,1456000,3,2.0,CAMPBELL,1372,8000,1956,183,1061,,Sold,,,http://www.redfin.com/CA/Campbell/116-Calado-Ave-95008/home/1075054,MLSListings,ML81667953,N,Y,37.2879271,-121.9773512
PAST SALE,July-27-2017,Single Family Residential,1101 Shamrock Dr,CAMPBELL,CA,95008,910000,4,2.0,CAMPBELL,1468,9234,1955,187,620,,Sold,,,http://www.redfin.com/CA/Campbell/1101-Shamrock-Dr-95008/home/827911,MLSListings,ML81647637,N,Y,37.2711663,-121.9450427
PAST SALE,October-27-2016,Condo/Co-op,856 Apricot Ave Unit B,CAMPBELL,CA,95008,610000,2,2.0,CAMPBELL,1065,1100,1982,460,573,304,Sold,,,http://www.redfin.com/CA/Campbell/856-Apricot-Ave-95008/unit-B/home/824571,MLSListings,ML81613651,N,Y,37.283327,-121.934297
PAST SALE,August-9-2017,Condo/Co-op,966 Apricot Ave,CAMPBELL,CA,95008,730000,2,2.0,CAMPBELL,1027,903,1984,174,711,250,Sold,,,http://www.redfin.com/CA/Campbell/966-Apricot-Ave-95008/home/1697667,MLSListings,ML81670375,N,Y,37.283084,-121.932829
