SALE TYPE,SOLD DATE,PROPERTY TYPE,ADDRESS,CITY,STATE,ZIP,PRICE,BEDS,BATHS,LOCATION,SQUARE FEET,LOT SIZE,YEAR BUILT,DAYS ON MARKET,$/SQUARE FEET,HOA/MONTH,STATUS,NEXT OPEN HOUSE START TIME,NEXT OPEN HOUSE END TIME,URL (SEE http://www.redfin.com/buy-a-home/comparative-market-analysis FOR INFO ON PRICING),SOURCE,MLS#,FAVORITE,INTERESTED,LATITUDE,LONGITUDE
PAST SALE,August-19-2016,Condo/Co-op,715 Williamsburg Way Unit C,GILROY,CA,95020,330000,1,1.0,GILROY,921,436,1985,529,358,251,Sold,,,http://www.redfin.com/CA/Gilroy/715-Williamsburg-Way-95020/unit-C/home/720450,MLSListings,ML81591915,N,Y,36.998693,-121.575404
PAST SALE,February-23-2016,Single Family Residential,7500 Miller Ave,GILROY,CA,95020,485000,2,1.0,GILROY,950,4272,1940,707,511,,Sold,,,http://www.redfin.com/CA/Gilroy/7500-Miller-Ave-95020/home/1157932,MLSListings,ML81546194,N,Y,37.0050635,-121.5816374
PAST SALE,September-7-2016,Single Family Residential,0 Magic Spring Dr,GILROY,CA,95020,125000,1,1.0,GILROY,749,91619,1930,510,167,,Sold,,,http://www.redfin.com/CA/Gilroy/301-1st-St-95020/home/56480941,MLSListings,ML81587308,N,Y,37.0138731,-121.5763627
PAST SALE,,Single Family Residential,7750 Eigleberry St,Gilroy,CA,95020,442000,3,1.0,,1032,8700,1900,,428,,,,,http://www.redfin.com/CA/Gilroy/7750-Eigleberry-St-95020/home/1032883,,,N,Y,37.0121219,-121.5721452
PAST SALE,December-29-2017,Single Family Residential,7821 Isabella Way,GILROY,CA,95020,440000,1,1.0,GILROY,818,818,2004,32,538,235,Sold,,,http://www.redfin.com/CA/Gilroy/Isabella-Way-95020/home/1787626,MLSListings,ML81684978,N,Y,37.011334,-121.601611
PAST SALE,October-7-2016,Single Family Residential,341 W 6th St,GILROY,CA,95020,500000,3,1.0,GILROY,1286,9748,1900,480,389,,Sold,,,http://www.redfin.com/CA/Gilroy/341-W-6th-St-95020/home/932630,MLSListings,ML81599110,N,Y,37.0057071,-121.5733572
PAST SALE,July-22-2016,Single Family Residential,680 El Toro Way,GILROY,CA,95020,520100,3,1.0,GILROY,1120,5998,1953,557,464,,Sold,,,http://www.redfin.com/CA/Gilroy/680-El-Toro-Way-95020/home/1435999,MLSListings,ML81590191,N,Y,37.0165821,-121.5826567
PAST SALE,October-24-2017,Single Family Residential,171 Ronan Ave,GILROY,CA,95020,555555,3,1.0,GILROY,988,19240,1935,98,562,,Sold,,,http://www.redfin.com/CA/Gilroy/171-Ronan-Ave-95020/home/1190256,MLSListings,ML81674023,N,Y,37.0254093,-121.5802986
PAST SALE,March-30-2016,Multi-Family (2-4 Unit),7840 Church St,GILROY,CA,95020,637500,6,,GILROY,929,7126,1922,671,686,,Sold,,,http://www.redfin.com/CA/Gilroy/7840-Church-St-95020/home/867035,MLSListings,ML81561346,N,Y,37.013173,-121.573931
PAST SALE,,Single Family Residential,335 Walnut Ln,Gilroy,CA,95020,180000,3,1.0,,1332,7125,1953,,135,,,,,http://www.redfin.com/CA/Gilroy/335-Walnut-Ln-95020/home/1452492,,,N,Y,37.0141239,-121.5661385
PAST SALE,June-27-2016,Single Family Residential,2115 Dunlap Ave,GILROY,CA,95020,775000,2,1.0,GILROY,998,607663,1963,582,777,,Sold,,,http://www.redfin.com/CA/Gilroy/2115-Dunlap-Ave-95020/home/45474612,MLSListings,ML81547546,N,Y,37.025065,-121.535833
PAST SALE,February-22-2017,Mobile/Manufactured Home,8282 Murray Ave #112,GILROY,CA,95020,149500,2,1.0,GILROY,880,,1989,342,170,,Sold,,,http://www.redfin.com/CA/Gilroy/8282-Murray-Ave-95020/unit-112/home/59031345,MLSListings,ML81631539,N,Y,37.0175241,-121.5680239
PAST SALE,January-27-2017,Condo/Co-op,8155 Westwood Dr #1,GILROY,CA,95020,309000,2,1.0,GILROY,826,1125,1979,368,374,225,Sold,,,http://www.redfin.com/CA/Gilroy/8155-Westwood-Dr-95020/unit-1/home/1318398,MLSListings,ML81631392,N,Y,37.0147179,-121.5942399
PAST SALE,January-26-2017,Single Family Residential,10825 1st St,GILROY,CA,95020,569000,3,1.0,GILROY,1150,13499,1948,369,495,,Sold,,,http://www.redfin.com/CA/Gilroy/10825-1st-St-95020/home/1732932,MLSListings,ML81629606,N,Y,37.0542279,-121.5919958
PAST SALE,August-5-2016,Single Family Residential,8190 Carmel St,GILROY,CA,95020,500000,3,1.0,GILROY,864,8681,1952,543,579,,Sold,,,http://www.redfin.com/CA/Gilroy/8190-Carmel-St-95020/home/1234206,MLSListings,ML81580686,N,Y,37.0160953,-121.5808017
PAST SALE,November-2-2017,Condo/Co-op,1271 Juniper Dr #7,GILROY,CA,95020,345000,2,1.0,GILROY,742,,1976,89,465,135,Sold,,,http://www.redfin.com/CA/Gilroy/1271-Juniper-Dr-95020/unit-7/home/1750538,MLSListings,ML81679263,N,Y,37.011444,-121.596175
PAST SALE,,Single Family Residential,7950 Princevalle St,Gilroy,CA,95020,525000,2,1.0,,1100,6650,1941,,477,,,,,http://www.redfin.com/CA/Gilroy/7950-Princevalle-St-95020/home/1490862,,,N,Y,37.0128009,-121.5806093
PAST SALE,July-20-2017,Multi-Family (2-4 Unit),188 Lewis St,GILROY,CA,95020,690000,4,,GILROY,1419,6624,1900,194,486,,Sold,,,http://www.redfin.com/CA/Gilroy/188-Lewis-St-95020/home/1380670,MLSListings,ML81651992,N,Y,37.0101155,-121.5676965
PAST SALE,August-18-2016,Single Family Residential,1501 Bianca Way,GILROY,CA,95020,304500,1,1.0,GILROY,800,801,2003,530,381,215,Sold,,,http://www.redfin.com/CA/Gilroy/1501-Bianca-Way-95020/home/559881,MLSListings,ML81593815,N,Y,37.010394,-121.600365
PAST SALE,January-23-2017,Single Family Residential,7260 Alexander St,GILROY,CA,95020,325000,2,1.0,GILROY,608,4402,1900,372,535,,Sold,,,http://www.redfin.com/CA/Gilroy/7260-Alexander-St-95020/home/1172125,MLSListings,ML81587629,N,Y,37.0052834,-121.5650184
PAST SALE,,Single Family Residential,7760 Forest St,Gilroy,CA,95020,131000,2,1.0,,1450,8520,1953,,90,,,,,http://www.redfin.com/CA/Gilroy/7760-Forest-St-95020/home/752723,,,N,Y,37.0133223,-121.5672279
PAST SALE,April-29-2016,Single Family Residential,7521 Dowdy St,GILROY,CA,95020,560000,2,1.0,GILROY,1206,7000,1922,641,464,,Sold,,,http://www.redfin.com/CA/Gilroy/7521-Dowdy-St-95020/home/1022433,MLSListings,ML81564960,N,Y,37.0071473,-121.5759989
PAST SALE,November-21-2017,Condo/Co-op,7598 Monterey St #330,GILROY,CA,95020,302000,1,1.0,GILROY,762,435,2006,70,396,322,Sold,,,http://www.redfin.com/CA/Gilroy/7598-Monterey-Rd-95020/unit-330/home/12181753,MLSListings,ML81672256,N,Y,37.0094787,-121.5696882
PAST SALE,September-7-2017,Single Family Residential,7810 Church St,GILROY,CA,95020,551000,2,1.0,GILROY,984,3612,1922,145,560,,Sold,,,http://www.redfin.com/CA/Gilroy/7810-Church-St-95020/home/1022144,MLSListings,ML81672179,N,Y,37.0127774,-121.5738726
PAST SALE,January-20-2017,Single Family Residential,3245 Roop Rd,GILROY,CA,95020,1950000,1,1.0,GILROY,550,901256,1950,375,3545,,Sold,,,http://www.redfin.com/CA/Gilroy/3245-Roop-Rd-95020/home/108324092,MLSListings,ML81595191,N,Y,37.0510373,-121.5284575
PAST SALE,June-12-2017,Single Family Residential,8664 Lilly Ave,GILROY,CA,95020,485000,2,1.0,GILROY,991,3850,1972,232,489,,Sold,,,http://www.redfin.com/CA/Gilroy/8664-Lilly-Ave-95020/home/1572370,MLSListings,ML81650731,N,Y,37.0236448,-121.5782357
PAST SALE,September-27-2017,Single Family Residential,237 Carlyle Ct,GILROY,CA,95020,550000,3,1.0,GILROY,1123,4400,1972,125,490,,Sold,,,http://www.redfin.com/CA/Gilroy/237-Carlyle-Ct-95020/home/1023126,MLSListings,ML81673935,N,Y,37.0247462,-121.5805834
PAST SALE,March-23-2016,Single Family Residential,7361 Carmel St,GILROY,CA,95020,562500,3,1.0,GILROY,1516,9177,1951,678,371,,Sold,,,http://www.redfin.com/CA/Gilroy/7361-Carmel-St-95020/home/1853196,MLSListings,ML81547664,N,Y,37.00397,-121.5759184
PAST SALE,September-12-2017,Single Family Residential,8221 Hanna St,GILROY,CA,95020,630000,3,1.0,GILROY,1132,9380,1953,140,557,,Sold,,,http://www.redfin.com/CA/Gilroy/8221-Hanna-St-95020/home/1696546,MLSListings,ML81674001,N,Y,37.0169053,-121.5790112
PAST SALE,August-28-2017,Single Family Residential,8661 Lilly Ave,GILROY,CA,95020,560000,3,1.0,GILROY,1123,4400,1972,155,499,,Sold,,,http://www.redfin.com/CA/Gilroy/8661-Lilly-Ave-95020/home/1022924,MLSListings,ML81671859,N,Y,37.0233854,-121.5787716
PAST SALE,July-10-2017,Single Family Residential,7561 Miller Ave,GILROY,CA,95020,620000,3,1.0,GILROY,1118,10241,1952,204,555,,Sold,,,http://www.redfin.com/CA/Gilroy/7561-Miller-Ave-95020/home/1372826,MLSListings,ML81652937,N,Y,37.0058302,-121.5821428
PAST SALE,October-27-2016,Single Family Residential,7160 Rosanna St,GILROY,CA,95020,460000,3,1.0,GILROY,1528,7348,1961,460,301,,Sold,,,http://www.redfin.com/CA/Gilroy/7160-Rosanna-St-95020/home/2124962,MLSListings,ML81601374,N,Y,37.0014979,-121.5700426
PAST SALE,June-10-2016,Single Family Residential,8118 Oak Ct,GILROY,CA,95020,580000,3,1.0,GILROY,1164,16146,1951,599,498,,Sold,,,http://www.redfin.com/CA/Gilroy/8118-Oak-Ct-95020/home/1288631,MLSListings,ML81565574,N,Y,37.0153421,-121.5773367
PAST SALE,,Single Family Residential,7459 Alexander St,Gilroy,CA,95020,154000,3,2.0,,1622,6850,1928,,95,,,,,http://www.redfin.com/CA/Gilroy/7459-Alexander-St-95020/home/1869288,,,N,Y,37.008201,-121.566934
PAST SALE,June-23-2016,Single Family Residential,7558 Chestnut St,GILROY,CA,95020,250000,0,,GILROY,800,8102,1900,586,313,,Sold,,,http://www.redfin.com/CA/Gilroy/7558-Chestnut-St-95020/home/1162582,MLSListings,ML81584955,N,Y,37.0104566,-121.5645404
PAST SALE,February-19-2016,Single Family Residential,6880 Magic Springs Dr,GILROY,CA,95020,170000,1,1.0,GILROY,900,47441,1940,711,189,,Sold,,,http://www.redfin.com/CA/Gilroy/6880-Magic-Springs-Rd-95020/home/17293256,MLSListings,ML81521303,N,Y,36.985107,-121.687679
PAST SALE,September-23-2016,Single Family Residential,7541 Dowdy St,GILROY,CA,95020,557500,2,1.0,GILROY,1220,7000,1932,494,457,,Sold,,,http://www.redfin.com/CA/Gilroy/7541-Dowdy-St-95020/home/1022423,MLSListings,ML81591925,N,Y,37.0074141,-121.5761199
PAST SALE,,Single Family Residential,490 Polk Ct,Gilroy,CA,95020,174000,3,1.0,,1200,5022,1977,,145,,,,,http://www.redfin.com/CA/Gilroy/490-Polk-Ct-95020/home/1029916,,,N,Y,37.016432,-121.5653196
PAST SALE,,Single Family Residential,7551 Carmel St,Gilroy,CA,95020,452000,4,1.0,,1630,7315,1930,,277,,,,,http://www.redfin.com/CA/Gilroy/7551-Carmel-St-95020/home/1023175,,,N,Y,37.0071654,-121.5773819
PAST SALE,July-22-2016,Condo/Co-op,775 Williamsburg Way Unit C,GILROY,CA,95020,333000,1,1.0,GILROY,921,1180,1985,557,362,251,Sold,,,http://www.redfin.com/CA/Gilroy/775-Williamsburg-Way-95020/unit-C/home/1002714,MLSListings,ML81577754,N,Y,36.998223,-121.577018
PAST SALE,August-25-2017,Mobile/Manufactured Home,8282 Murray Ave,GILROY,CA,95020,84500,1,1.0,GILROY,695,,1979,158,122,,Sold,,,http://www.redfin.com/CA/Gilroy/8282-Murray-Ave-95020/unit-41/home/591404,MLSListings,ML81667934,N,Y,37.0175241,-121.5680239
PAST SALE,,Condo/Co-op,1555 Hecker Pass Rd Apt F101,Gilroy,CA,95020,340000,2,1.0,,961,,1985,,354,,,,,http://www.redfin.com/CA/Gilroy/1555-Hecker-Pass-Rd-95020/unit-F101/home/1019680,,,N,Y,37.013737,-121.600859
PAST SALE,,Single Family Residential,7341 Maple St,Gilroy,CA,95020,475000,2,1.0,,855,7500,1920,,556,,,,,http://www.redfin.com/CA/Gilroy/7341-Maple-St-95020/home/1238466,,,N,Y,37.0076167,-121.5625249
PAST SALE,,Single Family Residential,7272 Rosanna St,Gilroy,CA,95020,102500,3,1.0,,928,4500,1906,,110,,,,,http://www.redfin.com/CA/Gilroy/7272-Rosanna-St-95020/home/1111321,,,N,Y,37.0037507,-121.5711414
PAST SALE,October-19-2016,Single Family Residential,7567 Forest St,GILROY,CA,95020,440000,2,1.0,GILROY,936,5963,1939,468,470,,Sold,,,http://www.redfin.com/CA/Gilroy/7567-Forest-St-95020/home/1490984,MLSListings,ML81612166,N,Y,37.0101472,-121.5663302
PAST SALE,September-9-2017,Single Family Residential,414 E 6th St,GILROY,CA,95020,509000,2,1.0,GILROY,802,4730,1920,143,635,,Sold,,,http://www.redfin.com/CA/Gilroy/414-E-6th-St-95020/home/1573646,MLSListings,ML81669281,N,Y,37.0080781,-121.5635593
PAST SALE,,Single Family Residential,50 Monte Vista Way,Gilroy,CA,95020,670000,2,1.0,,820,6560,1941,,817,,,,,http://www.redfin.com/CA/Gilroy/50-Monte-Vista-Way-95020/home/1093631,,,N,Y,37.0060848,-121.5800322
PAST SALE,May-10-2017,Single Family Residential,2743 Ferguson Rd,GILROY,CA,95020,820000,2,1.0,GILROY,990,393346,1960,265,828,,Sold,,,http://www.redfin.com/CA/Gilroy/2743-Ferguson-Rd-95020/home/12341119,MLSListings,ML81637565,N,Y,37.016605,-121.518692
PAST SALE,November-4-2016,Townhouse,715 Williamsburg Way Unit D,GILROY,CA,95020,330000,1,1.0,GILROY,921,436,1985,452,358,251,Sold,,,http://www.redfin.com/CA/Gilroy/715-Williamsburg-Way-95020/unit-D/home/605232,MLSListings,ML81613170,N,Y,36.998693,-121.575404
PAST SALE,September-18-2017,Single Family Residential,7000 Hanna St,GILROY,CA,95020,535000,3,1.0,GILROY,930,7000,1954,134,575,,Sold,,,http://www.redfin.com/CA/Gilroy/7000-Hanna-St-95020/home/761943,MLSListings,ML81672870,N,Y,36.999149,-121.5704114
PAST SALE,,Condo/Co-op,1221 Juniper Dr,Gilroy,CA,95020,330000,2,1.0,,864,,1973,,382,,,,,http://www.redfin.com/CA/Gilroy/1221-Juniper-Dr-95020/home/1512874,,,N,Y,37.0114769,-121.5946791
PAST SALE,,Single Family Residential,11150 Guibal Ave,Gilroy,CA,95020,735000,3,1.0,,1219,218671,1982,,603,,,,,http://www.redfin.com/CA/Gilroy/11150-Guibal-Ave-95020/home/1464226,,,N,Y,37.069691,-121.56115
PAST SALE,July-26-2016,Other,395 Lewis St,GILROY,CA,95020,450000,,,GILROY,,45700,,553,,,Sold,,,http://www.redfin.com/CA/Gilroy/395-Lewis-St-95020/home/1111447,MLSListings,ML81546504,N,Y,37.011163,-121.5654107
PAST SALE,,Single Family Residential,7851 Princevalle St,Gilroy,CA,95020,237500,3,1.0,,1592,9120,1951,,149,,,,,http://www.redfin.com/CA/Gilroy/7851-Princevalle-St-95020/home/1733882,,,N,Y,37.011628,-121.5807175
PAST SALE,March-23-2017,Condo/Co-op,1231 Juniper Dr Unit C,GILROY,CA,95020,320000,2,1.0,GILROY,864,864,1973,313,370,365,Sold,,,http://www.redfin.com/CA/Gilroy/1231-Juniper-Dr-95020/unit-C/home/1033022,MLSListings,ML81637289,N,Y,37.01155,-121.5949879
PAST SALE,,Single Family Residential,8658 Lilly Ave,Gilroy,CA,95020,120100,3,1.0,,1123,3995,1972,,107,,,,,http://www.redfin.com/CA/Gilroy/8658-Lilly-Ave-95020/home/1380468,,,N,Y,37.0232918,-121.5782722
PAST SALE,May-12-2017,Condo/Co-op,1221 Juniper Dr Unit E,GILROY,CA,95020,330000,2,1.0,GILROY,864,864,1973,263,382,365,Sold,,,http://www.redfin.com/CA/Gilroy/1221-Juniper-Dr-95020/unit-E/home/105497817,MLSListings,ML81645989,N,Y,37.0114769,-121.5946791
PAST SALE,,Single Family Residential,9435 Kern Ave,Gilroy,CA,95020,633500,2,1.0,,960,22800,1935,,660,,,,,http://www.redfin.com/CA/Gilroy/9435-Kern-Ave-95020/home/1772931,,,N,Y,37.030661,-121.591122
PAST SALE,,Single Family Residential,7210 Holsclaw Rd,Gilroy,CA,95020,85000,3,1.0,,1004,9300,1950,,85,,,,,http://www.redfin.com/CA/Gilroy/7210-Holsclaw-Rd-95020/home/727496,,,N,Y,37.0125523,-121.5388384
PAST SALE,,Single Family Residential,425 E 7th St,Gilroy,CA,95020,505000,3,1.0,,1360,12750,1915,,371,,,,,http://www.redfin.com/CA/Gilroy/425-E-7th-St-95020/home/1111466,,,N,Y,37.0070394,-121.5625465
PAST SALE,November-27-2017,Mobile/Manufactured Home,8282 Murray Ave #107,GILROY,CA,95020,125000,2,1.0,GILROY,832,,2001,64,150,,Sold,,,http://www.redfin.com/CA/Gilroy/8282-Murray-Ave-95020/unit-107/home/17495599,MLSListings,ML81656889,N,Y,37.0175241,-121.5680239
PAST SALE,February-2-2017,Single Family Residential,231 Old Gilroy St,GILROY,CA,95020,375000,1,1.0,GILROY,770,6946,1938,362,487,,Sold,,,http://www.redfin.com/CA/Gilroy/231-Old-Gilroy-St-95020/home/1225494,MLSListings,ML81633061,N,Y,37.0061113,-121.5652202
PAST SALE,,Single Family Residential,7370 Maple St,Gilroy,CA,95020,189000,4,2.0,,1981,13020,1920,,95,,,,,http://www.redfin.com/CA/Gilroy/7370-Maple-St-95020/home/1028865,,,N,Y,37.0081884,-121.5621146
PAST SALE,September-15-2017,Condo/Co-op,8155 Westwood Dr #8,GILROY,CA,95020,342000,1,1.0,GILROY,722,1125,1979,137,474,250,Sold,,,http://www.redfin.com/CA/Gilroy/8155-Westwood-Dr-95020/unit-8/home/1021479,MLSListings,ML81671940,N,Y,37.0147179,-121.5942399
PAST SALE,,Single Family Residential,625 Tatum Ave,Gilroy,CA,95020,660000,2,1.0,,1034,48240,1932,,638,,,,,http://www.redfin.com/CA/Gilroy/625-Tatum-Ave-95020/home/1434131,,,N,Y,37.027516,-121.589463
PAST SALE,,Single Family Residential,6595 Monterey Rd,Gilroy,CA,95020,1000000,3,1.0,,2257,74522,1950,,443,,,,,http://www.redfin.com/CA/Gilroy/6595-Monterey-Rd-95020/home/1620452,,,N,Y,36.9949265,-121.5640966
PAST SALE,March-22-2016,Single Family Residential,350 E 8th St,GILROY,CA,95020,450000,3,1.0,GILROY,1251,8520,1961,679,360,,Sold,,,http://www.redfin.com/CA/Gilroy/350-E-8th-St-95020/home/1773138,MLSListings,ML81550282,N,Y,37.0045021,-121.5629925
PAST SALE,June-10-2016,Single Family Residential,7381 Furlong Ave,GILROY,CA,95020,700000,3,1.0,GILROY,1206,156206,1970,599,580,,Sold,,,http://www.redfin.com/CA/Gilroy/7381-Furlong-Ave-95020/home/104487608,MLSListings,ML81577781,N,Y,37.0173345,-121.5310423
PAST SALE,October-6-2016,Single Family Residential,611 El Cerrito Way,GILROY,CA,95020,450000,3,1.0,GILROY,1092,6198,1953,481,412,,Sold,,,http://www.redfin.com/CA/Gilroy/611-El-Cerrito-Way-95020/home/1395272,MLSListings,ML81614394,N,Y,37.0164616,-121.5816942
PAST SALE,July-22-2016,Multi-Family (2-4 Unit),7174 Rosanna St,GILROY,CA,95020,948000,8,,GILROY,3308,7901,1993,557,287,,Sold,,,http://www.redfin.com/CA/Gilroy/7174-Rosanna-St-95020/home/1772982,MLSListings,ML81583855,N,Y,37.001754,-121.570094
PAST SALE,April-21-2017,Single Family Residential,7270 Alexander St,GILROY,CA,95020,350000,3,1.0,GILROY,811,4681,1900,284,432,,Sold,,,http://www.redfin.com/CA/Gilroy/7270-Alexander-St-95020/home/1367155,MLSListings,ML81587621,N,Y,37.0053889,-121.5649878
PAST SALE,November-16-2016,Single Family Residential,2890 Roop Rd,GILROY,CA,95020,880000,2,1.0,GILROY,1260,98737,1969,440,698,,Sold,,,http://www.redfin.com/CA/Gilroy/2890-Roop-Rd-95020/home/727468,MLSListings,ML81612804,N,Y,37.046138,-121.533007
PAST SALE,,Single Family Residential,209 Martin St,Gilroy,CA,95020,201000,4,1.0,,1314,5970,1896,,153,,,,,http://www.redfin.com/CA/Gilroy/209-Martin-St-95020/home/1512907,,,N,Y,37.0090246,-121.5666684
PAST SALE,May-2-2016,Single Family Residential,7380 Dowdy St,GILROY,CA,95020,420000,2,1.0,GILROY,940,7000,1945,638,447,,Sold,,,http://www.redfin.com/CA/Gilroy/7380-Dowdy-St-95020/home/1547073,MLSListings,ML81583358,N,Y,37.0047655,-121.5743192
PAST SALE,February-29-2016,Single Family Residential,410 GAVILAN Ct,GILROY,CA,95020,515000,3,1.0,GILROY,1120,5663,1971,701,460,,Sold,,,http://www.redfin.com/CA/Gilroy/410-Gavilan-Ct-95020/home/858511,MLSListings,ML81534449,N,Y,37.0262531,-121.5713114
PAST SALE,,Single Family Residential,10920 Center Ave,Gilroy,CA,95020,650000,3,1.0,,1423,24960,1948,,457,,,,,http://www.redfin.com/CA/Gilroy/10920-Center-Ave-95020/home/1788781,,,N,Y,37.0630967,-121.5699558
PAST SALE,March-23-2016,Single Family Residential,7640 Forest St,GILROY,CA,95020,418100,3,1.0,GILROY,654,7987,1960,678,639,,Sold,,,http://www.redfin.com/CA/Gilroy/7640-Forest-St-95020/home/952733,MLSListings,ML81518016,N,Y,37.0115888,-121.5662647
PAST SALE,,Single Family Residential,7461 Chestnut St,Gilroy,CA,95020,265000,3,1.0,,1783,7100,1900,,149,,,,,http://www.redfin.com/CA/Gilroy/7461-Chestnut-St-95020/home/1572410,,,N,Y,37.0089336,-121.5644516
PAST SALE,,Condo/Co-op,8155 Westwood Dr Apt 21,Gilroy,CA,95020,370000,2,1.0,,826,,1979,,448,,,,,http://www.redfin.com/CA/Gilroy/8155-Westwood-Dr-95020/unit-21/home/1242249,,,N,Y,37.0147179,-121.5942399
PAST SALE,,Single Family Residential,7861 Church St,Gilroy,CA,95020,575000,2,1.0,,1370,7000,1912,,420,,,,,http://www.redfin.com/CA/Gilroy/7861-Church-St-95020/home/1093578,,,N,Y,37.0134024,-121.5747996
PAST SALE,March-22-2017,Condo/Co-op,1231 Juniper Dr Unit G,GILROY,CA,95020,332000,2,1.0,GILROY,864,864,1973,314,384,365,Sold,,,http://www.redfin.com/CA/Gilroy/1231-Juniper-Dr-95020/unit-G/home/1023995,MLSListings,ML81643470,N,Y,37.01155,-121.5949879
PAST SALE,December-28-2017,Condo/Co-op,7598 Monterey St #350,GILROY,CA,95020,295000,1,1.0,GILROY,748,435,2006,33,394,322,Sold,,,http://www.redfin.com/CA/Gilroy/7598-Monterey-Rd-95020/unit-350/home/12181755,MLSListings,ML81675331,N,Y,37.0094787,-121.5696882
PAST SALE,,Single Family Residential,530 Broadway,Gilroy,CA,95020,425000,2,1.0,,960,7000,1950,,443,,,,,http://www.redfin.com/CA/Gilroy/530-Broadway-95020/home/1703325,,,N,Y,37.0142135,-121.5796199
PAST SALE,December-1-2017,Single Family Residential,761 5th St,GILROY,CA,95020,618888,2,1.5,GILROY,1200,10800,1938,60,516,,Sold,,,http://www.redfin.com/CA/Gilroy/761-5th-St-95020/home/1539760,MLSListings,ML81681402,N,Y,37.0055499,-121.5799476
PAST SALE,June-14-2016,Condo/Co-op,8105 Kern Ave #45,GILROY,CA,95020,320000,2,1.5,GILROY,1200,435,1984,595,267,295,Sold,,,http://www.redfin.com/CA/Gilroy/8105-Kern-Ave-95020/unit-45/home/1411499,MLSListings,ML81585277,N,Y,37.015233,-121.592729
PAST SALE,October-11-2017,Single Family Residential,435 I O O F Ave,GILROY,CA,95020,540000,3,1.5,GILROY,1190,4968,1977,111,454,,Sold,,,http://www.redfin.com/CA/Gilroy/435-Old-Gilroy-St-95020/home/1029886,MLSListings,ML81651391,N,Y,37.015583,-121.565156
PAST SALE,,Single Family Residential,6761 Garden Ct,Gilroy,CA,95020,447500,3,1.0,,1108,6072,1964,,404,,,,,http://www.redfin.com/CA/Gilroy/6761-Garden-Ct-95020/home/1506037,,,N,Y,36.9966151,-121.566634
PAST SALE,August-16-2016,Single Family Residential,882 Ryan Ct,GILROY,CA,95020,470000,3,1.5,GILROY,960,6050,1972,532,490,,Sold,,,http://www.redfin.com/CA/Gilroy/882-Ryan-Ct-95020/home/1256727,MLSListings,ML81595101,N,Y,37.0160295,-121.5884657
PAST SALE,November-15-2017,Condo/Co-op,8105 Kern Ave #40,GILROY,CA,95020,420000,2,1.5,GILROY,1200,638,1984,76,350,310,Sold,,,http://www.redfin.com/CA/Gilroy/8105-Kern-Ave-95020/unit-40/home/1021959,MLSListings,ML81680214,N,Y,37.015233,-121.592729
PAST SALE,August-8-2016,Condo/Co-op,7763 Murray Ave,GILROY,CA,95020,275000,2,1.5,GILROY,908,862,1980,540,303,189,Sold,,,http://www.redfin.com/CA/Gilroy/7763-Murray-Ave-95020/home/1492913,MLSListings,ML81588870,N,Y,37.013058,-121.564819
PAST SALE,August-24-2016,Single Family Residential,7280 Alexander St,GILROY,CA,95020,375000,2,1.5,GILROY,1026,7399,1922,524,365,,Sold,,,http://www.redfin.com/CA/Gilroy/7280-Alexander-St-95020/home/859143,MLSListings,ML81587580,N,Y,37.0054873,-121.5650202
PAST SALE,,Condo/Co-op,8266 Gaunt Ave Unit I1,Gilroy,CA,95020,470000,2,1.0,,1265,,1986,,372,,,,,http://www.redfin.com/CA/Gilroy/8266-Gaunt-Ave-95020/unit-I1/home/877763,,,N,Y,37.015693,-121.598499
PAST SALE,December-20-2016,Townhouse,8266 Gaunt Ave Unit J1,GILROY,CA,95020,439000,2,1.5,GILROY,1265,435,1986,406,347,220,Sold,,,http://www.redfin.com/CA/Gilroy/8266-Gaunt-Ave-95020/unit-J1/home/720388,MLSListings,ML81631839,N,Y,37.015693,-121.598499
PAST SALE,December-16-2016,Condo/Co-op,8170 Westwood Dr #18,GILROY,CA,95020,340000,2,1.5,GILROY,1200,635,1982,410,283,295,Sold,,,http://www.redfin.com/CA/Gilroy/8170-Westwood-Dr-95020/unit-18/home/1573429,MLSListings,ML81631056,N,Y,37.015103,-121.593778
PAST SALE,June-26-2017,Townhouse,8266 Gaunt Ave Unit B2,GILROY,CA,95020,450000,2,1.5,GILROY,1265,1056,1986,218,356,220,Sold,,,http://www.redfin.com/CA/Gilroy/8266-Gaunt-Ave-95020/unit-B2/home/1190280,MLSListings,ML81652607,N,Y,37.015693,-121.598499
PAST SALE,December-14-2016,Single Family Residential,777 Magic Springs Rd,GILROY,CA,95020,579000,4,1.5,GILROY,1400,110206,1927,412,414,,Sold,,,http://www.redfin.com/CA/Gilroy/777-Magic-Springs-Rd-95020/home/17293265,MLSListings,ML81580358,N,Y,36.989461,-121.686556
PAST SALE,February-19-2016,Single Family Residential,445 Gavilan Ct,GILROY,CA,95020,542000,3,1.5,GILROY,1200,6800,1971,711,452,,Sold,,,http://www.redfin.com/CA/Gilroy/445-Gavilan-Ct-95020/home/686515,MLSListings,ML81545318,N,Y,37.0269183,-121.5707013
PAST SALE,,Single Family Residential,440 Garfield Ct,Gilroy,CA,95020,485000,2,1.0,,1100,5922,1985,,441,,,,,http://www.redfin.com/CA/Gilroy/440-Garfield-Ct-95020/home/1171697,,,N,Y,37.0251553,-121.5700345
PAST SALE,April-8-2016,Single Family Residential,7550 Whitehurst Rd,GILROY,CA,95020,1450000,3,1.5,GILROY,3000,5407103,1900,662,483,,Sold,,,http://www.redfin.com/CA/Gilroy/7550-Whitehurst-Rd-95020/home/50257063,MLSListings,ML81456492,N,Y,37.000532,-121.6642771
PAST SALE,June-28-2016,Single Family Residential,205 Lilly Ave,GILROY,CA,95020,510000,3,1.5,GILROY,1372,4000,1972,581,372,,Sold,,,http://www.redfin.com/CA/Gilroy/205-Lilly-Ave-95020/home/1425380,MLSListings,ML81581235,N,Y,37.02343,-121.5795327
PAST SALE,January-13-2017,Condo/Co-op,7733 Chestnut St,GILROY,CA,95020,250000,2,1.5,GILROY,908,862,1980,382,275,189,Sold,,,http://www.redfin.com/CA/Gilroy/7733-Chestnut-St-95020/home/1334159,MLSListings,ML81628104,N,Y,37.0122209,-121.565438
PAST SALE,August-10-2016,Townhouse,8408 Delta Dr,GILROY,CA,95020,420500,2,1.5,GILROY,1120,574,1982,538,375,220,Sold,,,http://www.redfin.com/CA/Gilroy/8408-Delta-Dr-95020/home/1451018,MLSListings,ML81591293,N,Y,37.016845,-121.599726
PAST SALE,July-18-2017,Single Family Residential,7550 Rosanna St,GILROY,CA,95020,580000,3,1.5,GILROY,1008,6160,1908,196,575,,Sold,,,http://www.redfin.com/CA/Gilroy/7550-Rosanna-St-95020/home/1512815,MLSListings,ML81654937,N,Y,37.0081452,-121.5731276
PAST SALE,,Single Family Residential,7554 Princevalle St,Gilroy,CA,95020,700000,3,1.0,,2072,9044,1932,,338,,,,,http://www.redfin.com/CA/Gilroy/7554-Princevalle-St-95020/home/1022419,,,N,Y,37.0070826,-121.5780053
PAST SALE,September-23-2016,Single Family Residential,7249 Carmel St,GILROY,CA,95020,495000,3,1.5,GILROY,1120,6930,1956,494,442,,Sold,,,http://www.redfin.com/CA/Gilroy/7249-Carmel-St-95020/home/1703307,MLSListings,ML81600056,N,Y,37.0020088,-121.5750952
PAST SALE,March-28-2016,Condo/Co-op,8105 Kern Ave #27,GILROY,CA,95020,303800,2,1.5,GILROY,1208,435,1984,673,251,295,Sold,,,http://www.redfin.com/CA/Gilroy/8105-Kern-Ave-95020/unit-27/home/1185471,MLSListings,ML81549652,N,Y,37.015233,-121.592729
PAST SALE,June-16-2016,Condo/Co-op,8105 Kern Ave #24,GILROY,CA,95020,315000,2,1.5,GILROY,1200,435,1984,593,263,295,Sold,,,http://www.redfin.com/CA/Gilroy/8105-Kern-Ave-95020/unit-24/home/1020990,MLSListings,ML81579872,N,Y,37.015233,-121.592729
PAST SALE,July-26-2017,Single Family Residential,225 Lilly Ave,GILROY,CA,95020,535000,4,1.5,GILROY,1299,3800,1972,188,412,,Sold,,,http://www.redfin.com/CA/Gilroy/225-Lilly-Ave-95020/home/799002,MLSListings,ML81656425,N,Y,37.023415,-121.579795
PAST SALE,July-28-2017,Single Family Residential,6721 Church St,GILROY,CA,95020,578000,3,1.5,GILROY,1142,6072,1964,186,506,,Sold,,,http://www.redfin.com/CA/Gilroy/6721-Church-St-95020/home/1640694,MLSListings,ML81667650,N,Y,36.9958299,-121.5671795
PAST SALE,,Single Family Residential,236 Carlyle Ct,Gilroy,CA,95020,128000,4,1.0,,1299,4200,1972,,99,,,,,http://www.redfin.com/CA/Gilroy/236-Carlyle-Ct-95020/home/1023228,,,N,Y,37.024354,-121.580346
PAST SALE,January-13-2017,Single Family Residential,8663 Lilly Ave,GILROY,CA,95020,523000,3,1.5,GILROY,1181,3860,1972,382,443,,Sold,,,http://www.redfin.com/CA/Gilroy/8663-Lilly-Ave-95020/home/1654781,MLSListings,ML81633104,N,Y,37.0235417,-121.5787884
PAST SALE,February-7-2017,Townhouse,8400 Delta Dr,GILROY,CA,95020,435000,2,1.5,GILROY,1231,936,1982,357,353,220,Sold,,,http://www.redfin.com/CA/Gilroy/8400-Delta-Dr-95020/home/1018985,MLSListings,ML81630897,N,Y,37.0168705,-121.5997843
PAST SALE,,Single Family Residential,6750 Church St,Gilroy,CA,95020,194000,3,2.0,,1541,6072,1964,,126,,,,,http://www.redfin.com/CA/Gilroy/6750-Church-St-95020/home/1625614,,,N,Y,36.9965083,-121.5669044
PAST SALE,December-23-2016,Condo/Co-op,7727 Ghirlanda Ct,GILROY,CA,95020,295000,2,1.5,GILROY,908,864,1980,403,325,189,Sold,,,http://www.redfin.com/CA/Gilroy/7727-Ghirlanda-Ct-95020/home/1137516,MLSListings,ML81631879,N,Y,37.012526,-121.565581
PAST SALE,August-24-2016,Condo/Co-op,8170 Westwood Dr #11,GILROY,CA,95020,325000,2,1.5,GILROY,1200,635,1982,524,271,295,Sold,,,http://www.redfin.com/CA/Gilroy/8170-Westwood-Dr-95020/unit-11/home/1696528,MLSListings,ML81593070,N,Y,37.015103,-121.593778
PAST SALE,December-22-2017,Single Family Residential,6760 Church St,GILROY,CA,95020,565000,3,1.5,GILROY,1138,6072,1964,39,496,,Sold,,,http://www.redfin.com/CA/Gilroy/6760-Church-St-95020/home/1190339,MLSListings,ML81685670,N,Y,36.996671,-121.5670096
PAST SALE,,Single Family Residential,555 Taft Ct,Gilroy,CA,95020,91500,4,1.0,,1190,6720,1977,,77,,,,,http://www.redfin.com/CA/Gilroy/555-Taft-Ct-95020/home/1682387,,,N,Y,37.016417,-121.5648175
PAST SALE,November-30-2017,Single Family Residential,490 Taft Ct,GILROY,CA,95020,532000,3,1.5,GILROY,1190,5022,1977,61,447,,Sold,,,http://www.redfin.com/CA/Gilroy/490-Taft-Ct-95020/home/1029915,MLSListings,ML81678424,N,Y,37.0159012,-121.5649772
PAST SALE,June-13-2017,Single Family Residential,240 Old Gilroy St,GILROY,CA,95020,400000,2,1.5,GILROY,958,3005,1920,231,418,,Sold,,,http://www.redfin.com/CA/Gilroy/240-Old-Gilroy-St-95020/home/1257025,MLSListings,ML81641400,N,Y,37.0057089,-121.5648574
PAST SALE,November-23-2016,Single Family Residential,550 Adams Ct,GILROY,CA,95020,420000,3,1.5,GILROY,1190,4940,1977,433,353,,Sold,,,http://www.redfin.com/CA/Gilroy/550-Adams-Ct-95020/home/1081374,MLSListings,ML81601290,N,Y,37.0176017,-121.5655532
PAST SALE,October-27-2017,Single Family Residential,6861 Church St,GILROY,CA,95020,615000,4,1.5,GILROY,1408,6110,1963,95,437,,Sold,,,http://www.redfin.com/CA/Gilroy/6861-Church-St-95020/home/1720847,MLSListings,ML81676221,N,Y,36.9978746,-121.5680951
PAST SALE,December-12-2017,Townhouse,8360 Delta Dr,GILROY,CA,95020,443000,2,1.5,GILROY,1231,936,1982,49,360,220,Sold,,,http://www.redfin.com/CA/Gilroy/8360-Delta-Dr-95020/home/1578258,MLSListings,ML81683898,N,Y,37.0166073,-121.5998153
PAST SALE,October-18-2017,Townhouse,8266 Gaunt Ave Unit I1,GILROY,CA,95020,470000,3,1.5,GILROY,1265,435,1986,104,372,220,Sold,,,http://www.redfin.com/CA/Gilroy/8266-Gaunt-Ave-95020/unit-I1/home/143285745,MLSListings,ML81670037,N,Y,37.015693,-121.598499
PAST SALE,June-27-2017,Townhouse,8266 Gaunt Ave Unit G3,GILROY,CA,95020,449600,2,1.5,GILROY,1265,435,1986,217,355,220,Sold,,,http://www.redfin.com/CA/Gilroy/8266-Gaunt-Ave-95020/unit-G3/home/1619986,MLSListings,ML81649367,N,Y,37.015693,-121.598499
PAST SALE,June-2-2017,Single Family Residential,10930 Foothill Ave,GILROY,CA,95020,720000,3,1.5,GILROY,2053,119790,1910,242,351,,Sold,,,http://www.redfin.com/CA/Gilroy/Foothill-Ave-95020/home/1027732,MLSListings,ML81649307,N,Y,37.067067,-121.564892
PAST SALE,August-26-2016,Single Family Residential,217 Carlyle Ct,GILROY,CA,95020,498000,3,1.5,GILROY,1181,3868,1972,522,422,,Sold,,,http://www.redfin.com/CA/Gilroy/217-Carlyle-Ct-95020/home/605242,MLSListings,ML81596095,N,Y,37.0247991,-121.5802505
PAST SALE,July-25-2017,Single Family Residential,7610 Carmel St,GILROY,CA,95020,650000,3,2.0,GILROY,1150,7000,1934,189,565,,Sold,,,http://www.redfin.com/CA/Gilroy/7610-Carmel-St-95020/home/1435980,MLSListings,ML81656847,N,Y,37.0082997,-121.5772639
PAST SALE,March-22-2017,Mobile/Manufactured Home,500 W 10th St #55,GILROY,CA,95020,220000,3,2.0,GILROY,1593,2895,2006,314,138,850,Sold,,,http://www.redfin.com/CA/Gilroy/500-W-10th-St-95020/unit-55/home/12181023,MLSListings,ML81613575,N,Y,36.997139,-121.570026
PAST SALE,,Single Family Residential,2400 Dryden Ave,Gilroy,CA,95020,615000,3,2.0,,1496,43600,1972,,411,,,,,http://www.redfin.com/CA/Gilroy/2400-Dryden-Ave-95020/home/1004288,,,N,Y,37.0375068,-121.5373901
PAST SALE,February-11-2016,Single Family Residential,9235 Sagewood Ct,GILROY,CA,95020,649000,4,2.0,GILROY,1516,5227,1994,719,428,,Sold,,,http://www.redfin.com/CA/Gilroy/9235-Sagewood-Ct-95020/home/1609207,MLSListings,ML81547319,N,Y,37.025875,-121.6046156
PAST SALE,March-24-2017,Single Family Residential,8121 Springdale Ct,GILROY,CA,95020,590000,4,2.0,GILROY,1368,5016,1980,312,431,,Sold,,,http://www.redfin.com/CA/Gilroy/8121-Springdale-Ct-95020/home/1004311,MLSListings,ML81636782,N,Y,37.0174061,-121.5691747
PAST SALE,,Single Family Residential,11105 Center Ave,Gilroy,CA,95020,715000,3,2.0,,1672,42000,1960,,428,,,,,http://www.redfin.com/CA/Gilroy/11105-Center-Ave-95020/home/1027756,,,N,Y,37.0652121,-121.5718493
PAST SALE,August-8-2017,Single Family Residential,9255 El Caminito,GILROY,CA,95020,625500,3,2.0,GILROY,1035,6009,1986,175,604,,Sold,,,http://www.redfin.com/CA/Gilroy/9255-El-Caminito-95020/home/558866,MLSListings,ML81656697,N,Y,37.0268247,-121.6018206
PAST SALE,November-23-2016,Single Family Residential,7831 Isabella Way,GILROY,CA,95020,459950,2,2.0,GILROY,1110,1110,2004,433,414,218,Sold,,,http://www.redfin.com/CA/Gilroy/7831-Isabella-Way-95020/home/1086494,MLSListings,ML81625958,N,Y,37.0114877,-121.6014726
PAST SALE,April-8-2016,Single Family Residential,1482 Holly Ct,GILROY,CA,95020,600000,3,2.0,GILROY,1388,8102,1988,662,432,,Sold,,,http://www.redfin.com/CA/Gilroy/1482-Holly-Ct-95020/home/1024811,MLSListings,ML81576983,N,Y,37.0071553,-121.598385
PAST SALE,,Single Family Residential,227 Lusitano Way,Gilroy,CA,95020,640000,4,2.0,,2071,5247,2015,,309,,,,,http://www.redfin.com/CA/Gilroy/227-Lusitano-Way-95020/home/108615785,,,N,Y,36.9909562,-121.5678311
PAST SALE,February-10-2017,Single Family Residential,1157 Lerma Ln,GILROY,CA,95020,590000,3,2.0,GILROY,1322,4700,1987,354,446,79,Sold,,,http://www.redfin.com/CA/Gilroy/1157-Lerma-Ln-95020/home/727237,MLSListings,ML81634516,N,Y,37.0250368,-121.5998442
PAST SALE,May-18-2016,Single Family Residential,8030 Church St,GILROY,CA,95020,555000,4,2.0,GILROY,1438,8058,1947,622,386,,Sold,,,http://www.redfin.com/CA/Gilroy/8030-Church-St-95020/home/1810661,MLSListings,ML81564819,N,Y,37.0159629,-121.5752984
PAST SALE,January-23-2017,Single Family Residential,927 Howard Ave,GILROY,CA,95020,670000,3,2.0,GILROY,1890,8379,1984,372,354,,Sold,,,http://www.redfin.com/CA/Gilroy/927-Howard-Ave-95020/home/1293793,MLSListings,ML81632625,N,Y,37.019527,-121.5931865
PAST SALE,,Townhouse,8550 Wren Ave Apt 3D,Gilroy,CA,95020,132000,2,2.0,,1255,1306,1994,,105,,,,,http://www.redfin.com/CA/Gilroy/8550-Wren-Ave-95020/unit-3D/home/1288548,,,N,Y,37.02175,-121.58541
PAST SALE,,Single Family Residential,776 Maria Way,Gilroy,CA,95020,315500,3,2.0,,1364,7000,1965,,231,,,,,http://www.redfin.com/CA/Gilroy/776-Maria-Way-95020/home/938658,,,N,Y,37.0217152,-121.5881511
PAST SALE,August-19-2016,Single Family Residential,9268 Solana Dr,GILROY,CA,95020,651000,3,2.0,GILROY,1606,5998,1988,529,405,,Sold,,,http://www.redfin.com/CA/Gilroy/9268-Solana-Dr-95020/home/1019286,MLSListings,ML81593513,N,Y,37.0268291,-121.6022041
PAST SALE,October-24-2016,Single Family Residential,1489 Goshawk Ct,GILROY,CA,95020,725000,4,2.0,GILROY,1927,8424,1998,463,376,,Sold,,,http://www.redfin.com/CA/Gilroy/1489-Goshawk-Ct-95020/home/1492693,MLSListings,ML81592087,N,Y,37.0246954,-121.6080328
PAST SALE,October-11-2016,Single Family Residential,1420 Quail Walk Dr,GILROY,CA,95020,655000,3,2.0,GILROY,1477,6181,1989,476,443,,Sold,,,http://www.redfin.com/CA/Gilroy/1420-Quail-Walk-Dr-95020/home/1772934,MLSListings,ML81590010,N,Y,37.0301089,-121.6078391
PAST SALE,March-8-2016,Single Family Residential,751 Tennyson Dr,GILROY,CA,95020,500000,2,2.0,GILROY,1055,3497,2005,693,474,188,Sold,,,http://www.redfin.com/CA/Gilroy/751-Tennyson-Dr-95020/home/2122298,MLSListings,ML81549021,N,Y,37.0121589,-121.585186
PAST SALE,February-29-2016,Single Family Residential,9035 Kern Ave,GILROY,CA,95020,595000,3,2.0,GILROY,1416,9888,1977,701,420,,Sold,,,http://www.redfin.com/CA/Gilroy/9035-Kern-Ave-95020/home/1797565,MLSListings,ML81534850,N,Y,37.0240532,-121.5918716
PAST SALE,July-5-2016,Single Family Residential,7653 Saint Francis Ct,GILROY,CA,95020,670000,4,2.0,GILROY,1839,7601,1973,574,364,,Sold,,,http://www.redfin.com/CA/Gilroy/7653-Saint-Francis-Ct-95020/home/818965,MLSListings,ML81586053,N,Y,37.0073531,-121.5927573
PAST SALE,November-8-2016,Single Family Residential,1365 Heritage Way,GILROY,CA,95020,672500,4,2.0,GILROY,2189,6534,1997,448,307,65,Sold,,,http://www.redfin.com/CA/Gilroy/1365-Heritage-Way-95020/home/752481,MLSListings,ML81626562,N,Y,37.0232308,-121.6019174
PAST SALE,,Single Family Residential,6505 Hastings Pl,Gilroy,CA,95020,208500,4,2.0,,2147,7016,1979,,97,,,,,http://www.redfin.com/CA/Gilroy/6505-Hastings-Pl-95020/home/961809,,,N,Y,36.9929235,-121.5679666
PAST SALE,,Single Family Residential,1091 3rd St,Gilroy,CA,95020,291500,4,2.0,,1570,7240,1973,,186,,,,,http://www.redfin.com/CA/Gilroy/1091-3rd-St-95020/home/1025069,,,N,Y,37.00839,-121.5893316
PAST SALE,April-28-2016,Single Family Residential,1736 Rosemary Dr,Gilroy,CA,95020,725000,3,2.0,Santa Clara County,2007,5000,2015,642,361,101,Sold,,,http://www.redfin.com/CA/Gilroy/1736-Rosemary-Dr-95020/home/102179685,BAREIS,21528211,N,Y,37.00786,-121.6056
PAST SALE,April-21-2017,Single Family Residential,8495 Gary St,GILROY,CA,95020,655000,4,2.0,GILROY,1982,6800,1967,284,330,,Sold,,,http://www.redfin.com/CA/Gilroy/8495-Gary-St-95020/home/1238261,MLSListings,ML81639016,N,Y,37.0201633,-121.5896894
PAST SALE,,Single Family Residential,501 Welburn Ave,Gilroy,CA,95020,550000,3,2.0,,1502,9450,1962,,366,,,,,http://www.redfin.com/CA/Gilroy/501-Welburn-Ave-95020/home/1537134,,,N,Y,37.018225,-121.58134
PAST SALE,November-18-2016,Single Family Residential,1208 3rd St,GILROY,CA,95020,584000,3,2.0,GILROY,1540,8001,1973,438,379,,Sold,,,http://www.redfin.com/CA/Gilroy/1208-3rd-St-95020/home/1620002,MLSListings,ML81626255,N,Y,37.0079688,-121.5926205
PAST SALE,May-23-2016,Single Family Residential,370 Ronan Ave,GILROY,CA,95020,525800,3,2.0,GILROY,1269,4700,1979,617,414,,Sold,,,http://www.redfin.com/CA/Gilroy/370-Ronan-Ave-95020/home/1022024,MLSListings,ML81579929,N,Y,37.0249417,-121.5838372
PAST SALE,October-27-2016,Single Family Residential,5485 Mesa Rd,GILROY,CA,95020,587000,3,2.0,GILROY,1696,7139,1978,460,346,,Sold,,,http://www.redfin.com/CA/Gilroy/5485-Mesa-Rd-95020/home/1025302,MLSListings,ML81549379,N,Y,36.9784603,-121.5707081
PAST SALE,November-15-2017,Single Family Residential,9175 Crest Hill Ct,GILROY,CA,95020,879500,3,2.0,GILROY,2127,11695,1988,76,413,,Sold,,,http://www.redfin.com/CA/Gilroy/9175-Crest-Hill-Ct-95020/home/619185,MLSListings,ML81677590,N,Y,37.0247208,-121.6090555
PAST SALE,June-3-2016,Single Family Residential,786 Maria Way,GILROY,CA,95020,582000,3,2.0,GILROY,1649,6499,1965,606,353,,Sold,,,http://www.redfin.com/CA/Gilroy/786-Maria-Way-95020/home/1745973,MLSListings,ML81565071,N,Y,37.0217384,-121.5885894
PAST SALE,July-5-2016,Single Family Residential,731 W 6th St,GILROY,CA,95020,605000,3,2.0,GILROY,1523,9073,1962,574,397,,Sold,,,http://www.redfin.com/CA/Gilroy/731-W-6th-St-95020/home/1797741,MLSListings,ML81584005,N,Y,37.0042544,-121.5783215
PAST SALE,September-19-2016,Mobile/Manufactured Home,500 W 10th St #152,GILROY,CA,95020,134500,2,2.0,GILROY,1440,,1974,498,93,,Sold,,,http://www.redfin.com/CA/Gilroy/500-W-10th-St-95020/unit-152/home/108542670,MLSListings,ML81599063,N,Y,36.997139,-121.570026
PAST SALE,,Single Family Residential,7461 Filice Dr,Gilroy,CA,95020,208500,3,2.0,,1540,7370,1978,,135,,,,,http://www.redfin.com/CA/Gilroy/7461-Filice-Dr-95020/home/1547112,,,N,Y,37.0041821,-121.5831456
PAST SALE,December-6-2016,Single Family Residential,741 Eschenburg Dr,GILROY,CA,95020,609000,3,2.0,GILROY,1470,7261,1958,420,414,,Sold,,,http://www.redfin.com/CA/Gilroy/741-Eschenburg-Dr-95020/home/1023360,MLSListings,ML81627762,N,Y,37.0049448,-121.579068
PAST SALE,,Single Family Residential,7020 Valley Forge Dr,Gilroy,CA,95020,533000,4,2.0,,2014,7040,1977,,265,,,,,http://www.redfin.com/CA/Gilroy/7020-Valley-Forge-Dr-95020/home/1367074,,,N,Y,36.997301,-121.577487
PAST SALE,,Single Family Residential,145 W 6th St,Gilroy,CA,95020,118000,5,2.0,,1912,6200,1936,,62,,,,,http://www.redfin.com/CA/Gilroy/145-W-6th-St-95020/home/1787133,,,N,Y,37.0064591,-121.5705371
PAST SALE,,Single Family Residential,7821 Santa Barbara Dr,Gilroy,CA,95020,550000,3,2.0,,1424,7000,1972,,386,,,,,http://www.redfin.com/CA/Gilroy/7821-Santa-Barbara-Dr-95020/home/1351919,,,N,Y,37.0100859,-121.5927387
PAST SALE,April-19-2016,Single Family Residential,7355 Hagen Ct,GILROY,CA,95020,570000,3,2.0,GILROY,1525,7344,1982,651,374,,Sold,,,http://www.redfin.com/CA/Gilroy/7355-Hagen-Ct-95020/home/1351918,MLSListings,ML81564211,N,Y,37.0019648,-121.5850511
PAST SALE,June-14-2016,Single Family Residential,9226 Dove Ct,GILROY,CA,95020,695000,3,2.0,GILROY,1798,5601,1997,595,387,,Sold,,,http://www.redfin.com/CA/Gilroy/9226-Dove-Ct-95020/home/1333991,MLSListings,ML81578302,N,Y,37.0263149,-121.612654
PAST SALE,August-21-2017,Single Family Residential,9500 Eagle View Way,GILROY,CA,95020,698000,3,2.0,GILROY,1739,6200,1988,162,401,,Sold,,,http://www.redfin.com/CA/Gilroy/9500-Eagle-View-Way-95020/home/1020292,MLSListings,ML81668262,N,Y,37.0301816,-121.6062254
PAST SALE,May-17-2016,Single Family Residential,1545 Bianca Way,GILROY,CA,95020,400000,3,2.0,GILROY,1293,1293,2003,623,309,215,Sold,,,http://www.redfin.com/CA/Gilroy/1545-Bianca-Way-95020/home/1489641,MLSListings,ML81564996,N,Y,37.010686,-121.60104
PAST SALE,December-12-2016,Single Family Residential,1650 Salem Ave,GILROY,CA,95020,840000,3,2.0,GILROY,2280,72309,1972,414,368,,Sold,,,http://www.redfin.com/CA/Gilroy/1650-Salem-Ave-95020/home/1018698,MLSListings,ML81628102,N,Y,37.0368556,-121.6184501
PAST SALE,July-8-2016,Single Family Residential,10641 4th St,GILROY,CA,95020,910000,4,2.0,GILROY,2584,38768,1998,571,352,,Sold,,,http://www.redfin.com/CA/Gilroy/10641-4th-St-95020/home/86867743,MLSListings,ML81589182,N,Y,37.0523719,-121.5871823
PAST SALE,March-8-2016,Single Family Residential,611 W 10th St,GILROY,CA,95020,510000,4,2.0,GILROY,1267,7039,1959,693,403,,Sold,,,http://www.redfin.com/CA/Gilroy/611-W-10th-St-95020/home/1111339,MLSListings,ML81549257,N,Y,36.9984103,-121.5731607
PAST SALE,September-15-2016,Single Family Residential,7761 Isabella Way,GILROY,CA,95020,459950,2,2.0,GILROY,1110,1110,2004,502,414,218,Sold,,,http://www.redfin.com/CA/Gilroy/7761-Isabella-Way-95020/home/1044607,MLSListings,ML81600852,N,Y,37.0106432,-121.6017822
PAST SALE,December-19-2016,Single Family Residential,1610 Henzi Ln,GILROY,CA,95020,805000,3,2.0,GILROY,1599,43560,1976,407,503,,Sold,,,http://www.redfin.com/CA/Gilroy/1610-Henzi-Ln-95020/home/661718,MLSListings,ML81586520,N,Y,37.0628427,-121.5652018
PAST SALE,January-27-2017,Single Family Residential,771 Maria Way,GILROY,CA,95020,555000,3,2.0,GILROY,1714,6500,1965,368,324,,Sold,,,http://www.redfin.com/CA/Gilroy/771-Maria-Way-95020/home/1657237,MLSListings,ML81629739,N,Y,37.0221777,-121.587931
PAST SALE,,Single Family Residential,480 Arnold Dr,Gilroy,CA,95020,90000,3,2.0,,1548,7000,1962,,58,,,,,http://www.redfin.com/CA/Gilroy/480-Arnold-Dr-95020/home/1022717,,,N,Y,37.0202102,-121.5813002
PAST SALE,February-17-2017,Single Family Residential,1170 San Miguel St,GILROY,CA,95020,605000,3,2.0,GILROY,1424,5724,1974,347,425,,Sold,,,http://www.redfin.com/CA/Gilroy/1170-San-Miguel-St-95020/home/727368,MLSListings,ML81635645,N,Y,37.0059953,-121.5914521
PAST SALE,September-28-2016,Townhouse,8550 Wren Ave Unit 7A,GILROY,CA,95020,394000,2,2.0,GILROY,1141,1058,1987,489,345,250,Sold,,,http://www.redfin.com/CA/Gilroy/8550-Wren-Ave-95020/unit-7A/home/1022192,MLSListings,ML81600415,N,Y,37.02175,-121.58541
PAST SALE,October-18-2016,Single Family Residential,405 La Sierra Way,GILROY,CA,95020,505000,2,2.0,GILROY,1069,5780,1953,469,472,,Sold,,,http://www.redfin.com/CA/Gilroy/405-La-Sierra-Way-95020/home/1560029,MLSListings,ML81613662,N,Y,37.0157232,-121.5790157
PAST SALE,October-20-2016,Single Family Residential,8050 Forest St,GILROY,CA,95020,530000,3,2.0,GILROY,1256,5353,1979,467,422,,Sold,,,http://www.redfin.com/CA/Gilroy/8050-Forest-St-95020/home/1620043,MLSListings,ML81600350,N,Y,37.0166916,-121.5690556
PAST SALE,,Single Family Residential,8320 Westwood Dr,Gilroy,CA,95020,204500,4,2.0,,1624,7000,1900,,126,,,,,http://www.redfin.com/CA/Gilroy/8320-Westwood-Dr-95020/home/1736749,,,N,Y,37.0161816,-121.5944403
PAST SALE,June-30-2016,Single Family Residential,1430 Ousley Dr,GILROY,CA,95020,565000,3,2.0,GILROY,1252,7000,1972,579,451,,Sold,,,http://www.redfin.com/CA/Gilroy/1430-Ousley-Dr-95020/home/1018736,MLSListings,ML81587296,N,Y,37.0196387,-121.6020621
PAST SALE,March-16-2016,Single Family Residential,1520 Rosette Way,GILROY,CA,95020,390000,3,2.0,GILROY,1293,1176,2003,685,302,218,Sold,,,http://www.redfin.com/CA/Gilroy/1520-Rosette-Way-95020/home/1379796,MLSListings,ML81522724,N,Y,37.010832,-121.60061
PAST SALE,December-20-2016,Single Family Residential,1830 Church Ave,GILROY,CA,95020,865000,3,2.0,GILROY,1912,49222,1976,406,452,,Sold,,,http://www.redfin.com/CA/Gilroy/1830-Church-Ave-95020/home/1027718,MLSListings,ML81628424,N,Y,37.0779974,-121.570178
PAST SALE,December-14-2016,Single Family Residential,756 Ramona Way,GILROY,CA,95020,550000,3,2.0,GILROY,1364,5998,1965,412,403,,Sold,,,http://www.redfin.com/CA/Gilroy/756-Ramona-Way-95020/home/1395253,MLSListings,ML81592693,N,Y,37.02242,-121.5870506
PAST SALE,June-2-2016,Single Family Residential,8490 Delta Dr,GILROY,CA,95020,537000,3,2.0,GILROY,1252,6499,1970,607,429,,Sold,,,http://www.redfin.com/CA/Gilroy/8490-Delta-Dr-95020/home/560025,MLSListings,ML81582767,N,Y,37.0175683,-121.5996332
PAST SALE,,Single Family Residential,222 Robin Pl,Gilroy,CA,95020,650000,4,2.0,,2018,3021,2013,,322,,,,,http://www.redfin.com/CA/Gilroy/222-Robin-Pl-95020/home/95954352,,,N,Y,37.0329257,-121.5871732
PAST SALE,,Single Family Residential,2730 Lone Oak Ct,Gilroy,CA,95020,2000000,4,2.0,,2174,108900,2002,,920,,,,,http://www.redfin.com/CA/Gilroy/2730-Lone-Oak-Ct-95020/home/1025274,,,N,Y,37.0103927,-121.6209785
PAST SALE,December-15-2017,Single Family Residential,1326 White Oak Pl,GILROY,CA,95020,550000,2,2.0,GILROY,1302,3087,2005,46,422,147,Sold,,,http://www.redfin.com/CA/Gilroy/1326-White-Oak-Pl-95020/home/2122385,MLSListings,ML81680750,N,Y,37.0110365,-121.5965296
PAST SALE,August-30-2017,Single Family Residential,1637 Valley Oaks Dr,GILROY,CA,95020,733000,3,2.0,GILROY,1798,6377,1998,153,408,,Sold,,,http://www.redfin.com/CA/Gilroy/1637-Valley-Oaks-Dr-95020/home/656683,MLSListings,ML81671103,N,Y,37.0249782,-121.6120833
PAST SALE,December-20-2017,Single Family Residential,7175 Revere Pl,GILROY,CA,95020,705000,4,2.0,GILROY,1838,7500,1978,41,384,,Sold,,,http://www.redfin.com/CA/Gilroy/7175-Revere-Pl-95020/home/1512848,MLSListings,ML81684636,N,Y,36.9997205,-121.5813024
PAST SALE,December-8-2017,Single Family Residential,765 W 9th St,GILROY,CA,95020,667500,4,2.0,GILROY,2159,7040,1977,53,309,,Sold,,,http://www.redfin.com/CA/Gilroy/765-W-9th-St-95020/home/1023698,MLSListings,ML81679725,N,Y,36.9987073,-121.5777358
PAST SALE,April-22-2016,Single Family Residential,971 Festa Aglio Ct,GILROY,CA,95020,710000,4,2.0,GILROY,1927,6599,2000,648,368,,Sold,,,http://www.redfin.com/CA/Gilroy/971-Festa-Aglio-Ct-95020/home/1695330,MLSListings,ML81562621,N,Y,37.0244784,-121.5979896
PAST SALE,May-5-2017,Single Family Residential,1270 Sunrise Dr,GILROY,CA,95020,730000,3,2.0,GILROY,2200,6009,2004,270,332,,Sold,,,http://www.redfin.com/CA/Gilroy/1270-Sunrise-Dr-95020/home/52672365,MLSListings,ML81643497,N,Y,37.0328176,-121.6058619
PAST SALE,,Single Family Residential,7771 Church St,Gilroy,CA,95020,110500,3,2.0,,1467,4819,1920,,75,,,,,http://www.redfin.com/CA/Gilroy/7771-Church-St-95020/home/1004099,,,N,Y,37.0119958,-121.5740752
PAST SALE,August-23-2016,Single Family Residential,7691 Filice Dr,GILROY,CA,95020,670000,3,2.0,GILROY,2136,8398,1960,525,314,,Sold,,,http://www.redfin.com/CA/Gilroy/7691-Filice-Dr-95020/home/1025175,MLSListings,ML81593431,N,Y,37.0082032,-121.5833259
PAST SALE,May-11-2017,Single Family Residential,6930 Glenview Dr,GILROY,CA,95020,525000,3,2.0,GILROY,1372,6000,1978,264,383,,Sold,,,http://www.redfin.com/CA/Gilroy/6930-Glenview-Dr-95020/home/1024143,MLSListings,ML81644880,N,Y,36.9972137,-121.5718698
PAST SALE,October-25-2017,Townhouse,1005 Fillippelli Dr,GILROY,CA,95020,565000,3,2.0,GILROY,1271,2100,1974,97,445,205,Sold,,,http://www.redfin.com/CA/Gilroy/1005-Fillippelli-Dr-95020/home/1869134,MLSListings,ML81678191,N,Y,37.017384,-121.593632
PAST SALE,,Townhouse,1534 Rosette Way,Gilroy,CA,95020,350000,3,2.0,,1293,1293,2003,,271,,,,,http://www.redfin.com/CA/Gilroy/1534-Rosette-Way-95020/home/1044574,,,N,Y,37.011094,-121.600818
PAST SALE,November-16-2016,Single Family Residential,7540 Chestnut St,Out of Area,CA,95020,415000,3,2.0,,,7500,1920,440,,,Sold,,,http://www.redfin.com/CA/Gilroy/7540-Chestnut-St-95020/home/896665,GEMLS,21610845,N,Y,37.010201,-121.5644044
PAST SALE,December-31-2016,Single Family Residential,9120 Connell Ct,GILROY,CA,95020,514000,3,2.0,GILROY,1132,6500,1983,395,454,,Sold,,,http://www.redfin.com/CA/Gilroy/9120-Connell-Ct-95020/home/1869137,MLSListings,ML81628100,N,Y,37.0301927,-121.5809073
PAST SALE,,Townhouse,8550 Wren Ave Apt 4B,Gilroy,CA,95020,415000,3,2.0,,1141,1060,1987,,364,,,,,http://www.redfin.com/CA/Gilroy/8550-Wren-Ave-95020/unit-4B/home/1293837,,,N,Y,37.02175,-121.58541
PAST SALE,February-13-2017,Single Family Residential,9701 Comanche St,GILROY,CA,95020,739000,4,2.0,GILROY,2261,9149,2014,351,327,,Sold,,,http://www.redfin.com/CA/Gilroy/9701-Comanche-St-95020/home/40176208,MLSListings,ML81635959,N,Y,37.0333134,-121.6005797
PAST SALE,,Single Family Residential,9570 Grande Dr,Gilroy,CA,95020,512000,3,2.0,,2061,5807,2012,,248,,,,,http://www.redfin.com/CA/Gilroy/9570-Grande-Dr-95020/home/52671805,,,N,Y,37.0316487,-121.5981566
PAST SALE,March-9-2016,Single Family Residential,1231 Blacksmith Dr,GILROY,CA,95020,654950,4,2.0,GILROY,1516,6499,1993,692,432,,Sold,,,http://www.redfin.com/CA/Gilroy/1231-Blacksmith-Dr-95020/home/858195,MLSListings,ML81546977,N,Y,37.0298913,-121.6044084
PAST SALE,August-21-2017,Single Family Residential,970 3rd St,GILROY,CA,95020,637500,3,2.0,GILROY,1540,7035,1976,162,414,,Sold,,,http://www.redfin.com/CA/Gilroy/970-3rd-St-95020/home/1115885,MLSListings,ML81667154,N,Y,37.007907,-121.5873082
PAST SALE,October-11-2017,Single Family Residential,1425 Cypress Ct,GILROY,CA,95020,559000,2,2.0,GILROY,1413,4193,2005,111,396,147,Sold,,,http://www.redfin.com/CA/Gilroy/1425-Cypress-Ct-95020/home/17292732,MLSListings,ML81673547,N,Y,37.010872,-121.598643
PAST SALE,May-9-2017,Single Family Residential,7624 Benassi Dr,GILROY,CA,95020,682500,3,2.0,GILROY,1575,6207,1988,266,433,,Sold,,,http://www.redfin.com/CA/Gilroy/7624-Benassi-Dr-95020/home/819006,MLSListings,ML81647017,N,Y,37.0070106,-121.5977021
PAST SALE,August-5-2016,Single Family Residential,1062 Clark Way,GILROY,CA,95020,635000,3,2.0,GILROY,1525,7291,1980,543,416,,Sold,,,http://www.redfin.com/CA/Gilroy/1062-Clark-Way-95020/home/661537,MLSListings,ML81589049,N,Y,37.0035429,-121.5878581
PAST SALE,October-17-2016,Single Family Residential,900 Blake Ct,GILROY,CA,95020,590000,4,2.0,GILROY,1474,7344,1978,470,400,,Sold,,,http://www.redfin.com/CA/Gilroy/900-Blake-Ct-95020/home/1024800,MLSListings,ML81598446,N,Y,37.003492,-121.584081
PAST SALE,June-9-2016,Single Family Residential,760 Welburn Ave,GILROY,CA,95020,569000,4,2.0,GILROY,1463,5998,1962,600,389,,Sold,,,http://www.redfin.com/CA/Gilroy/760-Welburn-Ave-95020/home/1352671,MLSListings,ML81562779,N,Y,37.0166625,-121.5851562
PAST SALE,August-28-2017,Single Family Residential,8431 David Ct,GILROY,CA,95020,610000,3,2.0,GILROY,1442,8316,1962,155,423,,Sold,,,http://www.redfin.com/CA/Gilroy/8431-David-Ct-95020/home/1640680,MLSListings,ML81648741,N,Y,37.0192327,-121.5807854
PAST SALE,October-3-2017,Single Family Residential,9534 Rodeo Dr,GILROY,CA,95020,779950,3,2.0,GILROY,2221,5500,2012,119,351,,Sold,,,http://www.redfin.com/CA/Gilroy/9534-Rodeo-Dr-95020/home/52671818,MLSListings,ML81673133,N,Y,37.0310978,-121.6001652
PAST SALE,June-22-2016,Single Family Residential,731 Welburn Ave,GILROY,CA,95020,545000,3,2.0,GILROY,1315,6059,1962,587,414,,Sold,,,http://www.redfin.com/CA/Gilroy/731-Welburn-Ave-95020/home/1021806,MLSListings,ML81585149,N,Y,37.0174375,-121.5840561
PAST SALE,,Single Family Residential,1035 Sprig Way,Gilroy,CA,95020,329000,4,2.0,,2265,5500,2012,,145,,,,,http://www.redfin.com/CA/Gilroy/1035-Sprig-Way-95020/home/52671792,,,N,Y,37.0314962,-121.5991281
PAST SALE,June-6-2017,Other,8945 Marcella Ave,GILROY,CA,95020,815000,3,2.0,GILROY,1776,126910,1961,238,459,,Sold,,,http://www.redfin.com/CA/Gilroy/8945-Marcella-Ave-95020/home/1027953,MLSListings,ML81633184,N,Y,37.0346245,-121.5567203
PAST SALE,August-2-2016,Single Family Residential,1408 Eagles Nest Ln,GILROY,CA,95020,695000,4,2.0,GILROY,2169,6514,1989,546,320,,Sold,,,http://www.redfin.com/CA/Gilroy/1408-Eagles-Nest-Ln-95020/home/1521560,MLSListings,ML81588280,N,Y,37.0293908,-121.6076935
PAST SALE,September-27-2017,Single Family Residential,1386 White Oak Pl,GILROY,CA,95020,544000,2,2.0,GILROY,1302,3550,2005,125,418,147,Sold,,,http://www.redfin.com/CA/Gilroy/1386-White-Oak-Pl-95020/home/17292781,MLSListings,ML81671682,N,Y,37.0111095,-121.5979603
PAST SALE,May-17-2016,Single Family Residential,435 Kennedy Ct,GILROY,CA,95020,515000,3,2.0,GILROY,1120,5985,1971,623,460,,Sold,,,http://www.redfin.com/CA/Gilroy/435-Kennedy-Ct-95020/home/1029059,MLSListings,ML81549930,N,Y,37.0273573,-121.5714789
PAST SALE,July-21-2016,Single Family Residential,1080 Ayer Dr,GILROY,CA,95020,670000,4,2.0,GILROY,1832,8398,1979,558,366,,Sold,,,http://www.redfin.com/CA/Gilroy/1080-Ayer-Dr-95020/home/727357,MLSListings,ML81589436,N,Y,37.0043759,-121.5888289
PAST SALE,October-4-2017,Single Family Residential,7760 Driftwood Ter,GILROY,CA,95020,640000,3,2.0,GILROY,1503,7500,1963,118,426,,Sold,,,http://www.redfin.com/CA/Gilroy/7760-Driftwood-Ter-95020/home/752622,MLSListings,ML81675137,N,Y,37.0091835,-121.5934193
PAST SALE,October-5-2016,Single Family Residential,7200 Princeton Pl,GILROY,CA,95020,645000,4,2.0,GILROY,2014,7200,1976,482,320,,Sold,,,http://www.redfin.com/CA/Gilroy/7200-Princeton-Pl-95020/home/1023737,MLSListings,ML81600353,N,Y,37.0002921,-121.5778211
PAST SALE,,Single Family Residential,1025 Sprig Way,Gilroy,CA,95020,320000,3,2.0,,2061,5807,2012,,155,,,,,http://www.redfin.com/CA/Gilroy/1025-Sprig-Way-95020/home/52671791,,,N,Y,37.031497,-121.5989201
PAST SALE,September-15-2017,Single Family Residential,767 Lawrence Dr,GILROY,CA,95020,585000,3,2.0,GILROY,1628,6500,1967,137,359,,Sold,,,http://www.redfin.com/CA/Gilroy/767-Lawrence-Dr-95020/home/1171985,MLSListings,ML81655893,N,Y,37.0207319,-121.5876649
PAST SALE,October-20-2017,Single Family Residential,1287 Pappani Dr,GILROY,CA,95020,640000,3,2.0,GILROY,1440,6400,1968,102,444,,Sold,,,http://www.redfin.com/CA/Gilroy/1287-Pappani-Dr-95020/home/619175,MLSListings,ML81675542,N,Y,37.0171335,-121.597867
PAST SALE,May-11-2016,Single Family Residential,8100 Forest St,GILROY,CA,95020,425000,4,2.0,GILROY,1368,5275,1980,629,311,,Sold,,,http://www.redfin.com/CA/Gilroy/8100-Forest-St-95020/home/1452531,MLSListings,ML81550662,N,Y,37.0171455,-121.5693366
PAST SALE,October-27-2016,Mobile/Manufactured Home,500 West 10th St #149,GILROY,CA,95020,136000,2,2.0,GILROY,1140,,1971,460,119,,Sold,,,http://www.redfin.com/CA/Gilroy/500-W-10th-St-95020/unit-149/home/21855193,MLSListings,ML81625615,N,Y,36.997139,-121.570026
PAST SALE,,Single Family Residential,787 Carla Way,Gilroy,CA,95020,219500,4,2.0,,1532,6500,1965,,143,,,,,http://www.redfin.com/CA/Gilroy/787-Carla-Way-95020/home/1869128,,,N,Y,37.0214526,-121.5885771
PAST SALE,October-21-2016,Single Family Residential,7081 Rosanna St,GILROY,CA,95020,520000,4,2.0,GILROY,1172,7000,1954,466,444,,Sold,,,http://www.redfin.com/CA/Gilroy/7081-Rosanna-St-95020/home/1736816,MLSListings,ML81591882,N,Y,37.000383,-121.5702066
PAST SALE,August-4-2017,Single Family Residential,1403 Casablanca Cir,GILROY,CA,95020,780000,4,2.0,GILROY,2006,6534,1996,179,389,65,Sold,,,http://www.redfin.com/CA/Gilroy/1403-Casablanca-Cir-95020/home/978825,MLSListings,ML81652595,N,Y,37.0237672,-121.6024675
PAST SALE,June-23-2017,Other,5815 Monterey,GILROY,CA,95020,850000,3,2.0,GILROY,2000,368953,1964,221,425,,Sold,,,http://www.redfin.com/CA/Gilroy/5815-Monterey-Frontage-Rd-95020/home/113733964,MLSListings,ML81647222,N,Y,36.9848071,-121.5597714
PAST SALE,June-30-2017,Single Family Residential,1410 Welburn Ave,GILROY,CA,95020,875000,2,2.0,GILROY,1731,56628,1958,214,505,,Sold,,,http://www.redfin.com/CA/Gilroy/1410-Welburn-Ave-95020/home/590464,MLSListings,ML81643806,N,Y,37.0185418,-121.6022363
PAST SALE,,Single Family Residential,8421 Diane Ct,Gilroy,CA,95020,575000,2,2.0,,1468,8118,1962,,392,,,,,http://www.redfin.com/CA/Gilroy/8421-Diane-Ct-95020/home/656752,,,N,Y,37.0188417,-121.5816524
PAST SALE,April-4-2016,Single Family Residential,7624 Los Padres Ct,GILROY,CA,95020,650000,4,2.0,GILROY,1839,7213,1975,666,353,,Sold,,,http://www.redfin.com/CA/Gilroy/7624-Los-Padres-Ct-95020/home/1138836,MLSListings,ML81550412,N,Y,37.0065273,-121.5883967
PAST SALE,August-28-2017,Mobile/Manufactured Home,500 W 10th St Spc 57,GILROY,CA,95020,270000,3,2.0,GILROY,1581,,2001,155,171,,Sold,,,http://www.redfin.com/CA/Gilroy/500-W-10th-St-95020/unit-57/home/113858592,MLSListings,ML81649662,N,Y,36.997139,-121.570026
PAST SALE,,Single Family Residential,10575 Center Ave,Gilroy,CA,95020,950000,5,2.0,,2105,84942,1964,,451,,,,,http://www.redfin.com/CA/Gilroy/10575-Center-Ave-95020/home/1162865,,,N,Y,37.0573578,-121.567457
PAST SALE,November-10-2016,Single Family Residential,5422 Mesa Rd,GILROY,CA,95020,625000,3,2.0,GILROY,1400,6098,1996,446,446,,Sold,,,http://www.redfin.com/CA/Gilroy/5422-Mesa-Rd-95020/home/1732885,MLSListings,ML81627228,N,Y,36.9771222,-121.5691981
PAST SALE,,Single Family Residential,7790 Laurel Dr,Gilroy,CA,95020,450000,3,2.0,,1457,7584,1976,,309,,,,,http://www.redfin.com/CA/Gilroy/7790-Laurel-Dr-95020/home/1787989,,,N,Y,37.0099256,-121.596487
PAST SALE,May-5-2017,Single Family Residential,7680 Santa Barbara Dr,GILROY,CA,95020,677500,3,2.0,GILROY,1580,7000,1970,270,429,,Sold,,,http://www.redfin.com/CA/Gilroy/7680-Santa-Barbara-Dr-95020/home/1238414,MLSListings,ML81643257,N,Y,37.0078305,-121.5930034
PAST SALE,March-28-2016,Single Family Residential,7644 Los Padres Ct,GILROY,CA,95020,570000,3,2.0,GILROY,1424,7215,1975,673,400,,Sold,,,http://www.redfin.com/CA/Gilroy/7644-Los-Padres-Ct-95020/home/1366097,MLSListings,ML81546687,N,Y,37.0068918,-121.5884029
PAST SALE,August-31-2016,Single Family Residential,1292 Wagon Way,GILROY,CA,95020,645000,4,2.0,GILROY,1516,7196,1993,517,425,,Sold,,,http://www.redfin.com/CA/Gilroy/1292-Wagon-Way-95020/home/1512802,MLSListings,ML81594052,N,Y,37.0288364,-121.6041031
PAST SALE,July-11-2017,Single Family Residential,8880 Rancho Hills Dr,GILROY,CA,95020,835000,4,2.0,GILROY,2320,9040,1987,203,360,,Sold,,,http://www.redfin.com/CA/Gilroy/8880-Rancho-Hills-Dr-95020/home/1470415,MLSListings,ML81655665,N,Y,37.0223728,-121.6094082
PAST SALE,February-26-2016,Single Family Residential,6031 Hawthorne St,GILROY,CA,95020,670000,4,2.0,GILROY,1552,12196,1996,704,432,,Sold,,,http://www.redfin.com/CA/Gilroy/6031-Hawthorne-St-95020/home/1024952,MLSListings,ML81546290,N,Y,36.9844188,-121.5755074
PAST SALE,May-3-2016,Single Family Residential,7785 Eigleberry St,GILROY,CA,95020,505000,3,2.0,GILROY,1120,5501,1922,637,451,,Sold,,,http://www.redfin.com/CA/Gilroy/7785-Eigleberry-St-95020/home/1484987,MLSListings,ML81566524,N,Y,37.0123447,-121.572859
PAST SALE,April-7-2017,Single Family Residential,910 Blake Ct,GILROY,CA,95020,610000,3,2.0,GILROY,1525,7020,1980,298,400,,Sold,,,http://www.redfin.com/CA/Gilroy/910-Blake-Ct-95020/home/1451150,MLSListings,ML81641615,N,Y,37.0034788,-121.584316
PAST SALE,August-17-2016,Single Family Residential,1241 Cypress Ct,GILROY,CA,95020,580000,3,2.0,GILROY,1503,6976,1966,531,386,,Sold,,,http://www.redfin.com/CA/Gilroy/1241-Cypress-Ct-95020/home/818900,MLSListings,ML81593738,N,Y,37.0107241,-121.5950736
PAST SALE,May-4-2017,Single Family Residential,1400 Sequoia Dr,GILROY,CA,95020,690000,4,2.0,GILROY,1670,9600,1977,271,413,,Sold,,,http://www.redfin.com/CA/Gilroy/1400-Sequoia-Dr-95020/home/1024710,MLSListings,ML81646377,N,Y,37.0055748,-121.5970554
PAST SALE,February-4-2016,Single Family Residential,7671 Santa Barbara Dr,GILROY,CA,95020,645000,3,2.0,GILROY,1580,7000,1970,726,408,,Sold,,,http://www.redfin.com/CA/Gilroy/7671-Santa-Barbara-Dr-95020/home/1220637,MLSListings,ML81535123,N,Y,37.0076491,-121.5936265
PAST SALE,,Single Family Residential,1215 Chesbro Way,Gilroy,CA,95020,128500,3,2.0,,1252,6868,1975,,103,,,,,http://www.redfin.com/CA/Gilroy/1215-Chesbro-Way-95020/home/1810612,,,N,Y,37.0186094,-121.5962283
PAST SALE,May-5-2017,Single Family Residential,7320 Nantucket Pl,GILROY,CA,95020,635000,4,2.0,GILROY,2014,7700,1975,270,315,,Sold,,,http://www.redfin.com/CA/Gilroy/7320-Nantucket-Pl-95020/home/1411544,MLSListings,ML81642757,N,Y,37.0019811,-121.5796595
PAST SALE,,Single Family Residential,393 4th St Unit A,Gilroy,CA,95020,390000,2,1.0,,1032,7446,1900,,378,,,,,http://www.redfin.com/CA/Gilroy/393-4th-St-95020/unit-A/home/1105861,,,N,Y,37.0088157,-121.5748524
PAST SALE,January-5-2018,Single Family Residential,1408 Bristlecone Ct,GILROY,CA,95020,700000,3,2.0,GILROY,1388,8649,1988,25,504,,Sold,,,http://www.redfin.com/CA/Gilroy/1408-Bristlecone-Ct-95020/home/1457347,MLSListings,ML81688163,N,Y,37.008949,-121.5978503
PAST SALE,January-31-2017,Single Family Residential,846 Welburn Ave,GILROY,CA,95020,615000,3,2.0,GILROY,1406,8001,1976,364,437,,Sold,,,http://www.redfin.com/CA/Gilroy/846-Welburn-Ave-95020/home/1270790,MLSListings,ML81613156,N,Y,37.0171629,-121.5884074
PAST SALE,March-29-2017,Single Family Residential,4 Stratford Pl,GILROY,CA,95020,743000,5,2.0,GILROY,2250,20473,1982,307,330,,Sold,,,http://www.redfin.com/CA/Gilroy/4-Stratford-Pl-95020/home/1055000,MLSListings,ML81638990,N,Y,36.9919599,-121.5625553
PAST SALE,March-20-2017,Mobile/Manufactured Home,8282 Murray Ave #2,GILROY,CA,95020,165000,3,2.0,GILROY,1307,,2013,316,126,,Sold,,,http://www.redfin.com/CA/Gilroy/8282-Murray-Ave-95020/unit-2/home/109066758,MLSListings,ML81625832,N,Y,37.0175241,-121.5680239
PAST SALE,January-9-2018,Single Family Residential,7730 Driftwood Ter,GILROY,CA,95020,660000,3,2.0,GILROY,1503,7000,1965,21,439,,Sold,,,http://www.redfin.com/CA/Gilroy/Driftwood-Ter-95020/home/1473104,MLSListings,ML81685512,N,Y,37.008747,-121.5935551
PAST SALE,,Single Family Residential,8440 Wayland Ln,Gilroy,CA,95020,450100,3,2.0,,1134,6666,1958,,397,,,,,http://www.redfin.com/CA/Gilroy/8440-Wayland-Ln-95020/home/932625,,,N,Y,37.0192188,-121.5839581
PAST SALE,March-14-2017,Single Family Residential,7860 Dickens Way,GILROY,CA,95020,523000,2,2.0,GILROY,1055,3500,2005,322,496,188,Sold,,,http://www.redfin.com/CA/Gilroy/7860-Dickens-Way-95020/home/2122327,MLSListings,ML81638406,N,Y,37.0110194,-121.5847506
PAST SALE,January-4-2018,Single Family Residential,7307 Chestnut St,GILROY,CA,95020,700000,4,2.0,GILROY,1851,8400,1950,26,378,,Sold,,,http://www.redfin.com/CA/Gilroy/7307-Chestnut-St-95020/home/1105962,MLSListings,ML81685131,N,Y,37.0067116,-121.5635662
PAST SALE,January-22-2018,Single Family Residential,222 Martin St,GILROY,CA,95020,671000,5,2.0,GILROY,3176,19373,1900,8,211,,Sold,,,http://www.redfin.com/CA/Gilroy/222-Martin-St-95020/home/1845712,MLSListings,ML81655964,N,Y,37.0086535,-121.5664126
PAST SALE,,Single Family Residential,850 W 8th St,Gilroy,CA,95020,652000,4,2.0,,2014,6930,1975,,324,,,,,http://www.redfin.com/CA/Gilroy/850-W-8th-St-95020/home/1023255,,,N,Y,36.9999579,-121.579832
PAST SALE,December-7-2017,Single Family Residential,761 Welburn Ave,GILROY,CA,95020,660000,3,2.0,GILROY,1463,6000,1962,54,451,,Sold,,,http://www.redfin.com/CA/Gilroy/761-Welburn-Ave-95020/home/619253,MLSListings,ML81683040,N,Y,37.0170806,-121.5851254
PAST SALE,June-8-2016,Single Family Residential,8180 Forest St,GILROY,CA,95020,522000,4,2.0,GILROY,1256,4981,1979,601,416,,Sold,,,http://www.redfin.com/CA/Gilroy/8180-Forest-St-95020/home/1512921,MLSListings,ML81578109,N,Y,37.0177189,-121.5696866
PAST SALE,December-8-2017,Single Family Residential,6311 Snowberry Ct,GILROY,CA,95020,775000,3,2.0,GILROY,1913,10000,1998,53,405,,Sold,,,http://www.redfin.com/CA/Gilroy/6311-Snowberry-Ct-95020/home/867170,MLSListings,ML81684181,N,Y,36.9885534,-121.5760484
PAST SALE,December-1-2017,Single Family Residential,7240 Princevalle St,GILROY,CA,95020,615000,3,2.0,GILROY,1394,6916,1957,60,441,,Sold,,,http://www.redfin.com/CA/Gilroy/7240-Princevalle-St-95020/home/1093608,MLSListings,ML81682592,N,Y,37.0017198,-121.5755688
PAST SALE,July-12-2016,Single Family Residential,174 Martin St,GILROY,CA,95020,610000,3,2.0,GILROY,1667,5998,1880,567,366,,Sold,,,http://www.redfin.com/CA/Gilroy/174-Martin-St-95020/home/17293232,MLSListings,ML81565464,N,Y,37.008522,-121.5669877
PAST SALE,November-28-2017,Single Family Residential,915 Greenwich Dr,GILROY,CA,95020,730000,4,2.0,GILROY,2147,8400,1980,63,340,,Sold,,,http://www.redfin.com/CA/Gilroy/915-Greenwich-Dr-95020/home/1457327,MLSListings,ML81681133,N,Y,36.9967469,-121.5801246
PAST SALE,January-16-2018,Single Family Residential,1403 Ousley Dr,GILROY,CA,95020,660000,3,2.0,GILROY,1252,7108,1972,14,527,,Sold,,,http://www.redfin.com/CA/Gilroy/1403-Ousley-Dr-95020/home/656641,MLSListings,ML81685814,N,Y,37.0200398,-121.6015428
PAST SALE,November-9-2017,Single Family Residential,661 Sherwood Dr,GILROY,CA,95020,599000,3,2.0,GILROY,1143,8000,1958,82,524,,Sold,,,http://www.redfin.com/CA/Gilroy/661-Sherwood-Dr-95020/home/1022207,MLSListings,ML81679160,N,Y,37.0198986,-121.5836578
PAST SALE,July-1-2016,Single Family Residential,1180 3rd St,GILROY,CA,95020,628000,3,2.0,GILROY,1540,7140,1973,578,408,,Sold,,,http://www.redfin.com/CA/Gilroy/1180-3rd-St-95020/home/932674,MLSListings,ML81586117,N,Y,37.0079705,-121.5916598
PAST SALE,November-21-2017,Single Family Residential,9054 Freeman Ct,GILROY,CA,95020,580000,3,2.0,GILROY,1132,5000,1983,70,512,,Sold,,,http://www.redfin.com/CA/Gilroy/9054-Freeman-Ct-95020/home/1703257,MLSListings,ML81685378,N,Y,37.0287158,-121.5810505
PAST SALE,October-20-2017,Single Family Residential,1445 Blackwing Way,GILROY,CA,95020,745000,3,2.0,GILROY,2169,6300,1989,102,343,,Sold,,,http://www.redfin.com/CA/Gilroy/1445-Blackwing-Way-95020/home/778177,MLSListings,ML81674267,N,Y,37.0291107,-121.6081557
PAST SALE,,Single Family Residential,2490 Apple Tree Way,Gilroy,CA,95020,705000,3,2.0,,2077,3710,2016,,339,,,,,http://www.redfin.com/CA/Gilroy/2490-Apple-Tree-Way-95020/home/143044118,,,N,Y,37.0099372,-121.6173763
PAST SALE,September-23-2016,Mobile/Manufactured Home,8282 Murray #121,GILROY,CA,95020,149888,2,2.0,GILROY,1444,,1974,494,104,,Sold,,,http://www.redfin.com/CA/Gilroy/8282-Murray-Ave-95020/unit-121/home/17495688,MLSListings,ML81595507,N,Y,37.0175241,-121.5680239
PAST SALE,,Single Family Residential,721 W 9th St,Gilroy,CA,95020,630000,4,2.0,,2014,7000,1977,,313,,,,,http://www.redfin.com/CA/Gilroy/721-W-9th-St-95020/home/1023693,,,N,Y,36.9992754,-121.5758337
PAST SALE,January-12-2018,Single Family Residential,641 Arnold Dr,GILROY,CA,95020,629000,3,2.0,GILROY,1040,7100,1959,18,605,,Sold,,,http://www.redfin.com/CA/Gilroy/641-Arnold-Dr-95020/home/1093586,MLSListings,ML81685472,N,Y,37.0206028,-121.5837471
PAST SALE,December-12-2016,Single Family Residential,7541 Forest St,GILROY,CA,95020,530000,4,2.0,GILROY,1680,6812,1928,414,315,,Sold,,,http://www.redfin.com/CA/Gilroy/7541-Forest-St-95020/home/1812497,MLSListings,ML81592462,N,Y,37.0096916,-121.566157
PAST SALE,July-24-2017,Single Family Residential,7622 Santa Maria Ct,GILROY,CA,95020,680000,4,2.0,GILROY,1839,6825,1974,190,370,,Sold,,,http://www.redfin.com/CA/Gilroy/7622-Santa-Maria-Ct-95020/home/752620,MLSListings,ML81667750,N,Y,37.0067424,-121.590251
PAST SALE,March-7-2017,Single Family Residential,1248 Welburn Ave,GILROY,CA,95020,585000,3,2.0,GILROY,1252,6000,1968,329,467,,Sold,,,http://www.redfin.com/CA/Gilroy/1248-Welburn-Ave-95020/home/1352651,MLSListings,ML81634596,N,Y,37.0174108,-121.5969921
PAST SALE,February-18-2016,Condo/Co-op,1518 Bianca Way,GILROY,CA,95020,405000,3,2.0,GILROY,1293,1293,2003,712,313,215,Sold,,,http://www.redfin.com/CA/Gilroy/1518-Bianca-Way-95020/home/1162904,MLSListings,ML81520792,N,Y,37.0098856,-121.6006789
PAST SALE,February-17-2016,Single Family Residential,8843 Rancho Hills Dr,GILROY,CA,95020,679950,3,2.0,GILROY,1798,7855,1997,713,378,,Sold,,,http://www.redfin.com/CA/Gilroy/8843-Rancho-Hills-Dr-95020/home/1537111,MLSListings,ML81520982,N,Y,37.0220098,-121.6098967
PAST SALE,February-22-2017,Single Family Residential,740 W 8th St,GILROY,CA,95020,638500,4,2.0,GILROY,2014,7039,1976,342,317,,Sold,,,http://www.redfin.com/CA/Gilroy/740-W-8th-St-95020/home/1023758,MLSListings,ML81628125,N,Y,37.0002029,-121.5764152
PAST SALE,,Single Family Residential,1515 Quail Walk Dr,Gilroy,CA,95020,710000,4,2.0,,1952,6029,1997,,364,,,,,http://www.redfin.com/CA/Gilroy/1515-Quail-Walk-Dr-95020/home/1589378,,,N,Y,37.0312264,-121.6088497
PAST SALE,October-11-2017,Single Family Residential,788 Mantelli Dr,GILROY,CA,95020,685000,4,2.0,GILROY,2051,6969,1995,111,334,,Sold,,,http://www.redfin.com/CA/Gilroy/788-Mantelli-Dr-95020/home/1004080,MLSListings,ML81671186,N,Y,37.0231711,-121.5888544
PAST SALE,,Single Family Residential,1080 Ruby Way,Gilroy,CA,95020,703500,3,2.0,,2510,4246,2016,,280,,,,,http://www.redfin.com/CA/Gilroy/1080-Ruby-Way-95020/home/143044080,,,N,Y,36.9874221,-121.5816005
PAST SALE,October-19-2016,Single Family Residential,1280 Hersman Dr,GILROY,CA,95020,649000,3,2.0,GILROY,1965,7278,1980,468,330,,Sold,,,http://www.redfin.com/CA/Gilroy/1280-Hersman-Dr-95020/home/1004146,MLSListings,ML81594608,N,Y,37.0044108,-121.594082
PAST SALE,,Single Family Residential,7780 Westwood Dr,Gilroy,CA,95020,592500,4,2.0,,1683,7000,1963,,352,,,,,http://www.redfin.com/CA/Gilroy/7780-Westwood-Dr-95020/home/1025111,,,N,Y,37.0097938,-121.5941443
PAST SALE,February-3-2017,Single Family Residential,940 Perrelli St,GILROY,CA,95020,680000,4,2.0,GILROY,1839,7475,1978,361,370,,Sold,,,http://www.redfin.com/CA/Gilroy/940-Perrelli-St-95020/home/1640707,MLSListings,ML81635252,N,Y,37.0042956,-121.5853283
PAST SALE,July-19-2016,Single Family Residential,9292 El Caminito,GILROY,CA,95020,629000,4,2.0,GILROY,1606,6481,1986,560,392,,Sold,,,http://www.redfin.com/CA/Gilroy/9292-El-Caminito-95020/home/1703248,MLSListings,ML81589726,N,Y,37.0274329,-121.6010843
PAST SALE,October-27-2016,Single Family Residential,90 Jacobs Way,GILROY,CA,95020,785000,3,2.0,GILROY,1816,95544,1950,460,432,,Sold,,,http://www.redfin.com/CA/Gilroy/90-Jacobs-Way-95020/home/1291824,MLSListings,ML81613543,N,Y,37.0591942,-121.5939301
PAST SALE,September-15-2017,Single Family Residential,8375 Kern Ave,GILROY,CA,95020,610000,3,2.0,GILROY,1486,7150,1977,137,410,205,Sold,,,http://www.redfin.com/CA/Gilroy/8375-Kern-Ave-95020/home/1638798,MLSListings,ML81668336,N,Y,37.0171796,-121.5918565
PAST SALE,October-6-2017,Single Family Residential,8737 Toyon Ct,GILROY,CA,95020,680000,3,2.0,GILROY,1616,9414,1985,116,421,,Sold,,,http://www.redfin.com/CA/Gilroy/8737-Toyon-Ct-95020/home/1019399,MLSListings,ML81675720,N,Y,37.0213718,-121.6009366
PAST SALE,,Single Family Residential,816 Welburn Ave,Gilroy,CA,95020,550000,4,2.0,,1209,6000,1976,,455,,,,,http://www.redfin.com/CA/Gilroy/816-Welburn-Ave-95020/home/895668,,,N,Y,37.0166754,-121.5873731
PAST SALE,January-12-2017,Single Family Residential,3415 Rancho Vis,GILROY,CA,95020,865000,4,2.0,GILROY,2032,86815,1974,383,426,,Sold,,,http://www.redfin.com/CA/Gilroy/3415-Rancho-Vista-Ct-95020/home/1025042,MLSListings,ML81628998,N,Y,37.0108353,-121.6342721
PAST SALE,August-10-2016,Single Family Residential,940 Pueblo St,GILROY,CA,95020,717000,3,2.0,GILROY,2261,6660,2011,538,317,,Sold,,,http://www.redfin.com/CA/Gilroy/940-Pueblo-Ct-95020/home/39904011,MLSListings,ML81591397,N,Y,37.0348058,-121.6011245
PAST SALE,May-13-2016,Single Family Residential,8205 Kern Ave,GILROY,CA,95020,610000,3,2.0,GILROY,1532,7475,1977,627,398,215,Sold,,,http://www.redfin.com/CA/Gilroy/8205-Kern-Ave-95020/home/1138689,MLSListings,ML81580462,N,Y,37.0160486,-121.5918931
PAST SALE,March-31-2016,Single Family Residential,661 W 10th St,GILROY,CA,95020,500000,3,2.0,GILROY,1144,6970,1959,670,437,,Sold,,,http://www.redfin.com/CA/Gilroy/661-W-10th-St-95020/home/1320699,MLSListings,ML81516821,N,Y,36.998215,-121.5738093
PAST SALE,December-16-2016,Single Family Residential,7461 Crawford Dr,GILROY,CA,95020,610000,3,2.0,GILROY,1525,6429,1982,410,400,,Sold,,,http://www.redfin.com/CA/Gilroy/7461-Crawford-Dr-95020/home/1024808,MLSListings,ML81628579,N,Y,37.0032816,-121.5897638
PAST SALE,,Single Family Residential,7463 Rosanna St,Gilroy,CA,95020,228682,3,2.0,,1560,7280,1965,,147,,,,,http://www.redfin.com/CA/Gilroy/7463-Rosanna-St-95020/home/1171505,,,N,Y,37.0066543,-121.5730388
PAST SALE,,Single Family Residential,5502 Mesa Rd,Gilroy,CA,95020,592000,3,2.0,,1820,6098,2001,,325,,,,,http://www.redfin.com/CA/Gilroy/5502-Mesa-Rd-95020/home/1036994,,,N,Y,36.9790058,-121.570454
PAST SALE,December-20-2016,Single Family Residential,9247 Calle Del Rey,GILROY,CA,95020,605000,4,2.0,GILROY,1516,5501,1994,406,399,,Sold,,,http://www.redfin.com/CA/Gilroy/9247-Calle-Del-Rey-95020/home/938655,MLSListings,ML81631386,N,Y,37.0261573,-121.6036957
PAST SALE,October-18-2016,Single Family Residential,159 Hennessey Way,GILROY,CA,95020,540000,3,2.0,GILROY,1157,6000,1983,469,467,,Sold,,,http://www.redfin.com/CA/Gilroy/159-Hennessey-Way-95020/home/1021861,MLSListings,ML81612484,N,Y,37.0298049,-121.5823941
PAST SALE,July-20-2017,Single Family Residential,711 El Cerrito Way,GILROY,CA,95020,640000,3,2.0,GILROY,1536,6000,1964,194,417,,Sold,,,http://www.redfin.com/CA/Gilroy/711-El-Cerrito-Way-95020/home/1138769,MLSListings,ML81655841,N,Y,37.0159398,-121.5835125
PAST SALE,,Condo/Co-op,1540 Rosette Way,Gilroy,CA,95020,282000,2,2.0,,1110,,2003,,254,,,,,http://www.redfin.com/CA/Gilroy/1540-Rosette-Way-95020/home/1055635,,,N,Y,37.01096,-121.600809
PAST SALE,February-25-2016,Single Family Residential,9079 Soledad St,GILROY,CA,95020,635000,3,2.0,GILROY,1590,7248,1986,705,399,,Sold,,,http://www.redfin.com/CA/Gilroy/9079-Soledad-St-95020/home/1020120,MLSListings,ML81546765,N,Y,37.0241736,-121.6011501
PAST SALE,,Single Family Residential,9235 El Caminito,Gilroy,CA,95020,269000,3,2.0,,1606,6425,1986,,167,,,,,http://www.redfin.com/CA/Gilroy/9235-El-Caminito-95020/home/798878,,,N,Y,37.0265059,-121.6018333
PAST SALE,July-29-2016,Single Family Residential,8887 Lilly Ave,GILROY,CA,95020,535000,3,2.0,GILROY,1320,5719,1961,550,405,,Sold,,,http://www.redfin.com/CA/Gilroy/8887-Lilly-Ave-95020/home/1604377,MLSListings,ML81587878,N,Y,37.025752,-121.5799337
PAST SALE,September-6-2016,Single Family Residential,1106 Hacienda Dr,GILROY,CA,95020,550000,4,2.0,GILROY,1839,7875,1973,511,299,,Sold,,,http://www.redfin.com/CA/Gilroy/1106-Hacienda-Dr-95020/home/1025078,MLSListings,ML81600553,N,Y,37.0086977,-121.5897978
PAST SALE,July-14-2017,Single Family Residential,3435 Dryden Ave,GILROY,CA,95020,800000,4,2.0,GILROY,2310,69300,1966,200,346,,Sold,,,http://www.redfin.com/CA/Gilroy/3435-Dryden-Ave-95020/home/1585800,MLSListings,ML81656411,N,Y,37.044315,-121.521069
PAST SALE,September-9-2016,Single Family Residential,930 W 6th St,GILROY,CA,95020,635000,4,2.0,GILROY,1474,6120,1978,508,431,,Sold,,,http://www.redfin.com/CA/Gilroy/930-W-6th-St-95020/home/1490879,MLSListings,ML81595525,N,Y,37.0026741,-121.5844614
PAST SALE,March-16-2017,Single Family Residential,7840 Rosanna St,GILROY,CA,95020,625000,4,2.0,GILROY,2714,9240,1900,320,230,,Sold,,,http://www.redfin.com/CA/Gilroy/7840-Rosanna-St-95020/home/978906,MLSListings,ML81636968,N,Y,37.012911,-121.575171
PAST SALE,March-24-2017,Single Family Residential,8167 Delta Dr,GILROY,CA,95020,700000,4,2.0,GILROY,2283,7992,1974,312,307,,Sold,,,http://www.redfin.com/CA/Gilroy/8167-Delta-Dr-95020/home/1018418,MLSListings,ML81639717,N,Y,37.0149419,-121.600462
PAST SALE,January-23-2017,Single Family Residential,1070 Violet Way,GILROY,CA,95020,680000,3,2.0,GILROY,1925,6300,1998,372,353,,Sold,,,http://www.redfin.com/CA/Gilroy/1070-Violet-Way-95020/home/619237,MLSListings,ML81625987,N,Y,37.0200039,-121.596456
PAST SALE,August-18-2016,Single Family Residential,7115 Concord Pl,GILROY,CA,95020,615000,4,2.0,GILROY,2014,7000,1977,530,305,,Sold,,,http://www.redfin.com/CA/Gilroy/7115-Concord-Pl-95020/home/1657314,MLSListings,ML81591990,N,Y,36.9990536,-121.5771371
PAST SALE,,Single Family Residential,6410 Greenfield Dr,Gilroy,CA,95020,478000,3,2.0,,1752,4400,2000,,273,,,,,http://www.redfin.com/CA/Gilroy/6410-Greenfield-Dr-95020/home/1721626,,,N,Y,36.9878796,-121.5791133
PAST SALE,,Single Family Residential,7385 Thayer Ct,Gilroy,CA,95020,675000,4,2.0,,1717,7849,1983,,393,,,,,http://www.redfin.com/CA/Gilroy/7385-Thayer-Ct-95020/home/1024240,,,N,Y,37.0032547,-121.5877288
PAST SALE,November-9-2016,Single Family Residential,9720 Sparrow Glen Way,GILROY,CA,95020,715000,3,2.0,GILROY,2125,7287,2000,447,336,,Sold,,,http://www.redfin.com/CA/Gilroy/9720-Sparrow-Glen-Way-95020/home/1157835,MLSListings,ML81626279,N,Y,37.0331715,-121.6115343
PAST SALE,February-5-2016,Single Family Residential,9731 Comanche St,GILROY,CA,95020,735000,4,2.0,GILROY,2261,7379,2011,725,325,,Sold,,,http://www.redfin.com/CA/Gilroy/9731-Comanche-St-95020/home/40176175,MLSListings,ML81545352,N,Y,37.0338137,-121.6005628
PAST SALE,November-18-2016,Single Family Residential,842 Hudson Pl,GILROY,CA,95020,603000,4,2.0,GILROY,1835,6930,1976,438,329,,Sold,,,http://www.redfin.com/CA/Gilroy/842-Hudson-Pl-95020/home/1732825,MLSListings,ML81613796,N,Y,37.0007373,-121.5796916
PAST SALE,July-28-2017,Single Family Residential,8285 Gaunt Ave,GILROY,CA,95020,620000,4,2.0,GILROY,1350,6800,1970,186,459,,Sold,,,http://www.redfin.com/CA/Gilroy/8285-Gaunt-Ave-95020/home/1019672,MLSListings,ML81655634,N,Y,37.0161323,-121.5990201
PAST SALE,September-30-2016,Single Family Residential,1341 Cedar Ct,GILROY,CA,95020,560000,3,2.0,GILROY,1653,7000,1966,487,339,,Sold,,,http://www.redfin.com/CA/Gilroy/1341-Cedar-Ct-95020/home/1022910,MLSListings,ML81585865,N,Y,37.0093063,-121.5954288
PAST SALE,June-2-2017,Single Family Residential,1200 3rd St,GILROY,CA,95020,620000,3,2.0,GILROY,1540,7140,1973,242,403,,Sold,,,http://www.redfin.com/CA/Gilroy/1200-3rd-St-95020/home/1703366,MLSListings,ML81649841,N,Y,37.0079445,-121.5921274
PAST SALE,October-4-2016,Single Family Residential,374 Walnut Ln,GILROY,CA,95020,480000,3,2.0,GILROY,1167,7969,1978,483,411,,Sold,,,http://www.redfin.com/CA/Gilroy/374-Walnut-Ln-95020/home/1028621,MLSListings,ML81593037,N,Y,37.0128582,-121.5655292
PAST SALE,August-22-2016,Single Family Residential,1530 Quail Walk Dr,GILROY,CA,95020,664000,3,2.0,GILROY,1649,6000,1997,526,403,,Sold,,,http://www.redfin.com/CA/Gilroy/1530-Quail-Walk-Dr-95020/home/1019781,MLSListings,ML81588638,N,Y,37.0312538,-121.6093835
PAST SALE,September-28-2017,Single Family Residential,1472 Mantelli Dr,GILROY,CA,95020,640000,3,2.0,GILROY,1102,7000,1973,124,581,,Sold,,,http://www.redfin.com/CA/Gilroy/1472-Mantelli-Dr-95020/home/699604,MLSListings,ML81674721,N,Y,37.0203463,-121.6029963
PAST SALE,January-27-2017,Single Family Residential,7308 Church St,GILROY,CA,95020,575000,3,2.0,GILROY,1600,4504,1910,368,359,,Sold,,,http://www.redfin.com/CA/Gilroy/7308-Church-St-95020/home/1512819,MLSListings,ML81593916,N,Y,37.0047397,-121.5702212
PAST SALE,March-3-2017,Single Family Residential,1558 Rosette Way,GILROY,CA,95020,379000,2,2.0,GILROY,1110,1110,2003,333,341,235,Sold,,,http://www.redfin.com/CA/Gilroy/1558-Rosette-Way-95020/home/1693994,MLSListings,ML81640982,N,Y,37.0110926,-121.601052
PAST SALE,December-30-2016,Single Family Residential,730 W 9th St,GILROY,CA,95020,620000,4,2.0,GILROY,2159,7039,1977,396,287,,Sold,,,http://www.redfin.com/CA/Gilroy/730-W-9th-St-95020/home/1325832,MLSListings,ML81596511,N,Y,36.9987011,-121.5761982
PAST SALE,August-5-2016,Single Family Residential,7860 Hanna St,GILROY,CA,95020,542000,4,2.0,GILROY,1568,7405,1908,543,346,,Sold,,,http://www.redfin.com/CA/Gilroy/7860-Hanna-St-95020/home/1525193,MLSListings,ML81586337,N,Y,37.0128654,-121.5766311
PAST SALE,November-14-2016,Single Family Residential,7607 Santa Maria Ct,GILROY,CA,95020,625000,3,2.0,GILROY,1578,8028,1974,442,396,,Sold,,,http://www.redfin.com/CA/Gilroy/7607-Santa-Maria-Ct-95020/home/1025050,MLSListings,ML81615386,N,Y,37.0063833,-121.5907854
PAST SALE,August-11-2016,Single Family Residential,1160 3rd St,GILROY,CA,95020,573000,3,2.0,GILROY,1424,7140,1973,537,402,,Sold,,,http://www.redfin.com/CA/Gilroy/1160-3rd-St-95020/home/1115878,MLSListings,ML81548844,N,Y,37.0079578,-121.5911772
PAST SALE,July-14-2017,Single Family Residential,757 La Alondra Way,GILROY,CA,95020,540000,3,2.0,GILROY,1315,6000,1962,200,411,,Sold,,,http://www.redfin.com/CA/Gilroy/757-La-Alondra-Way-95020/home/1619992,MLSListings,ML81649877,N,Y,37.0177704,-121.5847096
PAST SALE,October-25-2016,Single Family Residential,1163 Ortega Cir,GILROY,CA,95020,670000,3,2.0,GILROY,2052,6930,1975,462,327,,Sold,,,http://www.redfin.com/CA/Gilroy/1163-Ortega-Cir-95020/home/1788740,MLSListings,ML81593245,N,Y,37.0094357,-121.5920644
PAST SALE,August-12-2016,Single Family Residential,767 Welburn Ave,GILROY,CA,95020,605000,4,2.0,GILROY,1463,5998,1962,536,414,,Sold,,,http://www.redfin.com/CA/Gilroy/767-Welburn-Ave-95020/home/1745980,MLSListings,ML81586324,N,Y,37.0170874,-121.5853315
PAST SALE,September-8-2016,Single Family Residential,6625 Angela Ct,GILROY,CA,95020,645000,4,2.0,GILROY,1856,11700,1981,509,348,,Sold,,,http://www.redfin.com/CA/Gilroy/6625-Angela-Ct-95020/home/1024442,MLSListings,ML81591953,N,Y,36.9933301,-121.5715394
PAST SALE,April-14-2016,Single Family Residential,1125 Hacienda Dr,GILROY,CA,95020,587000,4,2.0,GILROY,1570,7139,1973,656,374,,Sold,,,http://www.redfin.com/CA/Gilroy/1125-Hacienda-Dr-95020/home/1787149,MLSListings,ML81563037,N,Y,37.0091416,-121.5902352
PAST SALE,January-27-2017,Single Family Residential,1528 Jackdow Ct,GILROY,CA,95020,685000,4,2.0,GILROY,1927,7108,1997,368,355,,Sold,,,http://www.redfin.com/CA/Gilroy/1528-Jackdow-Ct-95020/home/1333985,MLSListings,ML81633868,N,Y,37.0309731,-121.6102636
PAST SALE,September-8-2016,Single Family Residential,8395 Westwood Dr,GILROY,CA,95020,625000,3,2.0,GILROY,1452,6499,1975,509,430,,Sold,,,http://www.redfin.com/CA/Gilroy/8395-Westwood-Dr-95020/home/1020517,MLSListings,ML81592711,N,Y,37.0167077,-121.5949987
PAST SALE,October-18-2017,Single Family Residential,7650 Westwood Dr,GILROY,CA,95020,555000,3,2.0,GILROY,1529,6405,1965,104,363,,Sold,,,http://www.redfin.com/CA/Gilroy/7650-Westwood-Dr-95020/home/1492863,MLSListings,ML81679291,N,Y,37.007944,-121.5940228
PAST SALE,December-7-2016,Single Family Residential,8447 Carmel St,GILROY,CA,95020,552600,4,2.0,GILROY,1935,9000,1958,419,286,,Sold,,,http://www.redfin.com/CA/Gilroy/8447-Carmel-St-95020/home/686347,MLSListings,ML81598565,N,Y,37.0194522,-121.5827523
PAST SALE,June-1-2017,Single Family Residential,1045 Buttercup Ln,GILROY,CA,95020,632000,3,2.0,GILROY,1534,10030,1978,243,412,215,Sold,,,http://www.redfin.com/CA/Gilroy/1045-Buttercup-Ln-95020/home/1293790,MLSListings,ML81644858,N,Y,37.0155237,-121.5932653
PAST SALE,November-29-2016,Single Family Residential,790 W 6th St,GILROY,CA,95020,590000,3,2.0,GILROY,1730,7700,1971,427,341,,Sold,,,http://www.redfin.com/CA/Gilroy/790-W-6th-St-95020/home/1585584,MLSListings,ML81614351,N,Y,37.0032015,-121.5800073
PAST SALE,July-20-2017,Single Family Residential,776 Gary St,GILROY,CA,95020,575000,3,2.0,GILROY,1673,6800,1966,194,344,,Sold,,,http://www.redfin.com/CA/Gilroy/776-Gary-St-95020/home/706415,MLSListings,ML81641058,N,Y,37.0195913,-121.5882177
PAST SALE,March-18-2016,Single Family Residential,8441 Wayland Ln,GILROY,CA,95020,510000,3,2.0,GILROY,1191,7100,1958,683,428,,Sold,,,http://www.redfin.com/CA/Gilroy/8441-Wayland-Ln-95020/home/1022653,MLSListings,ML81549416,N,Y,37.0192078,-121.5844866
PAST SALE,May-31-2017,Single Family Residential,1266 Hogan Way,GILROY,CA,95020,687000,3,2.0,GILROY,1516,6200,1993,244,453,,Sold,,,http://www.redfin.com/CA/Gilroy/1266-Hogan-Way-95020/home/836098,MLSListings,ML81645697,N,Y,37.0301819,-121.6050053
PAST SALE,July-26-2016,Single Family Residential,7451 Hanna St,GILROY,CA,95020,545000,3,2.0,GILROY,1320,7000,1927,553,413,,Sold,,,http://www.redfin.com/CA/Gilroy/7451-Hanna-St-95020/home/1022245,MLSListings,ML81589922,N,Y,37.0061691,-121.5742127
PAST SALE,May-26-2017,Single Family Residential,150 Liman Ave,GILROY,CA,95020,590000,3,2.0,GILROY,1313,8215,1945,249,449,,Sold,,,http://www.redfin.com/CA/Gilroy/150-Liman-Ave-95020/home/938632,MLSListings,ML81649035,N,Y,37.025845,-121.5803245
PAST SALE,February-22-2017,Single Family Residential,2760 Roop Rd,GILROY,CA,95020,720000,2,2.0,GILROY,1242,43599,1961,342,580,,Sold,,,http://www.redfin.com/CA/Gilroy/2760-Roop-Rd-95020/home/1559218,MLSListings,ML81600843,N,Y,37.0449692,-121.5345654
PAST SALE,December-26-2016,Single Family Residential,1553 Rosette Way,GILROY,CA,95020,474000,3,2.0,GILROY,1293,1293,2003,400,367,218,Sold,,,http://www.redfin.com/CA/Gilroy/1553-Rosette-Way-95020/home/1289962,MLSListings,ML81631399,N,Y,37.011636,-121.600942
PAST SALE,July-7-2017,Single Family Residential,7514 Laurel Dr,GILROY,CA,95020,600500,3,2.0,GILROY,1335,7000,1977,207,450,,Sold,,,http://www.redfin.com/CA/Gilroy/7514-Laurel-Dr-95020/home/1172037,MLSListings,ML81644323,N,Y,37.0056004,-121.5965296
