SALE TYPE,SOLD DATE,PROPERTY TYPE,ADDRESS,CITY,STATE,ZIP,PRICE,BEDS,BATHS,LOCATION,SQUARE FEET,LOT SIZE,YEAR BUILT,DAYS ON MARKET,$/SQUARE FEET,HOA/MONTH,STATUS,NEXT OPEN HOUSE START TIME,NEXT OPEN HOUSE END TIME,URL (SEE http://www.redfin.com/buy-a-home/comparative-market-analysis FOR INFO ON PRICING),SOURCE,MLS#,FAVORITE,INTERESTED,LATITUDE,LONGITUDE
PAST SALE,,Single Family Residential,424 Redwood Ave,Redwood City,CA,94061,300000,2,1.0,,1130,27520,1950,,265,,,,,http://www.redfin.com/CA/Redwood-City/424-Redwood-Ave-94061/home/1857844,,,N,Y,37.234099,-122.321759
PAST SALE,November-4-2016,Single Family Residential,10721 Cabrillo Hwy,PESCADERO,CA,94060,6875000,4,3.5,PESCADERO,4455,113256,2014,452,1543,,Sold,,,http://www.redfin.com/CA/Pescadero/10721-Cabrillo-Hwy-94060/home/908834,MLSListings,ML81626903,N,Y,37.221046,-122.407653
PAST SALE,October-7-2015,Single Family Residential,7074 Pescadero Creek Rd,PESCADERO,CA,94060,535000,2,1.0,PESCADERO,777,77972,1950,846,689,,Sold,,,http://www.redfin.com/CA/Pescadero/7074-Pescadero-Creek-Rd-94060/home/2043284,MLSListings,ML81467464,N,Y,37.2687931,-122.3149091
PAST SALE,May-11-2016,Single Family Residential,77 Madrone Ave,PESCADERO,CA,94060,390000,2,1.5,PESCADERO,1554,51836,1927,629,251,,Sold,,,http://www.redfin.com/CA/Pescadero/77-Madrone-Ave-94060/home/1051227,MLSListings,ML81563640,N,Y,37.231613,-122.32688
PAST SALE,July-31-2015,Single Family Residential,290 Waterman Ave,PESCADERO,CA,94060,539000,1,1.0,PESCADERO,450,242194,1930,914,1198,,Sold,,,http://www.redfin.com/CA/Pescadero/290-Waterman-Ave-94060/home/2049737,MLSListings,ML81483948,N,Y,37.24582,-122.34066
PAST SALE,February-5-2015,Single Family Residential,424 REDWOOD Ave,Pescadero,CA,94060,300000,2,1.0,Pescadero,1130,27520,1950,1090,265,,Sold,,,http://www.redfin.com/CA/Pescadero/424-Redwood-Ave-94060/home/113806710,MLSListings,ML81439396,N,Y,37.2374626,-122.3207517
PAST SALE,,Single Family Residential,740 Native Sons Rd,Pescadero,CA,94060,1000000,,,,,308840,,,,,,,,http://www.redfin.com/CA/Pescadero/740-Native-Sons-Rd-94060/home/1072788,,,N,Y,37.249166,-122.339533
PAST SALE,September-2-2016,Single Family Residential,12901 Cabrillo Hwy,PESCADERO,CA,94060,2175000,3,2.0,PESCADERO,2400,45302,2012,515,906,,Sold,,,http://www.redfin.com/CA/Pescadero/12901-Cabrillo-Hwy-94060/home/1932512,MLSListings,ML81595017,N,Y,37.249791,-122.417276
PAST SALE,February-27-2015,Single Family Residential,12871 Hwy. 1,PESCADERO,CA,94060,3800000,4,3.0,PESCADERO,3075,85378,2003,1068,1236,,Sold,,,http://www.redfin.com/CA/Pescadero/12871-Cabrillo-Hwy-94060/home/2027673,MLSListings,ML81448025,N,Y,37.249057,-122.417618
PAST SALE,May-19-2015,Single Family Residential,117 STAGE Rd,Pescadero,CA,94060,795000,2,1.0,Pescadero,1070,20000,1946,987,743,,Sold,,,http://www.redfin.com/CA/Pescadero/Stage-Rd-94060/home/1517794,MLSListings,ML81431548,N,Y,37.2509766,-122.3830174
PAST SALE,November-16-2015,Single Family Residential,601 FARMIN Rd,Pescadero,CA,94060,950000,3,2.0,Pescadero,1707,156816,1983,806,557,,Sold,,,http://www.redfin.com/CA/Pescadero/601-Farmin-Ln-94060/home/910471,MLSListings,ML81440501,N,Y,37.2461569,-122.339434
PAST SALE,March-17-2015,Single Family Residential,701 Bean Hollow Rd,Pescadero,CA,94060,1050000,3,2.0,San Mateo,,348480,1979,1050,,,Sold,,,http://www.redfin.com/CA/Pescadero/701-Bean-Hollow-Rd-94060/home/1489611,San Francisco MLS,428682,N,Y,37.231878,-122.406812
PAST SALE,,Single Family Residential,10257 Cabrillo Hwy,Pescadero,CA,94060,395000,3,2.0,,3050,86249,1986,,130,,,,,http://www.redfin.com/CA/Pescadero/10257-Cabrillo-Hwy-94060/home/908784,,,N,Y,37.2144087,-122.4074455
PAST SALE,,Single Family Residential,688 Redwood Ave,Redwood City,CA,94061,749000,2,2.0,,1880,51314,1985,,398,,,,,http://www.redfin.com/CA/Redwood-City/688-Redwood-Ave-94061/home/1943322,,,N,Y,37.237767,-122.320268
PAST SALE,March-7-2015,Single Family Residential,51 Eden West Rd,PESCADERO,CA,94060,941750,4,3.0,PESCADERO,2600,342120,1971,1060,362,,Sold,,,http://www.redfin.com/CA/Pescadero/51-W-Eden-Rd-94060/home/1445890,MLSListings,ML81448133,N,Y,37.216395,-122.347434
PAST SALE,,Single Family Residential,500 Redwood Ave,Redwood City,CA,94061,580000,3,3.0,,1600,22880,1960,,363,,,,,http://www.redfin.com/CA/Redwood-City/500-Redwood-Ave-94061/home/1463714,,,N,Y,37.235318,-122.321804
PAST SALE,March-1-2017,Single Family Residential,701 Madrone Ave,PESCADERO,CA,94060,645000,2,2.0,PESCADERO,2000,78452,1980,335,323,,Sold,,,http://www.redfin.com/CA/Pescadero/701-Madrone-Ave-94060/home/1898927,MLSListings,ML81629564,N,Y,37.238026,-122.32212
PAST SALE,June-24-2015,Vacant Land,0 Stage Rd,San Gregorio,CA,94074,285000,,,San Gregorio,,142877,,951,,,Sold,,,http://www.redfin.com/CA/San-Gregorio/Stage-Rd-Unknown/home/21962751,MLSListings,ML81435694,N,Y,37.2970907,-122.3848363
PAST SALE,November-6-2015,Single Family Residential,3980 Pescadero Creek Rd,PESCADERO,CA,94060,1198000,3,2.5,PESCADERO,1789,233917,1947,816,670,,Sold,,,http://www.redfin.com/CA/Pescadero/3980-Pescadero-Creek-Rd-94060/home/1185526,MLSListings,ML81467598,N,Y,37.249859,-122.354984
PAST SALE,May-6-2016,Single Family Residential,688 Redwood Ave,PESCADERO,CA,94060,749000,2,2.5,PESCADERO,1880,51314,1985,634,398,,Sold,,,http://www.redfin.com/CA/PESCADERO/688-Redwood-Ave-94060/home/103943416,MLSListings,ML81522368,N,Y,37.2551636,-122.3830152
PAST SALE,August-25-2016,Single Family Residential,3334 Pescadero Creek Rd,PESCADERO,CA,94060,905000,2,1.5,PESCADERO,1020,182080,1895,523,887,,Sold,,,http://www.redfin.com/CA/Pescadero/3334-Pescadero-Creek-Rd-94060/home/1005984,MLSListings,ML81584426,N,Y,37.2505937,-122.3644948
PAST SALE,,Single Family Residential,260 Redwood Ave,Redwood City,CA,94061,490000,3,1.0,,1050,34500,1965,,467,,,,,http://www.redfin.com/CA/Redwood-City/260-Redwood-Ave-94061/home/2052563,,,N,Y,37.231839,-122.323253
PAST SALE,,Single Family Residential,6225 Pescadero Creek Rd,Pescadero,CA,94060,1625000,,,,,156816,,,,,,,,http://www.redfin.com/CA/Pescadero/6225-Pescadero-Creek-Rd-94060/home/1051219,,,N,Y,37.26343,-122.322786
PAST SALE,,Single Family Residential,687 North St,Pescadero,CA,94060,625000,3,1.0,,1360,15000,1900,,460,,,,,http://www.redfin.com/CA/Pescadero/687-North-St-94060/home/1668779,,,N,Y,37.255572,-122.3789703
PAST SALE,,Single Family Residential,520 NATIVE SONS PARK RD,WOODSIDE,CA,94019,600000,2,1.0,,1560,498326,1957,,385,,,,,http://www.redfin.com/CA/WOODSIDE/520-NATIVE-SONS-PARK-RD-94019/home/908909,,,N,Y,37.248647,-122.341411
PAST SALE,December-1-2017,Other,0 S Ranch Road South Rd,PESCADERO,CA,94060,235000,,,PESCADERO,,265280,,60,,50,Sold,,,http://www.redfin.com/CA/Pescadero/S-Ranch-Rd-94060/home/101329092,MLSListings,ML81516512,N,Y,37.2402562,-122.3351213
PAST SALE,,Single Family Residential,144 Madrone Ave,South San Francisco,CA,94080,680000,5,1.0,,1580,28320,1927,,430,,,,,http://www.redfin.com/CA/South-San-Francisco/144-Madrone-Ave-94080/home/1145898,,,N,Y,37.233234,-122.324354
PAST SALE,January-4-2017,Single Family Residential,1340 Stage Rd,PESCADERO,CA,94060,899000,3,1.0,PESCADERO,1200,46522,1925,391,749,,Sold,,,http://www.redfin.com/CA/Pescadero/1340-Stage-Rd-94060/home/1851539,MLSListings,ML81613105,N,Y,37.268686,-122.385532
PAST SALE,December-8-2015,Single Family Residential,205 Roarke Rd,PESCADERO,CA,94060,1200000,3,3.0,PESCADERO,3320,33600,2008,784,361,,Sold,,,http://www.redfin.com/CA/Pescadero/205-Roarke-Rd-94060/home/17309050,MLSListings,ML81501402,N,Y,37.25796,-122.323361
PAST SALE,March-16-2017,Single Family Residential,210 Redwood Ave,PESCADERO,CA,94060,490000,3,1.0,PESCADERO,1050,34500,1965,320,467,,Sold,,,http://www.redfin.com/CA/Pescadero/210-Redwood-Ave-94060/home/109164822,MLSListings,ML81626556,N,Y,37.2318559,-122.3233986
PAST SALE,July-26-2016,Single Family Residential,150 North St,PESCADERO,CA,94060,,4,3.0,PESCADERO,3600,3476088,1974,553,,,Sold,,,http://www.redfin.com/CA/Pescadero/150-North-St-94060/home/1644710,MLSListings,ML81562648,N,Y,37.259904,-122.367857
PAST SALE,October-4-2017,Single Family Residential,10439 Cabrillo Hwy,PESCADERO,CA,94060,3450000,3,2.0,PESCADERO,1670,26659,1919,118,2066,,Sold,,,http://www.redfin.com/CA/Pescadero/10439-Cabrillo-Hwy-94060/home/2002653,MLSListings,ML81680402,N,Y,37.2170352,-122.4073744
PAST SALE,April-28-2015,Single Family Residential,500 REDWOOD Ave,Pescadero,CA,94060,580000,3,3.0,Butano Canyon,800,22880,1960,1008,725,,Sold,,,http://www.redfin.com/CA/Pescadero/500-Redwood-Ave-94060/home/21972622,MLSListings,ML81435011,N,Y,37.2374796,-122.3207265
PAST SALE,February-10-2016,Single Family Residential,400 S Ranch Rd,PESCADERO,CA,94060,1100000,2,3.0,PESCADERO,1800,500940,1986,720,611,,Sold,,,http://www.redfin.com/CA/Pescadero/400-S-Ranch-Rd-94060/home/1701300,MLSListings,ML81517196,N,Y,37.236094,-122.345774
PAST SALE,July-22-2016,Single Family Residential,316 Madrone Ave,PESCADERO,CA,94060,680000,5,1.5,PESCADERO,1580,28314,1927,557,430,,Sold,,,http://www.redfin.com/CA/Pescadero/316-Madrone-Ave-94060/home/104498443,MLSListings,ML81580422,N,Y,37.2316961,-122.3263558
