SALE TYPE,SOLD DATE,PROPERTY TYPE,ADDRESS,CITY,STATE,ZIP,PRICE,BEDS,BATHS,LOCATION,SQUARE FEET,LOT SIZE,YEAR BUILT,DAYS ON MARKET,$/SQUARE FEET,HOA/MONTH,STATUS,NEXT OPEN HOUSE START TIME,NEXT OPEN HOUSE END TIME,URL (SEE http://www.redfin.com/buy-a-home/comparative-market-analysis FOR INFO ON PRICING),SOURCE,MLS#,FAVORITE,INTERESTED,LATITUDE,LONGITUDE
PAST SALE,,Condo/Co-op,1101 W El Camino Real Unit 117,Mountain View,CA,94040,725000,1,1.0,,820,,2017,,884,,,,,http://www.redfin.com/CA/Mountain-View/1101-W-El-Camino-Real-94040/unit-117/home/143041988,,,N,Y,37.3871979,-122.0874144
PAST SALE,November-6-2017,Condo/Co-op,110 E Middlefield Rd Unit C,MOUNTAIN VIEW,CA,94043,865000,2,1.0,MOUNTAIN VIEW,917,910,1972,85,943,405,Sold,,,http://www.redfin.com/CA/Mountain-View/110-E-Middlefield-Rd-94043/unit-C/home/1391850,MLSListings,ML81680330,N,Y,37.398693,-122.062882
PAST SALE,,Condo/Co-op,505 Cypress Point Dr Unit 57,Mountain View,CA,94043,450000,1,1.0,,662,,1971,,680,,,,,http://www.redfin.com/CA/Mountain-View/505-Cypress-Point-Dr-94043/unit-57/home/623172,,,N,Y,37.39769,-122.072516
PAST SALE,November-27-2017,Condo/Co-op,400 Ortega Ave #211,MOUNTAIN VIEW,CA,94040,625000,1,1.0,MOUNTAIN VIEW,763,1300,1975,64,819,359,Sold,,,http://www.redfin.com/CA/Mountain-View/400-Ortega-Ave-94040/unit-211/home/2121055,MLSListings,ML81676937,N,Y,37.4000103,-122.1052618
PAST SALE,November-15-2017,Condo/Co-op,183 Del Medio Ave #209,MOUNTAIN VIEW,CA,94040,635000,1,1.0,MOUNTAIN VIEW,756,756,1962,76,840,354,Sold,,,http://www.redfin.com/CA/Mountain-View/183-Del-Medio-Ave-94040/unit-209/home/12171991,MLSListings,ML81681294,N,Y,37.4078715,-122.1118772
PAST SALE,December-14-2017,Single Family Residential,386 Loreto St,MOUNTAIN VIEW,CA,94041,1900000,2,1.0,MOUNTAIN VIEW,952,5401,1927,47,1996,,Sold,,,http://www.redfin.com/CA/Mountain-View/386-Loreto-St-94041/home/1316232,MLSListings,ML81687111,N,Y,37.3900813,-122.0754941
PAST SALE,December-4-2017,Condo/Co-op,505 Cypress Point Dr #280,MOUNTAIN VIEW,CA,94041,685000,1,1.0,MOUNTAIN VIEW,784,2000,1971,57,874,434,Sold,,,http://www.redfin.com/CA/Mountain-View/505-Cypress-Point-Dr-94043/unit-280/home/1798174,MLSListings,ML81683563,N,Y,37.39769,-122.072516
PAST SALE,November-22-2017,Single Family Residential,1757 Crane Ave,MOUNTAIN VIEW,CA,94040,2050000,3,1.0,MOUNTAIN VIEW,1077,5000,1952,69,1903,,Sold,,,http://www.redfin.com/CA/Mountain-View/1757-Crane-Ave-94040/home/1527830,MLSListings,ML81682751,N,Y,37.371612,-122.086232
PAST SALE,,Condo/Co-op,1101 W El Camino Real Unit 309,Mountain View,CA,94040,792500,1,1.0,,845,,2017,,938,,,,,http://www.redfin.com/CA/Mountain-View/1101-W-El-Camino-Real-94040/unit-309/home/143042005,,,N,Y,37.3871979,-122.0874144
PAST SALE,December-12-2017,Condo/Co-op,500 W Middlefield Rd #81,MOUNTAIN VIEW,CA,94043,645000,1,1.0,MOUNTAIN VIEW,564,2000,1971,49,1144,385,Sold,,,http://www.redfin.com/CA/Mountain-View/500-W-Middlefield-Rd-94043/unit-81/home/1591441,MLSListings,ML81683457,N,Y,37.401406825,-122.0702666
PAST SALE,November-3-2017,Condo/Co-op,264 N Whisman Rd #20,MOUNTAIN VIEW,CA,94043,850000,2,1.0,MOUNTAIN VIEW,1087,3135,1978,88,782,652,Sold,,,http://www.redfin.com/CA/Mountain-View/264-N-Whisman-Rd-94043/unit-20/home/1197739,MLSListings,ML81678753,N,Y,37.3961285,-122.0601963
PAST SALE,December-29-2017,Condo/Co-op,400-B Ortega Ave #302,MOUNTAIN VIEW,CA,94040,725000,1,1.0,MOUNTAIN VIEW,763,1300,1975,32,950,359,Sold,,,http://www.redfin.com/CA/Mountain-View/400-Ortega-Ave-94040/unit-302/home/12171858,MLSListings,ML81682611,N,Y,37.4000103,-122.1052618
PAST SALE,December-27-2017,Condo/Co-op,500 W Middlefield Rd #100,MOUNTAIN VIEW,CA,94043,760000,1,1.0,MOUNTAIN VIEW,740,796,1971,34,1027,422,Sold,,,http://www.redfin.com/CA/Mountain-View/500-W-Middlefield-Rd-94043/unit-100/home/934701,MLSListings,ML81685646,N,Y,37.399578,-122.0708945
PAST SALE,January-16-2018,Condo/Co-op,500 W Middlefield Rd #181,MOUNTAIN VIEW,CA,94043,750000,1,1.0,MOUNTAIN VIEW,720,2000,1971,14,1042,411,Sold,,,http://www.redfin.com/CA/Mountain-View/500-W-Middlefield-Rd-94043/unit-181/home/1622194,MLSListings,ML81684258,N,Y,37.401406825,-122.0702666
PAST SALE,,Condo/Co-op,938 Clark Ave Apt 17,Mountain View,CA,94040,840000,2,1.0,,982,,1978,,855,,,,,http://www.redfin.com/CA/Mountain-View/938-Clark-Ave-94040/unit-17/home/637760,,,N,Y,37.3926924,-122.0999422
PAST SALE,,Condo/Co-op,1101 W El Camino Real Unit 305,Mountain View,CA,94040,714000,0,1.0,,712,,2017,,1003,,,,,http://www.redfin.com/CA/Mountain-View/1101-W-El-Camino-Real-94040/unit-305/home/143042007,,,N,Y,37.3871979,-122.0874144
PAST SALE,December-14-2017,Condo/Co-op,1910 Mount Vernon Ct #11,MOUNTAIN VIEW,CA,94040,620000,1,1.0,MOUNTAIN VIEW,884,910,1963,47,701,500,Sold,,,http://www.redfin.com/CA/Mountain-View/1910-Mount-Vernon-Ct-94040/unit-11/home/1867359,MLSListings,ML81680248,N,Y,37.396112,-122.094947
PAST SALE,,Condo/Co-op,1101 W El Camino Real Unit 307,Mountain View,CA,94040,792500,1,1.0,,845,,2017,,938,,,,,http://www.redfin.com/CA/Mountain-View/1101-W-El-Camino-Real-94040/unit-307/home/143042006,,,N,Y,37.3871979,-122.0874144
PAST SALE,November-22-2017,Condo/Co-op,104 E Middlefield Rd Unit D,MOUNTAIN VIEW,CA,94043,780000,2,1.0,MOUNTAIN VIEW,840,800,1972,69,929,405,Sold,,,http://www.redfin.com/CA/Mountain-View/104-E-Middlefield-Rd-94043/unit-D/home/593421,MLSListings,ML81682898,N,Y,37.3983599,-122.063267
PAST SALE,November-14-2017,Single Family Residential,858 Burgoyne St,MOUNTAIN VIEW,CA,94043,1660000,3,1.0,MOUNTAIN VIEW,877,6300,1951,77,1893,,Sold,,,http://www.redfin.com/CA/Mountain-View/858-Burgoyne-St-94043/home/708341,MLSListings,ML81681233,N,Y,37.4059681,-122.0862506
PAST SALE,December-1-2017,Single Family Residential,227 Oak St,MOUNTAIN VIEW,CA,94041,1250000,2,1.0,MOUNTAIN VIEW,806,3750,1927,60,1551,,Sold,,,http://www.redfin.com/CA/Mountain-View/227-Oak-St-94041/home/1762537,MLSListings,ML81684313,N,Y,37.3946826,-122.0823629
PAST SALE,,Condo/Co-op,1101 W El Camino Real Unit 303,Mountain View,CA,94040,990000,1,1.0,,1096,,2017,,903,,,,,http://www.redfin.com/CA/Mountain-View/1101-W-El-Camino-Real-94040/unit-303/home/143042008,,,N,Y,37.3871979,-122.0874144
PAST SALE,December-1-2017,Single Family Residential,1778 Wagner Ave,MOUNTAIN VIEW,CA,94043,1560000,3,1.0,MOUNTAIN VIEW,860,5100,1950,60,1814,,Sold,,,http://www.redfin.com/CA/Mountain-View/1778-Wagner-Ave-94043/home/1710124,MLSListings,ML81682523,Y,Y,37.4057761,-122.0867185
PAST SALE,,Single Family Residential,1761 Doane Ave,Mountain View,CA,94043,600000,3,1.0,,832,6396,1951,,721,,,,,http://www.redfin.com/CA/Mountain-View/1761-Doane-Ave-94043/home/1458879,,,N,Y,37.4068295,-122.0862587
PAST SALE,,Condo/Co-op,1101 W El Camino Real Unit 319,Mountain View,CA,94040,875000,1,1.0,,945,,2017,,926,,,,,http://www.redfin.com/CA/Mountain-View/1101-W-El-Camino-Real-94040/unit-319/home/143042013,,,N,Y,37.3871979,-122.0874144
PAST SALE,December-5-2017,Single Family Residential,814 Wake Forest Dr,MOUNTAIN VIEW,CA,94043,1100000,3,1.0,MOUNTAIN VIEW,816,6545,1954,56,1348,,Sold,,,http://www.redfin.com/CA/Mountain-View/814-Wake-Forest-Dr-94043/home/940908,MLSListings,ML81682858,N,Y,37.4042795,-122.0650891
PAST SALE,December-7-2017,Other,317 Sierra Vista Ave,MOUNTAIN VIEW,CA,94043,3350000,,,MOUNTAIN VIEW,,12972,,54,,,Sold,,,http://www.redfin.com/CA/Mountain-View/317-Sierra-Vista-Ave-94043/home/1666428,MLSListings,ML81674073,N,Y,37.405645,-122.090389
PAST SALE,November-2-2017,Condo/Co-op,274 Pamela Dr #7,MOUNTAIN VIEW,CA,94040,620000,2,1.0,MOUNTAIN VIEW,644,,1959,89,963,380,Sold,,,http://www.redfin.com/CA/Mountain-View/274-Pamela-Dr-94040/unit-7/home/1009634,MLSListings,ML81678719,N,Y,37.3809901,-122.0770983
PAST SALE,,Condo/Co-op,1101 W El Camino Real Unit 203,Mountain View,CA,94040,1060000,1,1.0,,1121,,2017,,946,,,,,http://www.redfin.com/CA/Mountain-View/1101-W-El-Camino-Real-94040/unit-203/home/143041995,,,N,Y,37.3871979,-122.0874144
PAST SALE,January-3-2018,Mobile/Manufactured Home,433 Sylvan #144,MOUNTAIN VIEW,CA,94041,229000,2,1.0,MOUNTAIN VIEW,832,,2011,27,275,,Sold,,,http://www.redfin.com/CA/Mountain-View/433-Sylvan-Ave-94041/unit-144/home/41395936,MLSListings,ML81682669,N,Y,37.383185,-122.05941
PAST SALE,December-13-2017,Condo/Co-op,2255 Showers Dr #197,MOUNTAIN VIEW,CA,94040,878888,2,1.0,MOUNTAIN VIEW,814,567,1999,48,1080,316,Sold,,,http://www.redfin.com/CA/Mountain-View/2255-Showers-Dr-94040/unit-197/home/12172184,MLSListings,ML81686070,N,Y,37.4072721,-122.1080943
PAST SALE,November-22-2017,Single Family Residential,520 Franklin St,MOUNTAIN VIEW,CA,94041,1500000,2,1.0,MOUNTAIN VIEW,948,2500,1940,69,1582,,Sold,,,http://www.redfin.com/CA/Mountain-View/520-Franklin-St-94041/home/618632,MLSListings,ML81681782,N,Y,37.3906106,-122.0839631
PAST SALE,November-2-2017,Condo/Co-op,505 Cypress Point Dr #26,MOUNTAIN VIEW,CA,94043,595000,1,1.0,MOUNTAIN VIEW,692,2000,1971,89,860,404,Sold,,,http://www.redfin.com/CA/Mountain-View/505-Cypress-Point-Dr-94043/unit-26/home/1274935,MLSListings,ML81678844,N,Y,37.39769,-122.072516
PAST SALE,,Condo/Co-op,1101 W El Camino Real Unit 219,Mountain View,CA,94040,860000,1,1.0,,945,,2017,,910,,,,,http://www.redfin.com/CA/Mountain-View/1101-W-El-Camino-Real-94040/unit-219/home/143042000,,,N,Y,37.3871979,-122.0874144
PAST SALE,November-9-2017,Condo/Co-op,280 Easy St #201,MOUNTAIN VIEW,CA,94043,543000,1,1.0,MOUNTAIN VIEW,711,2050,1964,82,764,362,Sold,,,http://www.redfin.com/CA/Mountain-View/280-Easy-St-94043/unit-201/home/625163,MLSListings,ML81679184,N,Y,37.3977731,-122.0669526
PAST SALE,December-5-2017,Townhouse,1921 Rock St #15,MOUNTAIN VIEW,CA,94043,950000,2,1.5,MOUNTAIN VIEW,972,486,1974,56,977,487,Sold,,,http://www.redfin.com/CA/Mountain-View/1921-Rock-St-94043/unit-15/home/893941,MLSListings,ML81682820,N,Y,37.4120545,-122.0879395
PAST SALE,December-27-2017,Single Family Residential,283 Carmelita Dr,MOUNTAIN VIEW,CA,94040,2450000,3,1.5,MOUNTAIN VIEW,1537,9298,1943,34,1594,,Sold,,,http://www.redfin.com/CA/Mountain-View/283-Carmelita-Dr-94040/home/1576045,MLSListings,ML81685834,N,Y,37.3756506,-122.0729446
PAST SALE,November-21-2017,Townhouse,12 Morning Sun Ct,MOUNTAIN VIEW,CA,94043,1120000,2,1.5,MOUNTAIN VIEW,999,2268,1976,70,1121,398,Sold,,,http://www.redfin.com/CA/Mountain-View/12-Morning-Sun-Ct-94043/home/614986,MLSListings,ML81681962,N,Y,37.406548,-122.0761392
PAST SALE,November-30-2017,Townhouse,2047 Montecito Ave #17,MOUNTAIN VIEW,CA,94043,1020000,2,1.5,MOUNTAIN VIEW,1000,2440,1964,61,1020,436,Sold,,,http://www.redfin.com/CA/Mountain-View/2047-Montecito-Ave-94043/unit-17/home/1653469,MLSListings,ML81683551,N,Y,37.405461,-122.094268
PAST SALE,January-23-2018,Townhouse,201 Flynn Ave #1,MOUNTAIN VIEW,CA,94043,1020000,2,1.5,MOUNTAIN VIEW,1254,584,1979,7,813,350,Sold,,,http://www.redfin.com/CA/Mountain-View/201-Flynn-Ave-94043/unit-1/home/1044413,MLSListings,ML81688500,N,Y,37.398381,-122.061839
PAST SALE,November-7-2017,Condo/Co-op,1031 Crestview Dr #306,MOUNTAIN VIEW,CA,94040,875000,2,2.0,MOUNTAIN VIEW,1140,1332,1969,84,768,424,Sold,,,http://www.redfin.com/CA/Mountain-View/1031-Crestview-Dr-94040/unit-306/home/1561753,MLSListings,ML81680323,N,Y,37.3737079,-122.059551
PAST SALE,November-17-2017,Single Family Residential,2445 Villa Nueva Way,MOUNTAIN VIEW,CA,94040,2650000,3,2.0,MOUNTAIN VIEW,1623,7000,1956,74,1633,,Sold,,,http://www.redfin.com/CA/Mountain-View/2445-Villa-Nueva-Way-94040/home/1642580,MLSListings,ML81683598,Y,Y,37.36884,-122.074916
PAST SALE,,Single Family Residential,1310 Harwalt Dr,Los Altos,CA,94024,2850000,3,2.0,,2039,10488,1962,,1398,,,,,http://www.redfin.com/CA/Los-Altos/1310-Harwalt-Dr-94024/home/1462503,,,N,Y,37.3589248,-122.0655339
PAST SALE,January-3-2018,Condo/Co-op,1135 Blackberry Terrace Ter,SUNNYVALE,CA,94087,1575000,3,2.0,SUNNYVALE,1374,2665,1973,27,1146,385,Sold,,,http://www.redfin.com/CA/Sunnyvale/1135-Blackberry-Ter-94087/home/883204,MLSListings,ML81686575,N,Y,37.356692,-122.060207
PAST SALE,November-13-2017,Single Family Residential,1125 Blue Lake Sq,MOUNTAIN VIEW,CA,94040,2300000,3,2.0,MOUNTAIN VIEW,1782,4200,1973,78,1291,371,Sold,,,http://www.redfin.com/CA/Mountain-View/1125-Blue-Lake-Sq-94040/home/1223820,MLSListings,ML81681163,N,Y,37.3586149,-122.0695578
PAST SALE,November-7-2017,Single Family Residential,1094 Robin Way,SUNNYVALE,CA,94087,1710000,3,2.0,SUNNYVALE,1332,5980,1955,84,1284,,Sold,,,http://www.redfin.com/CA/Sunnyvale/1094-Robin-Way-94087/home/1174579,MLSListings,ML81679080,N,Y,37.3600085,-122.0605249
PAST SALE,,Condo/Co-op,49 Showers Dr Apt N166,Mountain View,CA,94040,1045000,2,2.0,,1168,1880,1974,,895,,,,,http://www.redfin.com/CA/Mountain-View/49-Showers-Dr-94040/unit-N166/home/12171751,,,N,Y,37.4049241,-122.1040167
PAST SALE,,Condo/Co-op,1101 W El Camino Real Unit 418,Mountain View,CA,94040,1391000,2,2.0,,1247,,2017,,1115,,,,,http://www.redfin.com/CA/Mountain-View/1101-W-El-Camino-Real-94040/unit-418/home/143042025,,,N,Y,37.3871979,-122.0874144
PAST SALE,January-5-2018,Mobile/Manufactured Home,325 Sylvan Ave #74,MOUNTAIN VIEW,CA,94041,225000,3,2.0,MOUNTAIN VIEW,1050,,2005,25,214,,Sold,,,http://www.redfin.com/CA/Mountain-View/325-Sylvan-Ave-94041/unit-74/home/143829064,MLSListings,ML81678226,N,Y,37.3849386,-122.0586883
PAST SALE,,Single Family Residential,954 Burgoyne St,Mountain View,CA,94043,1565000,4,2.0,,1120,5400,1951,,1397,,,,,http://www.redfin.com/CA/Mountain-View/954-Burgoyne-St-94043/home/1136679,,,N,Y,37.4066285,-122.086031
PAST SALE,January-9-2018,Condo/Co-op,321 Easy St #8,MOUNTAIN VIEW,CA,94043,1010000,2,2.0,MOUNTAIN VIEW,962,962,1979,21,1050,331,Sold,,,http://www.redfin.com/CA/Mountain-View/321-Easy-St-94043/unit-8/home/1854778,MLSListings,ML81686305,N,Y,37.4003296,-122.0651123
PAST SALE,,Single Family Residential,180 Athena Ln,Mountain View,CA,94043,1778000,3,2.0,,1664,2244,2016,,1069,,,,,http://www.redfin.com/CA/Mountain-View/180-Athena-Ln-94043/home/143042833,,,N,Y,37.4008728,-122.0603304
PAST SALE,January-17-2018,Condo/Co-op,108 Bryant St #25,MOUNTAIN VIEW,CA,94041,1390000,2,2.0,MOUNTAIN VIEW,1078,810,2000,13,1289,365,Sold,,,http://www.redfin.com/CA/Mountain-View/108-Bryant-St-94041/unit-25/home/752878,MLSListings,ML81686570,N,Y,37.3954569,-122.0795503
PAST SALE,,Condo/Co-op,1101 El Camino Real Unit 413,Mountain View,CA,94040,1074000,2,2.0,,1150,,2017,,934,,,,,http://www.redfin.com/CA/Mountain-View/1101-El-Camino-Real-94040/unit-413/home/143042029,,,N,Y,37.3871979,-122.0874144
PAST SALE,,Condo/Co-op,1101 El Camino Real Unit 410,Mountain View,CA,94040,1250000,2,2.0,,1182,,2017,,1058,,,,,http://www.redfin.com/CA/Mountain-View/1101-El-Camino-Real-94040/unit-410/home/143042024,,,N,Y,37.3871979,-122.0874144
PAST SALE,,Condo/Co-op,1101 W El Camino Real Unit 110,Mountain View,CA,94040,1148000,2,2.0,,1182,809,2017,,971,,,,,http://www.redfin.com/CA/Mountain-View/1101-W-El-Camino-Real-94040/unit-110/home/143041985,,,N,Y,37.3871979,-122.0874144
PAST SALE,,Condo/Co-op,1101 W El Camino Real Unit 310,Mountain View,CA,94040,1160000,2,2.0,,1182,,2017,,981,,,,,http://www.redfin.com/CA/Mountain-View/1101-W-El-Camino-Real-94040/unit-310/home/143042011,,,N,Y,37.3871979,-122.0874144
PAST SALE,,Condo/Co-op,1101 W El Camino Real Unit 215,Mountain View,CA,94040,1098000,2,2.0,,1199,809,2017,,916,,,,,http://www.redfin.com/CA/Mountain-View/1101-W-El-Camino-Real-94040/unit-215/home/143042002,,,N,Y,37.3871979,-122.0874144
PAST SALE,,Single Family Residential,178 Athena Ln,Mountain View,CA,94043,1778000,3,2.0,,1664,2112,2016,,1069,,,,,http://www.redfin.com/CA/Mountain-View/178-Athena-Ln-94043/home/143042834,,,N,Y,37.4008728,-122.0603304
PAST SALE,,Condo/Co-op,1101 W El Camino Real Unit 213,Mountain View,CA,94040,1016000,2,2.0,,1150,,2017,,883,,,,,http://www.redfin.com/CA/Mountain-View/1101-W-El-Camino-Real-94040/unit-213/home/143042003,,,N,Y,37.3871979,-122.0874144
PAST SALE,November-1-2017,Condo/Co-op,280 Easy St #210,MOUNTAIN VIEW,CA,94043,830000,2,2.0,MOUNTAIN VIEW,967,2050,1964,90,858,362,Sold,,,http://www.redfin.com/CA/Mountain-View/280-Easy-St-94043/unit-210/home/1642180,MLSListings,ML81682113,N,Y,37.3977731,-122.0669526
PAST SALE,November-17-2017,Single Family Residential,352 Ruth Ave,MOUNTAIN VIEW,CA,94043,2035000,3,2.0,MOUNTAIN VIEW,1140,5000,1956,74,1785,,Sold,,,http://www.redfin.com/CA/Mountain-View/352-Ruth-Ave-94043/home/1771305,MLSListings,ML81682060,N,Y,37.4097146,-122.1017422
PAST SALE,,Condo/Co-op,204 ATHENA CT,MOUNTAIN VIEW,CA,94043,1568000,3,2.0,,1526,,2016,,1028,,,,,http://www.redfin.com/CA/MOUNTAIN-VIEW/204-ATHENA-CT-94043/home/143042848,,,N,Y,37.428434,-122.0723816
PAST SALE,November-15-2017,Mobile/Manufactured Home,1075 Space Park Way #311,MOUNTAIN VIEW,CA,94043,90000,3,2.0,MOUNTAIN VIEW,1080,,1970,76,83,,Sold,,,http://www.redfin.com/CA/Mountain-View/1075-Park-Way-94043/unit-311/home/143840836,MLSListings,ML81678299,N,Y,37.4165969,-122.0694643
PAST SALE,,Condo/Co-op,196 ATHENA CT,MOUNTAIN VIEW,CA,94043,1548000,3,2.0,,1526,,2016,,1014,,,,,http://www.redfin.com/CA/MOUNTAIN-VIEW/196-ATHENA-CT-94043/home/143042843,,,N,Y,37.428434,-122.0723816
PAST SALE,,Condo/Co-op,194 ATHENA CT,MOUNTAIN VIEW,CA,94043,1588000,3,2.0,,1526,,2016,,1041,,,,,http://www.redfin.com/CA/MOUNTAIN-VIEW/194-ATHENA-CT-94043/home/143042842,,,N,Y,37.428434,-122.0723816
PAST SALE,,Condo/Co-op,190 ATHENA CT,MOUNTAIN VIEW,CA,94043,1568000,3,2.0,,1526,,2016,,1028,,,,,http://www.redfin.com/CA/MOUNTAIN-VIEW/190-ATHENA-CT-94043/home/143042840,,,N,Y,37.428434,-122.0723816
PAST SALE,,Condo/Co-op,192 ATHENA CT,MOUNTAIN VIEW,CA,94043,1558000,3,2.0,,1526,,2016,,1021,,,,,http://www.redfin.com/CA/MOUNTAIN-VIEW/192-ATHENA-CT-94043/home/143042839,,,N,Y,37.428434,-122.0723816
PAST SALE,November-22-2017,Condo/Co-op,500 W Middlefield Rd #19,MOUNTAIN VIEW,CA,94043,925000,2,2.0,MOUNTAIN VIEW,1136,2000,1971,69,814,460,Sold,,,http://www.redfin.com/CA/Mountain-View/500-W-Middlefield-Rd-94043/unit-19/home/1022387,MLSListings,ML81679129,N,Y,37.401406825,-122.0702666
PAST SALE,,Single Family Residential,188 ATHENA CT,MOUNTAIN VIEW,CA,94043,1708000,3,2.0,,1603,3030,2016,,1066,,,,,http://www.redfin.com/CA/MOUNTAIN-VIEW/188-ATHENA-CT-94043/home/143042841,,,N,Y,37.428434,-122.0723816
PAST SALE,,Condo/Co-op,124 SONOMA TER,MOUNTAIN VIEW,CA,94043,1190000,2,2.0,,1328,,2016,,896,,,,,http://www.redfin.com/CA/MOUNTAIN-VIEW/124-SONOMA-TER-94043/home/143042891,,,N,Y,37.428434,-122.0723816
PAST SALE,December-21-2017,Mobile/Manufactured Home,1075 Space Park Way #221,MOUNTAIN VIEW,CA,94043,78000,3,2.0,MOUNTAIN VIEW,1200,,1966,40,65,,Sold,,,http://www.redfin.com/CA/Mountain-View/1075-Park-Way-94043/unit-221/home/144355752,MLSListings,ML81685408,N,Y,37.4165969,-122.0694643
PAST SALE,December-8-2017,Condo/Co-op,500 W Middlefield Rd #50,MOUNTAIN VIEW,CA,94043,860000,2,2.0,MOUNTAIN VIEW,978,2000,1971,53,879,460,Sold,,,http://www.redfin.com/CA/Mountain-View/500-W-Middlefield-Rd-94043/unit-50/home/623572,MLSListings,ML81682510,N,Y,37.401406825,-122.0702666
PAST SALE,December-20-2017,Condo/Co-op,505 Cypress Point Dr #192,MOUNTAIN VIEW,CA,94043,1065000,2,2.0,MOUNTAIN VIEW,1105,2000,1971,41,964,469,Sold,,,http://www.redfin.com/CA/Mountain-View/505-Cypress-Point-Dr-94043/unit-192/home/623219,MLSListings,ML81685325,N,Y,37.39769,-122.072516
PAST SALE,January-26-2018,Mobile/Manufactured Home,191 E El Camino Real #251,MOUNTAIN VIEW,CA,94040,239000,2,2.0,MOUNTAIN VIEW,1140,,1995,4,210,,Sold,,,http://www.redfin.com/CA/Mountain-View/191-E-El-Camino-Real-94040/unit-251/home/1179702,MLSListings,ML81687196,N,Y,37.3785654,-122.069854
PAST SALE,November-8-2017,Condo/Co-op,765 San Antonio Rd #20,PALO ALTO,CA,94303,1275000,2,2.0,PALO ALTO,1030,1144,1976,83,1238,468,Sold,,,http://www.redfin.com/CA/Palo-Alto/765-San-Antonio-Rd-94303/unit-20/home/1315348,MLSListings,ML81681323,N,Y,37.4181534,-122.1027537
PAST SALE,November-9-2017,Condo/Co-op,905 W Middlefield Rd #982,MOUNTAIN VIEW,CA,94043,943000,2,2.0,MOUNTAIN VIEW,998,2400,1978,82,945,490,Sold,,,http://www.redfin.com/CA/Mountain-View/905-W-Middlefield-Rd-94043/unit-982/home/1466390,MLSListings,ML81680633,N,Y,37.4053062,-122.0776934
PAST SALE,,Condo/Co-op,127 Fairchild Dr,Mountain View,CA,94043,1340000,3,2.0,,1753,,2016,,764,,,,,http://www.redfin.com/CA/Mountain-View/127-Fairchild-Dr-94043/home/143042903,,,N,Y,37.4060252,-122.0614484
PAST SALE,,Condo/Co-op,1101 El Camino Real Unit 315,Mountain View,CA,94040,1125000,2,2.0,,1199,,2017,,938,,,,,http://www.redfin.com/CA/Mountain-View/1101-El-Camino-Real-94040/unit-315/home/143042015,,,N,Y,37.3871979,-122.0874144
PAST SALE,,Condo/Co-op,120 Evandale Ave,Mountain View,CA,94043,1485000,3,2.0,,1753,,2016,,847,,,,,http://www.redfin.com/CA/Mountain-View/120-Evandale-Ave-94043/home/143042875,,,N,Y,37.4054065,-122.0616856
PAST SALE,December-21-2017,Townhouse,229 Horizon Ave,MOUNTAIN VIEW,CA,94043,1461000,3,2.0,MOUNTAIN VIEW,1336,1170,1973,40,1094,480,Sold,,,http://www.redfin.com/CA/Mountain-View/229-Horizon-Ave-94043/home/1541605,MLSListings,ML81684680,N,Y,37.396123,-122.0744
PAST SALE,,Condo/Co-op,1101 W El Camino Real Unit 318,Mountain View,CA,94040,1510000,3,2.0,,1449,,2017,,1042,,,,,http://www.redfin.com/CA/Mountain-View/1101-W-El-Camino-Real-94040/unit-318/home/143042012,,,N,Y,37.3871979,-122.0874144
PAST SALE,December-8-2017,Condo/Co-op,49 Showers Dr Unit W106,MOUNTAIN VIEW,CA,94040,1029000,2,2.0,MOUNTAIN VIEW,1206,1880,1974,53,853,410,Sold,,,http://www.redfin.com/CA/Mountain-View/49-Showers-Dr-94040/unit-W106/home/2120879,MLSListings,ML81682720,N,Y,37.4049241,-122.1040167
PAST SALE,December-11-2017,Condo/Co-op,1963 Rock St #27,MOUNTAIN VIEW,CA,94043,1175000,2,2.0,MOUNTAIN VIEW,1257,1716,1973,50,935,442,Sold,,,http://www.redfin.com/CA/Mountain-View/1963-Rock-St-94043/unit-27/home/991558,MLSListings,ML81675457,N,Y,37.4121608,-122.0899739
PAST SALE,,Single Family Residential,1048 Farley St,Mountain View,CA,94043,385000,4,2.0,,1615,6123,1951,,238,,,,,http://www.redfin.com/CA/Mountain-View/1048-Farley-St-94043/home/1680476,,,N,Y,37.4078423,-122.0879156
PAST SALE,December-7-2017,Other,315 Sierra Vista Ave,MOUNTAIN VIEW,CA,94043,3350000,,,MOUNTAIN VIEW,,12972,,54,,,Sold,,,http://www.redfin.com/CA/Mountain-View/315-Sierra-Vista-Ave-94043/home/1007784,MLSListings,ML81674071,N,Y,37.4056545,-122.0907557
PAST SALE,,Condo/Co-op,765 San Antonio Rd Apt 76,Palo Alto,CA,94303,1100000,2,2.0,,1030,,1976,,1068,,,,,http://www.redfin.com/CA/Palo-Alto/765-San-Antonio-Rd-94303/unit-76/home/1005305,,,N,Y,37.4181534,-122.1027537
PAST SALE,,Condo/Co-op,1101 W El Camino Real Unit 202,Mountain View,CA,94040,1450000,3,2.0,,1449,,2017,,1001,,,,,http://www.redfin.com/CA/Mountain-View/1101-W-El-Camino-Real-94040/unit-202/home/143041996,,,N,Y,37.3871979,-122.0874144
PAST SALE,December-29-2017,Condo/Co-op,49 Showers Dr Unit A334,MOUNTAIN VIEW,CA,94040,1108000,2,2.0,MOUNTAIN VIEW,1206,1880,1977,32,919,410,Sold,,,http://www.redfin.com/CA/Mountain-View/49-Showers-Dr-94040/unit-A334/home/12171831,MLSListings,ML81682343,N,Y,37.4049241,-122.1040167
PAST SALE,December-28-2017,Townhouse,4282 Ponce Dr,PALO ALTO,CA,94306,1812000,3,2.0,PALO ALTO,1777,4608,1975,33,1020,530,Sold,,,http://www.redfin.com/CA/Palo-Alto/4282-Ponce-Dr-94306/home/826317,MLSListings,ML81685641,N,Y,37.40932,-122.108719
PAST SALE,,Condo/Co-op,218 Athena Ln,Mountain View,CA,94043,1755000,3,2.0,,1526,,2016,,1150,,,,,http://www.redfin.com/CA/Mountain-View/218-Athena-Ln-94043/home/143042853,,,N,Y,37.4008728,-122.0603304
PAST SALE,,Single Family Residential,1766 Wagner Ave,Mountain View,CA,94043,1520000,3,2.0,,1353,5049,1950,,1123,,,,,http://www.redfin.com/CA/Mountain-View/1766-Wagner-Ave-94043/home/612773,,,N,Y,37.4057089,-122.0865352
PAST SALE,,Single Family Residential,1778 Rock St,Mountain View,CA,94043,1250000,3,2.0,,1500,6000,1955,,833,,,,,http://www.redfin.com/CA/Mountain-View/1778-Rock-St-94043/home/620186,,,N,Y,37.4124505,-122.0860091
PAST SALE,,Condo/Co-op,550 Ortega Ave Apt B333,Mountain View,CA,94040,1100000,2,2.0,,1080,,1992,,1019,,,,,http://www.redfin.com/CA/Mountain-View/550-Ortega-Ave-94040/unit-B333/home/12172056,,,N,Y,37.399132,-122.1062035
PAST SALE,,Condo/Co-op,137 Fairchild Dr,Mountain View,CA,94043,1320000,3,2.0,,1753,,2016,,753,,,,,http://www.redfin.com/CA/Mountain-View/137-Fairchild-Dr-94043/home/143042907,,,N,Y,37.4059612,-122.0611528
PAST SALE,November-2-2017,Single Family Residential,916 Golden Way,LOS ALTOS,CA,94024,2700000,3,2.0,LOS ALTOS,1735,10764,1954,89,1556,,Sold,,,http://www.redfin.com/CA/Los-Altos/916-Golden-Way-94024/home/1785732,MLSListings,ML81681086,Y,Y,37.3665444,-122.0911899
PAST SALE,November-9-2017,Single Family Residential,821 Central Ave,MOUNTAIN VIEW,CA,94043,1860000,3,2.0,MOUNTAIN VIEW,1357,4550,1946,82,1371,,Sold,,,http://www.redfin.com/CA/Mountain-View/821-Central-Ave-94043/home/940613,MLSListings,ML81682786,N,Y,37.397695,-122.0770041
PAST SALE,November-13-2017,Single Family Residential,1294 Mercy St,MOUNTAIN VIEW,CA,94041,1900000,3,2.0,MOUNTAIN VIEW,1432,7500,1922,78,1327,,Sold,,,http://www.redfin.com/CA/Mountain-View/Undisclosed-address-94041/home/1591181,MLSListings,ML81678406,N,Y,37.3923381,-122.0865907
PAST SALE,December-14-2017,Condo/Co-op,2080 Marich Way #20,MOUNTAIN VIEW,CA,94040,1705000,2,2.0,MOUNTAIN VIEW,1472,901,1982,47,1158,530,Sold,,,http://www.redfin.com/CA/Mountain-View/2080-Marich-Way-94040/unit-20/home/637891,MLSListings,ML81685848,N,Y,37.3931934,-122.1022935
PAST SALE,November-13-2017,Single Family Residential,1107 Cuesta Dr,MOUNTAIN VIEW,CA,94040,2000000,3,2.0,MOUNTAIN VIEW,1280,6200,1955,78,1563,,Sold,,,http://www.redfin.com/CA/Mountain-View/1107-Cuesta-Dr-94040/home/644538,MLSListings,ML81681263,N,Y,37.3731339,-122.0935728
PAST SALE,November-17-2017,Single Family Residential,905 Leonello Ave,LOS ALTOS,CA,94024,2788800,3,2.0,LOS ALTOS,1915,10764,1949,74,1456,,Sold,,,http://www.redfin.com/CA/Los-Altos/905-Leonello-Ave-94024/home/764261,MLSListings,ML81679341,N,Y,37.3667752,-122.0929148
PAST SALE,December-13-2017,Single Family Residential,689 Riviera Dr,LOS ALTOS,CA,94024,2950000,4,2.0,LOS ALTOS,2124,11200,1955,48,1389,,Sold,,,http://www.redfin.com/CA/Los-Altos/689-Riviera-Dr-94024/home/1822889,MLSListings,ML81683440,N,Y,37.3793758,-122.0966428
PAST SALE,December-15-2017,Condo/Co-op,2040 W Middlefield Rd #3,MOUNTAIN VIEW,CA,94043,990000,2,2.0,MOUNTAIN VIEW,1431,1800,1974,46,692,550,Sold,,,http://www.redfin.com/CA/Mountain-View/2040-W-Middlefield-Rd-94043/unit-3/home/940881,MLSListings,ML81680438,N,Y,37.4115954,-122.0918303
PAST SALE,December-5-2017,Townhouse,100 W El Camino Real #42,MOUNTAIN VIEW,CA,94040,1165000,2,2.0,MOUNTAIN VIEW,1199,2240,1981,56,972,433,Sold,,,http://www.redfin.com/CA/Mountain-View/100-W-El-Camino-Real-94040/unit-42/home/1173502,MLSListings,ML81683773,N,Y,37.3829005,-122.0769449
PAST SALE,,Condo/Co-op,1101 El Camino Real Unit 108,Mountain View,CA,94040,1205000,2,2.0,,1253,,2017,,962,,,,,http://www.redfin.com/CA/Mountain-View/1101-El-Camino-Real-94040/unit-108/home/143041984,,,N,Y,37.3871979,-122.0874144
PAST SALE,,Condo/Co-op,1101 El Camino Real Unit 118,Mountain View,CA,94040,1395000,3,2.0,,1449,,2017,,963,,,,,http://www.redfin.com/CA/Mountain-View/1101-El-Camino-Real-94040/unit-118/home/143041986,,,N,Y,37.3871979,-122.0874144
PAST SALE,December-4-2017,Townhouse,15 Cassandra Way,MOUNTAIN VIEW,CA,94043,1155000,2,2.0,MOUNTAIN VIEW,992,1881,1970,57,1164,440,Sold,,,http://www.redfin.com/CA/Mountain-View/15-Cassandra-Way-94043/home/1748977,MLSListings,ML81683107,N,Y,37.3957212,-122.0664569
PAST SALE,,Condo/Co-op,139 Fairchild Dr,Mountain View,CA,94043,1075000,2,2.0,,1323,,2016,,813,,,,,http://www.redfin.com/CA/Mountain-View/139-Fairchild-Dr-94043/home/143042908,,,N,Y,37.4059524,-122.061112
PAST SALE,,Condo/Co-op,1101 W El Camino Real Unit 113,Mountain View,CA,94040,1050000,2,2.0,,1150,,2017,,913,,,,,http://www.redfin.com/CA/Mountain-View/1101-W-El-Camino-Real-94040/unit-113/home/143041990,,,N,Y,37.3871979,-122.0874144
PAST SALE,,Condo/Co-op,126 Sonoma Ter,Mountain View,CA,94043,1435000,3,2.0,,1851,,2016,,775,,,,,http://www.redfin.com/CA/Mountain-View/126-Sonoma-Ter-94043/home/143042890,,,N,Y,37.4058057,-122.0616823
PAST SALE,November-6-2017,Condo/Co-op,116 Greenmeadow Way,PALO ALTO,CA,94306,1400000,2,2.0,PALO ALTO,1131,4887,1974,85,1238,444,Sold,,,http://www.redfin.com/CA/Palo-Alto/116-Greenmeadow-Way-94306/home/1094958,MLSListings,ML81679588,N,Y,37.412527,-122.113719
PAST SALE,November-14-2017,Single Family Residential,4344 Silva Ave,PALO ALTO,CA,94306,2620000,4,2.0,PALO ALTO,1928,9506,1951,77,1359,,Sold,,,http://www.redfin.com/CA/Palo-Alto/4344-Silva-Ave-94306/home/12171503,MLSListings,ML81681302,N,Y,37.408145,-122.1140872
PAST SALE,,Condo/Co-op,132 Sonoma Ter,Mountain View,CA,94043,1175000,2,2.0,,1328,,2016,,885,,,,,http://www.redfin.com/CA/Mountain-View/132-Sonoma-Ter-94043/home/143042887,,,N,Y,37.4058057,-122.0616823
PAST SALE,,Condo/Co-op,130 Sonoma Ter,Mountain View,CA,94043,1450000,3,2.0,,1851,,2016,,783,,,,,http://www.redfin.com/CA/Mountain-View/130-Sonoma-Ter-94043/home/143042888,,,N,Y,37.4058057,-122.0616823
PAST SALE,,Condo/Co-op,1721 California St Apt 4,Mountain View,CA,94041,863000,2,2.0,,860,,1989,,1003,,,,,http://www.redfin.com/CA/Mountain-View/1721-California-St-94041/unit-4/home/1507621,,,N,Y,37.3955162,-122.0919648
PAST SALE,November-3-2017,Single Family Residential,2320 Jewell Pl,MOUNTAIN VIEW,CA,94043,1942000,4,2.0,MOUNTAIN VIEW,1899,6215,1955,88,1023,,Sold,,,http://www.redfin.com/CA/Mountain-View/2320-Jewell-Pl-94043/home/688532,MLSListings,ML81679519,N,Y,37.4076545,-122.0962589
PAST SALE,,Single Family Residential,182 Athena Ln,Mountain View,CA,94043,1758000,3,2.0,,1603,2886,2016,,1097,,,,,http://www.redfin.com/CA/Mountain-View/182-Athena-Ln-94043/home/143042836,,,N,Y,37.4008728,-122.0603304
PAST SALE,,Single Family Residential,184 Athena Ln,Mountain View,CA,94043,1758000,3,2.0,,1664,2112,2016,,1056,,,,,http://www.redfin.com/CA/Mountain-View/184-Athena-Ln-94043/home/143042837,,,N,Y,37.4008728,-122.0603304
PAST SALE,,Single Family Residential,186 Athena Ln,Mountain View,CA,94043,1758000,3,2.0,,1664,2244,2016,,1056,,,,,http://www.redfin.com/CA/Mountain-View/186-Athena-Ln-94043/home/143042838,,,N,Y,37.4008728,-122.0603304
PAST SALE,November-15-2017,Condo/Co-op,437 Costa Mesa Ter Unit D,SUNNYVALE,CA,94085,980000,3,2.0,SUNNYVALE,1094,1080,1985,76,896,382,Sold,,,http://www.redfin.com/CA/Sunnyvale/437-Costa-Mesa-Ter-94085/unit-D/home/1223232,MLSListings,ML81680397,N,Y,37.3919501,-122.0451088
PAST SALE,,Condo/Co-op,125 Sonoma Ter,Mountain View,CA,94043,1240000,2,2.0,,1328,,2016,,934,,,,,http://www.redfin.com/CA/Mountain-View/125-Sonoma-Ter-94043/home/143042882,,,N,Y,37.4058057,-122.0616823
PAST SALE,,Condo/Co-op,127 Sonoma Ter,Mountain View,CA,94043,1510000,3,2.0,,1851,,2016,,816,,,,,http://www.redfin.com/CA/Mountain-View/127-Sonoma-Ter-94043/home/143042883,,,N,Y,37.4058057,-122.0616823
PAST SALE,November-21-2017,Townhouse,757 Rainbow Dr,MOUNTAIN VIEW,CA,94041,1200000,2,2.0,MOUNTAIN VIEW,1067,3650,1967,70,1125,,Sold,,,http://www.redfin.com/CA/Mountain-View/757-Rainbow-Dr-94041/home/624716,MLSListings,ML81681295,N,Y,37.378633,-122.064022
PAST SALE,,Condo/Co-op,232 O'Keefe Way,Mountain View,CA,94041,1480000,2,2.0,,1458,,2009,,1015,,,,,http://www.redfin.com/CA/Mountain-View/232-O-Keefe-Way-94041/home/28895617,,,N,Y,37.386533,-122.057533
PAST SALE,,Single Family Residential,751 Leong Dr,Mountain View,CA,94043,1230000,3,1.0,,1047,5000,1954,,1175,,,,,http://www.redfin.com/CA/Mountain-View/751-Leong-Dr-94043/home/1164159,,,N,Y,37.4045022,-122.0670221
PAST SALE,December-29-2017,Single Family Residential,801 Emily Dr,MOUNTAIN VIEW,CA,94043,1445000,4,2.0,MOUNTAIN VIEW,1100,5600,1954,32,1314,,Sold,,,http://www.redfin.com/CA/Mountain-View/801-Emily-Dr-94043/home/1690963,MLSListings,ML81685250,N,Y,37.4043815,-122.0658847
PAST SALE,December-28-2017,Single Family Residential,2380 Sun Mor Ave,MOUNTAIN VIEW,CA,94040,2322000,3,2.0,MOUNTAIN VIEW,1722,9375,1952,33,1348,,Sold,,,http://www.redfin.com/CA/Mountain-View/2380-Sun-Mor-Ave-94040/home/648598,MLSListings,ML81685370,N,Y,37.3700173,-122.0703817
PAST SALE,,Condo/Co-op,119 Frederick Ct,Mountain View,CA,94043,1130000,3,2.0,,1119,,1998,,1010,,,,,http://www.redfin.com/CA/Mountain-View/119-Frederick-Ct-94043/home/1150779,,,N,Y,37.3896926,-122.0597721
PAST SALE,,Condo/Co-op,131 Sonoma Ter,Mountain View,CA,94043,1530000,3,2.0,,1851,,2016,,827,,,,,http://www.redfin.com/CA/Mountain-View/131-Sonoma-Ter-94043/home/143042885,,,N,Y,37.4058057,-122.0616823
PAST SALE,December-5-2017,Single Family Residential,1270 Cuernavaca Circulo,MOUNTAIN VIEW,CA,94040,2111000,3,2.0,MOUNTAIN VIEW,1535,3800,1986,56,1375,250,Sold,,,http://www.redfin.com/CA/Mountain-View/1270-Cuernavaca-Circulo-94040/home/1642630,MLSListings,ML81684623,N,Y,37.371371,-122.062117
PAST SALE,November-3-2017,Single Family Residential,1770 Cherrytree Ln,MOUNTAIN VIEW,CA,94040,2670000,4,2.5,MOUNTAIN VIEW,1711,7954,1954,88,1560,,Sold,,,http://www.redfin.com/CA/Mountain-View/1770-Cherrytree-Ln-94040/home/641367,MLSListings,ML81679632,N,Y,37.3715522,-122.0908275
PAST SALE,November-17-2017,Single Family Residential,1605 Fordham Way,MOUNTAIN VIEW,CA,94040,2626160,3,2.5,MOUNTAIN VIEW,1592,9548,1954,74,1650,,Sold,,,http://www.redfin.com/CA/Mountain-View/1605-Fordham-Way-94040/home/1273257,MLSListings,ML81682100,N,Y,37.3769521,-122.0910124
PAST SALE,November-16-2017,Single Family Residential,102 Fair Oaks St,MOUNTAIN VIEW,CA,94040,1550000,3,2.5,MOUNTAIN VIEW,1206,3055,2004,75,1285,,Sold,,,http://www.redfin.com/CA/Mountain-View/102-Fair-Oaks-Ave-94040/home/12177546,MLSListings,ML81682085,N,Y,37.4030248,-122.0988299
PAST SALE,November-2-2017,Townhouse,172 Campbell Dr,MOUNTAIN VIEW,CA,94043,1390000,3,2.5,MOUNTAIN VIEW,1288,435,2000,89,1079,217,Sold,,,http://www.redfin.com/CA/Mountain-View/172-Campbell-Dr-94043/home/813608,MLSListings,ML81679734,N,Y,37.3916519,-122.0586833
PAST SALE,November-14-2017,Condo/Co-op,128 Ada Ave #15,MOUNTAIN VIEW,CA,94043,1500000,3,2.5,MOUNTAIN VIEW,1544,3600,1990,77,972,440,Sold,,,http://www.redfin.com/CA/Mountain-View/128-Ada-Ave-94043/unit-15/home/1447063,MLSListings,ML81681688,N,Y,37.392914,-122.066528
PAST SALE,November-30-2017,Townhouse,424 Kent Dr,MOUNTAIN VIEW,CA,94043,1520000,3,2.5,MOUNTAIN VIEW,1352,1304,2005,61,1124,234,Sold,,,http://www.redfin.com/CA/Mountain-View/424-Kent-Dr-94043/home/879671,MLSListings,ML81683599,N,Y,37.390517,-122.058087
PAST SALE,December-6-2017,Townhouse,369 Snyder Ln,MOUNTAIN VIEW,CA,94043,1500000,3,2.5,MOUNTAIN VIEW,1390,2150,1998,55,1079,343,Sold,,,http://www.redfin.com/CA/Mountain-View/369-Snyder-Ln-94043/home/1008829,MLSListings,ML81683587,N,Y,37.392428,-122.059187
PAST SALE,December-13-2017,Townhouse,175 Evandale Ave #4,MOUNTAIN VIEW,CA,94043,1260000,2,2.5,MOUNTAIN VIEW,1167,3060,1981,48,1080,334,Sold,,,http://www.redfin.com/CA/Mountain-View/175-Evandale-Ave-94043/unit-4/home/1309381,MLSListings,ML81684037,N,Y,37.4045225,-122.0590985
PAST SALE,December-11-2017,Townhouse,201 Flynn Ave #18,MOUNTAIN VIEW,CA,94043,1400000,3,2.5,MOUNTAIN VIEW,1420,3174,1979,50,986,350,Sold,,,http://www.redfin.com/CA/Mountain-View/201-Flynn-Ave-94043/unit-18/home/1354521,MLSListings,ML81684157,N,Y,37.398381,-122.061839
PAST SALE,January-3-2018,Single Family Residential,400 Nicholas Dr,MOUNTAIN VIEW,CA,94043,2100000,3,2.5,MOUNTAIN VIEW,1728,3036,1998,27,1215,148,Sold,,,http://www.redfin.com/CA/Mountain-View/400-Nicholas-Dr-94043/home/1601559,MLSListings,ML81685922,N,Y,37.3892431,-122.0599295
PAST SALE,December-28-2017,Townhouse,165 Gladys Ave,MOUNTAIN VIEW,CA,94043,1780000,3,2.5,MOUNTAIN VIEW,1743,1375,1985,33,1021,510,Sold,,,http://www.redfin.com/CA/Mountain-View/165-Gladys-Ave-94043/home/1345671,MLSListings,ML81685859,N,Y,37.3950229,-122.0629778
PAST SALE,December-28-2017,Townhouse,133 Huntington Ct,MOUNTAIN VIEW,CA,94043,1350000,3,2.5,MOUNTAIN VIEW,1119,880,1998,33,1206,217,Sold,,,http://www.redfin.com/CA/Mountain-View/133-Huntington-Ct-94043/home/624029,MLSListings,ML81687712,N,Y,37.3895477,-122.0587832
PAST SALE,January-23-2018,Townhouse,206 Athena Ct,MOUNTAIN VIEW,CA,94043,1680000,3,2.5,MOUNTAIN VIEW,1548,1469,2017,7,1085,277,Sold,,,http://www.redfin.com/CA/Mountain-View/206-Athena-Ln-94043/home/143042847,MLSListings,ML81687596,N,Y,37.4008728,-122.0603304
PAST SALE,January-29-2018,Condo/Co-op,455 Chagall St,MOUNTAIN VIEW,CA,94041,1468800,2,2.5,MOUNTAIN VIEW,1458,853,2009,1,1007,265,Sold,,,http://www.redfin.com/CA/Mountain-View/455-Chagall-St-94041/home/28895457,MLSListings,ML81687372,N,Y,37.3865812,-122.0561934
PAST SALE,,Single Family Residential,1112 Doyle Pl,Mountain View,CA,94040,2290000,4,2.5,,2494,5300,1978,,918,,,,,http://www.redfin.com/CA/Mountain-View/1112-Doyle-Pl-94040/home/1697003,,,N,Y,37.3774595,-122.0723518
PAST SALE,November-17-2017,Townhouse,1909 Cambridge Dr,MOUNTAIN VIEW,CA,94043,1240000,2,2.5,MOUNTAIN VIEW,1490,435,2008,74,832,243,Sold,,,http://www.redfin.com/CA/Mountain-View/1909-Cambridge-Dr-94043/home/23047639,MLSListings,ML81681340,N,Y,37.4167408,-122.0877605
PAST SALE,,Condo/Co-op,444 San Antonio Rd Apt 5D,Palo Alto,CA,94306,607000,3,2.0,,1826,,1988,,332,,,,,http://www.redfin.com/CA/Palo-Alto/444-San-Antonio-Rd-94306/unit-5D/home/610591,,,N,Y,37.4120595,-122.1053609
PAST SALE,November-22-2017,Townhouse,430 Mountain Laurel Ct,MOUNTAIN VIEW,CA,94043,1605000,3,2.5,MOUNTAIN VIEW,1610,1508,1988,69,997,365,Sold,,,http://www.redfin.com/CA/Mountain-View/430-Mountain-Laurel-Ct-94043/home/619027,MLSListings,ML81682130,N,Y,37.401078,-122.082668
PAST SALE,November-29-2017,Condo/Co-op,1914 Newman Pl,MOUNTAIN VIEW,CA,94043,1425000,3,2.5,MOUNTAIN VIEW,1618,1428,1991,62,881,340,Sold,,,http://www.redfin.com/CA/Mountain-View/1914-Newman-Pl-94043/home/1683495,MLSListings,ML81678579,N,Y,37.4105775,-122.0883435
PAST SALE,December-27-2017,Townhouse,1971 W Middlefield Rd #4,MOUNTAIN VIEW,CA,94043,1608000,3,2.5,MOUNTAIN VIEW,1620,811,1988,34,993,210,Sold,,,http://www.redfin.com/CA/Mountain-View/1971-W-Middlefield-Rd-94043/unit-4/home/1112260,MLSListings,ML81685933,N,Y,37.4102005,-122.0895819
PAST SALE,January-10-2018,Townhouse,243 Sierra Vista Ave,MOUNTAIN VIEW,CA,94043,1810000,3,2.5,MOUNTAIN VIEW,1595,2538,1979,20,1135,450,Sold,,,http://www.redfin.com/CA/Mountain-View/243-Sierra-Vista-Ave-94043/home/893786,MLSListings,ML81686979,N,Y,37.403875,-122.09068
PAST SALE,November-3-2017,Townhouse,620 Hope St,MOUNTAIN VIEW,CA,94041,1900000,3,2.5,MOUNTAIN VIEW,2113,968,2016,88,899,569,Sold,,,http://www.redfin.com/CA/Mountain-View/620-Hope-St-94041/home/112869592,MLSListings,ML81675307,N,Y,37.3878679,-122.0817983
PAST SALE,,Single Family Residential,240 Sleeper Ave,Mountain View,CA,94040,678500,6,3.0,,3159,6072,1986,,215,,,,,http://www.redfin.com/CA/Mountain-View/240-Sleeper-Ave-94040/home/649004,,,N,Y,37.3717503,-122.0757658
PAST SALE,November-21-2017,Single Family Residential,690 Yosemite Ave,MOUNTAIN VIEW,CA,94041,2500000,3,2.5,MOUNTAIN VIEW,2348,7700,1941,70,1065,,Sold,,,http://www.redfin.com/CA/Mountain-View/690-Yosemite-Ave-94041/home/820827,MLSListings,ML81681462,N,Y,37.3867452,-122.0819626
PAST SALE,December-8-2017,Condo/Co-op,812 Bay St,MOUNTAIN VIEW,CA,94041,1325000,2,2.5,MOUNTAIN VIEW,1232,2385,1979,53,1075,375,Sold,,,http://www.redfin.com/CA/Mountain-View/812-Bay-St-94041/home/618444,MLSListings,ML81682155,N,Y,37.3823986,-122.0741396
PAST SALE,January-16-2018,Single Family Residential,203 Mountain View Ave,MOUNTAIN VIEW,CA,94041,1850000,3,2.5,MOUNTAIN VIEW,1521,3744,1997,14,1216,105,Sold,,,http://www.redfin.com/CA/Mountain-View/203-Mountain-View-Ave-94041/home/1070107,MLSListings,ML81686796,N,Y,37.3957754,-122.0844466
PAST SALE,,Single Family Residential,1112 Blue Lake Sq,Mountain View,CA,94040,2400000,4,2.0,,2285,3960,1973,,1050,,,,,http://www.redfin.com/CA/Mountain-View/1112-Blue-Lake-Sq-94040/home/543883,,,N,Y,37.3580226,-122.0703592
PAST SALE,January-5-2018,Single Family Residential,1855 Fordham Way,MOUNTAIN VIEW,CA,94040,3280000,3,2.5,MOUNTAIN VIEW,2200,8953,1965,25,1491,,Sold,,,http://www.redfin.com/CA/Mountain-View/1855-Fordham-Way-94040/home/642439,MLSListings,ML81685921,N,Y,37.3694606,-122.0912582
PAST SALE,January-22-2018,Townhouse,1354 Dale Ave #8,MOUNTAIN VIEW,CA,94040,1250000,2,2.5,MOUNTAIN VIEW,1478,1500,1977,8,846,515,Sold,,,http://www.redfin.com/CA/Mountain-View/1354-Dale-Ave-94040/unit-8/home/1602093,MLSListings,ML81683041,N,Y,37.371389258,-122.065562
PAST SALE,,Townhouse,4388 El Camino Real Unit 29,Los Altos,CA,94022,1350000,3,2.0,,1600,1227,2009,,844,,,,,http://www.redfin.com/CA/Los-Altos/4388-El-Camino-Real-94022/unit-29/home/21672957,,,N,Y,37.403772,-122.1176126
PAST SALE,November-13-2017,Single Family Residential,947 Rincon St,MOUNTAIN VIEW,CA,94040,2100000,3,2.5,MOUNTAIN VIEW,1653,2047,2009,78,1270,50,Sold,,,http://www.redfin.com/CA/Mountain-View/947-Rincon-St-94040/home/23044948,MLSListings,ML81681050,N,Y,37.3838814,-122.0884853
PAST SALE,November-17-2017,Townhouse,438 Rhone Ct,MOUNTAIN VIEW,CA,94043,1336000,2,2.5,MOUNTAIN VIEW,1407,960,1988,74,950,300,Sold,,,http://www.redfin.com/CA/Mountain-View/Undisclosed-address-94043/home/1006529,MLSListings,ML81680475,N,Y,37.4095893,-122.0904184
PAST SALE,November-20-2017,Townhouse,457 Sierra Vista Ave #3,MOUNTAIN VIEW,CA,94043,1188000,2,2.5,MOUNTAIN VIEW,1113,935,1985,71,1067,415,Sold,,,http://www.redfin.com/CA/Mountain-View/457-Sierra-Vista-Ave-94043/unit-3/home/618952,MLSListings,ML81681993,N,Y,37.4082635,-122.0893881
PAST SALE,December-8-2017,Townhouse,407 Bella Corte,MOUNTAIN VIEW,CA,94043,1910000,3,2.5,MOUNTAIN VIEW,1726,2124,1991,53,1107,300,Sold,,,http://www.redfin.com/CA/Mountain-View/407-Bella-Corte-94043/home/1412995,MLSListings,ML81683572,N,Y,37.410046,-122.0947809
PAST SALE,January-4-2018,Townhouse,443 Rhone Ct,MOUNTAIN VIEW,CA,94043,1560000,3,2.5,MOUNTAIN VIEW,1503,1000,1988,26,1038,300,Sold,,,http://www.redfin.com/CA/Mountain-View/443-Rhone-Ct-94043/home/1683691,MLSListings,ML81685436,N,Y,37.4096225,-122.0900561
PAST SALE,November-21-2017,Single Family Residential,1892 Miramonte Ave,MOUNTAIN VIEW,CA,94040,2650000,4,3.0,MOUNTAIN VIEW,2433,10375,1966,70,1089,,Sold,,,http://www.redfin.com/CA/Mountain-View/1892-Miramonte-Ave-94040/home/641423,MLSListings,ML81682149,N,Y,37.3687645,-122.0873728
PAST SALE,November-13-2017,Single Family Residential,1137 Boranda Ave,MOUNTAIN VIEW,CA,94040,2425000,4,3.0,MOUNTAIN VIEW,1896,5460,1998,78,1279,,Sold,,,http://www.redfin.com/CA/Mountain-View/1137-Boranda-Ave-94040/home/1187542,MLSListings,ML81681287,Y,Y,37.3805447,-122.0815379
PAST SALE,,Single Family Residential,176 Athena Ln,Mountain View,CA,94043,1978000,4,3.0,,2255,2874,2016,,877,,,,,http://www.redfin.com/CA/Mountain-View/176-Athena-Ln-94043/home/143042835,,,N,Y,37.4008728,-122.0603304
PAST SALE,January-5-2018,Single Family Residential,878 Windmill Park Ln,MOUNTAIN VIEW,CA,94043,2400000,4,3.0,MOUNTAIN VIEW,2264,5567,1988,25,1060,95,Sold,,,http://www.redfin.com/CA/Mountain-View/878-Windmill-Park-Ln-94043/home/1826986,MLSListings,ML81685918,N,Y,37.3991737,-122.076024
PAST SALE,,Condo/Co-op,1101 W El Camino Real Unit 208,Mountain View,CA,94040,1586000,3,3.0,,1693,,2017,,937,,,,,http://www.redfin.com/CA/Mountain-View/1101-W-El-Camino-Real-94040/unit-208/home/143041997,,,N,Y,37.3871979,-122.0874144
PAST SALE,December-13-2017,Single Family Residential,719 Independence Ave,MOUNTAIN VIEW,CA,94043,2450000,4,3.0,MOUNTAIN VIEW,2216,4580,2017,48,1106,,Sold,,,http://www.redfin.com/CA/Mountain-View/719-Independence-Ave-94043/home/143042762,MLSListings,ML81681563,N,Y,37.4130845,-122.097249
PAST SALE,January-23-2018,Townhouse,103 Pacchetti Way,MOUNTAIN VIEW,CA,94040,1650000,3,3.0,MOUNTAIN VIEW,1292,665,1996,7,1277,215,Sold,,,http://www.redfin.com/CA/Mountain-View/103-Pacchetti-Way-94040/home/12172132,MLSListings,ML81686514,N,Y,37.4064755,-122.1068677
PAST SALE,November-22-2017,Townhouse,70 Towne Cir,MOUNTAIN VIEW,CA,94040,1520000,3,3.0,MOUNTAIN VIEW,1599,992,2002,69,951,321,Sold,,,http://www.redfin.com/CA/Mountain-View/70-Towne-Cir-94040/home/2121695,MLSListings,ML81681955,N,Y,37.4032272,-122.1003539
PAST SALE,December-18-2017,Condo/Co-op,2255 Showers Dr #332,MOUNTAIN VIEW,CA,94040,1500000,3,3.0,MOUNTAIN VIEW,1418,1418,1999,43,1058,394,Sold,,,http://www.redfin.com/CA/Mountain-View/2255-Showers-Dr-94040/unit-332/home/12172212,MLSListings,ML81685090,N,Y,37.4072721,-122.1080943
PAST SALE,,Condo/Co-op,128 Sonoma Ter,Mountain View,CA,94043,1505000,3,3.0,,2010,,2016,,749,,,,,http://www.redfin.com/CA/Mountain-View/128-Sonoma-Ter-94043/home/143042889,,,N,Y,37.4058057,-122.0616823
PAST SALE,,Condo/Co-op,129 Fairchild Dr,Mountain View,CA,94043,1355000,3,3.0,,1771,,2016,,765,,,,,http://www.redfin.com/CA/Mountain-View/129-Fairchild-Dr-94043/home/143042905,,,N,Y,37.4060098,-122.0613771
PAST SALE,January-2-2018,Condo/Co-op,154 Montelena Ct,MOUNTAIN VIEW,CA,94040,1788000,2,3.0,MOUNTAIN VIEW,1796,1340,1999,28,996,255,Sold,,,http://www.redfin.com/CA/Mountain-View/154-Montelena-Ct-94040/home/12172255,MLSListings,ML81687076,N,Y,37.409878,-122.113163
PAST SALE,December-21-2017,Single Family Residential,2047 Cecelia Way,MOUNTAIN VIEW,CA,94040,2805000,4,3.0,MOUNTAIN VIEW,2348,6813,1953,40,1195,,Sold,,,http://www.redfin.com/CA/Mountain-View/2047-Cecelia-Way-94040/home/1375893,MLSListings,ML81685809,N,Y,37.3899182,-122.101785
PAST SALE,November-22-2017,Single Family Residential,635 Pepperwood Ct,MOUNTAIN VIEW,CA,94043,1785000,4,3.0,MOUNTAIN VIEW,1882,4220,2004,69,948,116,Sold,,,http://www.redfin.com/CA/Mountain-View/635-Pepperwood-Ct-94043/home/1207637,MLSListings,ML81681914,N,Y,37.4050623,-122.0583112
PAST SALE,,Condo/Co-op,129 Sonoma Ter,Mountain View,CA,94043,1550000,3,3.0,,2010,,2016,,771,,,,,http://www.redfin.com/CA/Mountain-View/129-Sonoma-Ter-94043/home/143042884,,,N,Y,37.4055144,-122.0614169
PAST SALE,,Condo/Co-op,135 Fairchild Dr,Mountain View,CA,94043,1329000,3,3.0,,1771,,2016,,750,,,,,http://www.redfin.com/CA/Mountain-View/135-Fairchild-Dr-94043/home/143042906,,,N,Y,37.4059701,-122.0611936
PAST SALE,,Single Family Residential,226 Athena Ln,Mountain View,CA,94043,2245000,4,3.0,,2255,3252,2016,,996,,,,,http://www.redfin.com/CA/Mountain-View/226-Athena-Ln-94043/home/143042855,,,N,Y,37.4008728,-122.0603304
PAST SALE,December-13-2017,Condo/Co-op,821 N Rengstorff Ave,MOUNTAIN VIEW,CA,94043,1564000,4,3.5,MOUNTAIN VIEW,1863,2530,2016,48,840,266,Sold,,,http://www.redfin.com/CA/Mountain-View/821-N-Rengstorff-Ave-94043/unit-16/home/112996197,MLSListings,ML81682569,N,Y,37.414999,-122.0927838
PAST SALE,November-9-2017,Single Family Residential,1041 Robin Way,SUNNYVALE,CA,94087,1960000,5,3.5,SUNNYVALE,1964,15405,1954,82,998,,Sold,,,http://www.redfin.com/CA/Sunnyvale/1041-Robin-Way-94087/home/941727,MLSListings,ML81656982,N,Y,37.3622152,-122.0612681
PAST SALE,December-13-2017,Townhouse,1919 Cambridge Dr,MOUNTAIN VIEW,CA,94043,1525000,3,3.5,MOUNTAIN VIEW,1644,435,2008,48,928,243,Sold,,,http://www.redfin.com/CA/Mountain-View/1919-Cambridge-Dr-94043/home/23047444,MLSListings,ML81684254,N,Y,37.4168081,-122.0882023
PAST SALE,,Single Family Residential,3110 Pyramid Way,Mountain View,CA,94043,1622500,3,3.5,,1776,1826,2018,,914,,,,,http://www.redfin.com/CA/Mountain-View/3110-Pyramid-Way-94043/home/143042936,,,N,Y,37.3918129,-122.0574402
PAST SALE,,Townhouse,221 Dali Ave,Mountain View,CA,94041,1555000,3,3.0,,1591,2520,2011,,977,,,,,http://www.redfin.com/CA/Mountain-View/221-Dali-Ave-94041/home/28895448,,,N,Y,37.385969,-122.055762
PAST SALE,December-28-2017,Single Family Residential,144 Iris Dr,MOUNTAIN VIEW,CA,94041,1950000,3,3.5,MOUNTAIN VIEW,1844,2687,2009,33,1057,188,Sold,,,http://www.redfin.com/CA/Mountain-View/144-Iris-Dr-94041/home/17291366,MLSListings,ML81685040,N,Y,37.3889967,-122.0730758
PAST SALE,November-22-2017,Single Family Residential,1163 California St,MOUNTAIN VIEW,CA,94041,1980888,5,3.5,MOUNTAIN VIEW,2569,7425,1988,69,771,,Sold,,,http://www.redfin.com/CA/Mountain-View/1163-California-St-94041/home/1785081,MLSListings,ML81681942,N,Y,37.3926239,-122.0846352
PAST SALE,December-28-2017,Townhouse,2552 Saffron Way,MOUNTAIN VIEW,CA,94043,1500000,3,3.5,MOUNTAIN VIEW,1848,958,2013,33,812,327,Sold,,,http://www.redfin.com/CA/Mountain-View/2552-Saffron-Way-94043/home/95955106,MLSListings,ML81687487,N,Y,37.4144589,-122.1016546
PAST SALE,November-6-2017,Single Family Residential,522 Chesley Ct,MOUNTAIN VIEW,CA,94040,3100000,5,3.5,MOUNTAIN VIEW,2543,9375,1965,85,1219,,Sold,,,http://www.redfin.com/CA/Mountain-View/522-Chesley-Ct-94040/home/980066,MLSListings,ML81680203,Y,Y,37.3668173,-122.0712294
PAST SALE,,Single Family Residential,3212 Pyramid Way,Mountain View,CA,94043,1607500,4,4.0,,1751,1425,2018,,918,,,,,http://www.redfin.com/CA/Mountain-View/3212-Pyramid-Way-94043/home/143042946,,,N,Y,37.3918129,-122.0574402
PAST SALE,December-7-2017,Other,319 Sierra Vista Ave,MOUNTAIN VIEW,CA,94043,3350000,,,MOUNTAIN VIEW,,13442,,54,,,Sold,,,http://www.redfin.com/CA/Mountain-View/319-Sierra-Vista-Ave-94043/home/613121,MLSListings,ML81674075,N,Y,37.4058126,-122.0904462
PAST SALE,January-16-2018,Single Family Residential,302 Monroe Dr,MOUNTAIN VIEW,CA,94040,2825000,5,4.5,MOUNTAIN VIEW,3043,11039,1988,14,928,,Sold,,,http://www.redfin.com/CA/Mountain-View/302-Monroe-Dr-94040/home/2121122,MLSListings,ML81685928,N,Y,37.4106672,-122.1167454
PAST SALE,,Single Family Residential,3118 Pyramid Way,Mountain View,CA,94043,1654500,,,,,1635,,,,,,,,http://www.redfin.com/CA/Mountain-View/3118-Pyramid-Way-94043/home/143042931,,,N,Y,37.3918129,-122.0574402
PAST SALE,,Single Family Residential,3206 Pyramid Way,Mountain View,CA,94043,1686500,,,,,1425,,,,,,,,http://www.redfin.com/CA/Mountain-View/3206-Pyramid-Way-94043/home/143042943,,,N,Y,37.3920716,-122.0562413
PAST SALE,,Single Family Residential,3202 Pyramid Way,Mountain View,CA,94043,1553500,,,,,1425,,,,,,,,http://www.redfin.com/CA/Mountain-View/3202-Pyramid-Way-94043/home/143042942,,,N,Y,37.3920716,-122.0562413
PAST SALE,,Single Family Residential,3200 Pyramid Way,Mountain View,CA,94043,1757500,,,,,1896,,,,,,,,http://www.redfin.com/CA/Mountain-View/3200-Pyramid-Way-94043/home/143042941,,,N,Y,37.3920716,-122.0562413
PAST SALE,,Single Family Residential,3100 Pyramid Way,Mountain View,CA,94043,1819000,,,,,2175,,,,,,,,http://www.redfin.com/CA/Mountain-View/3100-Pyramid-Way-94043/home/143042940,,,N,Y,37.3920716,-122.0562413
PAST SALE,,Single Family Residential,3106 Pyramid Way,Mountain View,CA,94043,1649000,,,,,1635,,,,,,,,http://www.redfin.com/CA/Mountain-View/3106-Pyramid-Way-94043/home/143042938,,,N,Y,37.3920716,-122.0562413
PAST SALE,,Single Family Residential,3108 Pyramid Way,Mountain View,CA,94043,1617500,,,,,1826,,,,,,,,http://www.redfin.com/CA/Mountain-View/3108-Pyramid-Way-94043/home/143042937,,,N,Y,37.3920716,-122.0562413
PAST SALE,,Single Family Residential,3112 Pyramid Way,Mountain View,CA,94043,1761500,,,,,1635,,,,,,,,http://www.redfin.com/CA/Mountain-View/3112-Pyramid-Way-94043/home/143042934,,,N,Y,37.3920716,-122.0562413
PAST SALE,January-12-2018,Multi-Family (2-4 Unit),285 Santa Rosa Ave,MOUNTAIN VIEW,CA,94043,1750000,4,,MOUNTAIN VIEW,1428,5760,1963,18,1225,,Sold,,,http://www.redfin.com/CA/Mountain-View/285-Santa-Rosa-Ave-94043/unit-B/home/813600,MLSListings,ML81672889,N,Y,37.3969836,-122.0757975
PAST SALE,,Single Family Residential,3222 Pyramid Way,Mountain View,CA,94043,1688000,,,,,1995,,,,,,,,http://www.redfin.com/CA/Mountain-View/3222-Pyramid-Way-94043/home/143042951,,,N,Y,37.3918129,-122.0574402
PAST SALE,,Single Family Residential,3220 Pyramid Way,Mountain View,CA,94043,1514000,,,,,1425,,,,,,,,http://www.redfin.com/CA/Mountain-View/3220-Pyramid-Way-94043/home/143042950,,,N,Y,37.3918129,-122.0574402
PAST SALE,,Single Family Residential,3218 Pyramid Way,Mountain View,CA,94043,1543000,,,,,1425,,,,,,,,http://www.redfin.com/CA/Mountain-View/3218-Pyramid-Way-94043/home/143042949,,,N,Y,37.3918129,-122.0574402
PAST SALE,,Single Family Residential,3214 Pyramid Way,Mountain View,CA,94043,1578000,,,,,1425,,,,,,,,http://www.redfin.com/CA/Mountain-View/3214-Pyramid-Way-94043/home/143042947,,,N,Y,37.3918129,-122.0574402
PAST SALE,,Single Family Residential,3210 Pyramid Way,Mountain View,CA,94043,1572000,,,,,1591,,,,,,,,http://www.redfin.com/CA/Mountain-View/3210-Pyramid-Way-94043/home/143042945,,,N,Y,37.3918129,-122.0574402
PAST SALE,,Single Family Residential,3114 Pyramid Way,Mountain View,CA,94043,1573500,,,,,1635,,,,,,,,http://www.redfin.com/CA/Mountain-View/3114-Pyramid-Way-94043/home/143042933,,,N,Y,37.3918129,-122.0574402
PAST SALE,,Multi-Family (2-4 Unit),368 Walker Dr,Mountain View,CA,94043,865000,,,,1592,8701,1956,,543,,,,,http://www.redfin.com/CA/Mountain-View/368-Walker-Dr-94043/home/1309396,,,N,Y,37.4015122,-122.0586975
PAST SALE,,Single Family Residential,3116 Pyramid Way,Mountain View,CA,94043,1647000,,,,,1635,,,,,,,,http://www.redfin.com/CA/Mountain-View/3116-Pyramid-Way-94043/home/143042932,,,N,Y,37.3918129,-122.0574402
PAST SALE,,Multi-Family (2-4 Unit),851 Sierra Vista Ave,Mountain View,CA,94043,3200000,,,,3144,16500,1983,,1018,,,,,http://www.redfin.com/CA/Mountain-View/851-Sierra-Vista-Ave-94043/home/619997,,,N,Y,37.416005,-122.089197
PAST SALE,,Single Family Residential,3216 Pyramid Way,Mountain View,CA,94043,1603500,,,,,1425,,,,,,,,http://www.redfin.com/CA/Mountain-View/3216-Pyramid-Way-94043/home/143042948,,,N,Y,37.3920716,-122.0562413
PAST SALE,,Single Family Residential,3120 Pyramid Way,Mountain View,CA,94043,1617500,,,,,1635,,,,,,,,http://www.redfin.com/CA/Mountain-View/3120-Pyramid-Way-94043/home/143042930,,,N,Y,37.3918129,-122.0574402
PAST SALE,,Multi-Family (2-4 Unit),510 Walker Dr,Mountain View,CA,94043,4920100,,,,8759,13950,1959,,562,,,,,http://www.redfin.com/CA/Mountain-View/510-Walker-Dr-94043/home/1431814,,,N,Y,37.402505,-122.0652844
PAST SALE,November-1-2017,Multi-Family (5+ Unit),565 Escuela Ave,MOUNTAIN VIEW,CA,94040,7255000,5,,MOUNTAIN VIEW,15109,28696,1963,90,480,,Sold,,,http://www.redfin.com/CA/Mountain-View/565-Escuela-Ave-94040/home/616181,MLSListings,ML81654397,N,Y,37.3946578,-122.094876
PAST SALE,December-10-2017,Multi-Family (2-4 Unit),194 Gladys Ave,MOUNTAIN VIEW,CA,94043,2450000,8,,MOUNTAIN VIEW,3328,6962,1954,51,736,,Sold,,,http://www.redfin.com/CA/Mountain-View/194-Gladys-Ave-94043/home/1747802,MLSListings,ML81682358,N,Y,37.3957979,-122.0626373
PAST SALE,,Multi-Family (2-4 Unit),2434 Rock St,Mountain View,CA,94043,9250000,,,,16816,39325,1964,,550,,,,,http://www.redfin.com/CA/Mountain-View/2434-Rock-St-94043/home/607857,,,N,Y,37.413439,-122.0981883
PAST SALE,November-17-2017,Other,574 Escuela Ave,MOUNTAIN VIEW,CA,94040,4700000,,,MOUNTAIN VIEW,,24190,,74,,,Sold,,,http://www.redfin.com/CA/Mountain-View/574-Escuela-Ave-94040/home/813418,MLSListings,ML81612747,N,Y,37.395064,-122.09583
PAST SALE,,Single Family Residential,3122 Pyramid Way,Mountain View,CA,94043,1768500,,,,,2177,,,,,,,,http://www.redfin.com/CA/Mountain-View/3122-Pyramid-Way-94043/home/143042929,,,N,Y,37.3921075,-122.0558768
