SALE TYPE,SOLD DATE,PROPERTY TYPE,ADDRESS,CITY,STATE,ZIP,PRICE,BEDS,BATHS,LOCATION,SQUARE FEET,LOT SIZE,YEAR BUILT,DAYS ON MARKET,$/SQUARE FEET,HOA/MONTH,STATUS,NEXT OPEN HOUSE START TIME,NEXT OPEN HOUSE END TIME,URL (SEE http://www.redfin.com/buy-a-home/comparative-market-analysis FOR INFO ON PRICING),SOURCE,MLS#,FAVORITE,INTERESTED,LATITUDE,LONGITUDE
PAST SALE,January-19-2018,Single Family Residential,1361 Blewett Ave,SAN JOSE,CA,95125,1250000,2,1.0,SAN JOSE,1334,6381,1925,11,937,,Sold,,,http://www.redfin.com/CA/San-Jose/1361-Blewett-Ave-95125/home/838817,MLSListings,ML81686443,N,Y,37.3045222,-121.8967815
PAST SALE,September-18-2017,Single Family Residential,4121 Davis St,SANTA CLARA,CA,95054,800000,2,1.0,SANTA CLARA,861,5000,1950,134,929,,Sold,,,http://www.redfin.com/CA/Santa-Clara/4121-Davis-St-95054/home/580160,MLSListings,ML81670859,N,Y,37.3923283,-121.9587241
PAST SALE,October-24-2017,Single Family Residential,279 S 24th St,SAN JOSE,CA,95116,527000,2,1.0,SAN JOSE,690,4810,1926,98,764,,Sold,,,http://www.redfin.com/CA/San-Jose/279-S-24th-St-95116/home/1284180,MLSListings,ML81673234,N,Y,37.3425968,-121.8637281
PAST SALE,December-15-2017,Condo/Co-op,325 N 3rd St #2,CAMPBELL,CA,95008,626000,2,1.0,CAMPBELL,903,2000,1971,46,693,230,Sold,,,http://www.redfin.com/CA/Campbell/325-N-3rd-St-95008/unit-2/home/1095720,MLSListings,ML81684085,N,Y,37.2919581,-121.9473956
PAST SALE,October-25-2017,Single Family Residential,53 Wilson Ave,SAN JOSE,CA,95126,783000,3,1.0,SAN JOSE,1404,5800,1900,97,558,,Sold,,,http://www.redfin.com/CA/San-Jose/53-Wilson-Ave-95126/home/708116,MLSListings,ML81680452,N,Y,37.3304971,-121.9057895
PAST SALE,November-7-2017,Single Family Residential,1855 Esberg Rd,LOS ALTOS,CA,94024,2665000,2,1.0,LOS ALTOS,1008,11250,1951,84,2644,,Sold,,,http://www.redfin.com/CA/Los-Altos/1855-Esberg-Rd-94024/home/776222,MLSListings,ML81678454,N,Y,37.3455586,-122.091703
PAST SALE,October-6-2017,Condo/Co-op,334 Santana Row #237,SAN JOSE,CA,95128,636000,1,1.0,SAN JOSE,736,435,2002,116,864,383,Sold,,,http://www.redfin.com/CA/San-Jose/334-Santana-Row-95128/unit-237/home/17293035,MLSListings,ML81677894,N,Y,37.3222528,-121.9472191
PAST SALE,,Single Family Residential,439 N White Rd,San Jose,CA,95127,121500,2,1.0,,803,4830,1958,,151,,,,,http://www.redfin.com/CA/San-Jose/439-N-White-Rd-95127/home/921441,,,N,Y,37.377368,-121.83768
PAST SALE,September-20-2017,Condo/Co-op,3592 Payne Ave #8,SAN JOSE,CA,95117,455000,2,1.0,SAN JOSE,910,1050,1963,132,500,292,Sold,,,http://www.redfin.com/CA/San-Jose/3592-Payne-Ave-95117/unit-8/home/971653,MLSListings,ML81674166,N,Y,37.301005,-121.96344
PAST SALE,September-29-2017,Single Family Residential,1720 Lincoln Ave,SAN JOSE,CA,95125,930000,2,1.0,SAN JOSE,1359,6240,1924,123,684,,Sold,,,http://www.redfin.com/CA/San-Jose/1720-Lincoln-Ave-95125/home/1108112,MLSListings,ML81673961,N,Y,37.2982482,-121.8929689
PAST SALE,November-13-2017,Single Family Residential,220 Friar Way,CAMPBELL,CA,95008,1150000,3,1.0,CAMPBELL,1503,6180,1957,78,765,,Sold,,,http://www.redfin.com/CA/Campbell/220-Friar-Way-95008/home/1847121,MLSListings,ML81680176,N,Y,37.275616,-121.9532282
PAST SALE,October-10-2017,Condo/Co-op,1310 Saddle Rack St #434,SAN JOSE,CA,95126,660000,2,1.0,SAN JOSE,1175,1175,2004,112,562,449,Sold,,,http://www.redfin.com/CA/San-Jose/1310-Saddle-Rack-St-95126/unit-434/home/1773877,MLSListings,ML81677125,N,Y,37.3202572,-121.9118611
PAST SALE,,Single Family Residential,15340 Union Ave,San Jose,CA,95124,1335000,2,1.0,,1056,23300,1952,,1264,,,,,http://www.redfin.com/CA/San-Jose/15340-Union-Ave-95124/home/832578,,,N,Y,37.2457455,-121.9309543
PAST SALE,December-11-2017,Single Family Residential,353 Washington St,SAN JOSE,CA,95112,630000,2,1.0,SAN JOSE,840,6486,1901,50,750,,Sold,,,http://www.redfin.com/CA/San-Jose/353-Washington-St-95112/home/696606,MLSListings,ML81671451,N,Y,37.3465251,-121.8877714
PAST SALE,October-4-2017,Single Family Residential,477 Irving Ave,SAN JOSE,CA,95128,760000,2,1.0,SAN JOSE,672,4000,1920,118,1131,,Sold,,,http://www.redfin.com/CA/San-Jose/477-Irving-Ave-95128/home/1738263,MLSListings,ML81676679,N,Y,37.3203451,-121.9277938
PAST SALE,December-1-2017,Single Family Residential,654 Malarin Ave,Santa Clara,CA,95050,1060000,2,1.0,Santa Clara County,836,5611,1951,60,1268,,Sold,,,http://www.redfin.com/CA/Santa-Clara/654-Malarin-Ave-95050/home/771230,BAREIS,21726162,N,Y,37.3396933,-121.9599859
PAST SALE,December-27-2017,Single Family Residential,2214 Benton St,SANTA CLARA,CA,95050,1207000,3,1.0,SANTA CLARA,1036,5486,1950,34,1165,,Sold,,,http://www.redfin.com/CA/Santa-Clara/2214-Benton-St-95050/home/1621282,MLSListings,ML81687171,N,Y,37.3461045,-121.9625287
PAST SALE,October-18-2017,Condo/Co-op,1411 Mcquesten Dr Unit D,SAN JOSE,CA,95122,428000,2,1.0,SAN JOSE,876,1105,1980,104,489,331,Sold,,,http://www.redfin.com/CA/San-Jose/1411-McQuesten-Dr-95122/unit-D/home/1316078,MLSListings,ML81676950,N,Y,37.3307969,-121.845751
PAST SALE,December-29-2017,Condo/Co-op,870 Gilchrist Dr #1,SAN JOSE,CA,95133,450000,2,1.0,SAN JOSE,810,6600,1971,32,556,301,Sold,,,http://www.redfin.com/CA/San-Jose/870-Gilchrist-Dr-95133/unit-1/home/113813435,MLSListings,ML81686023,N,Y,37.3798774,-121.8550902
PAST SALE,September-8-2017,Single Family Residential,1025 Empey Way,SAN JOSE,CA,95128,767000,2,1.0,SAN JOSE,932,7550,1941,144,823,,Sold,,,http://www.redfin.com/CA/San-Jose/1025-Empey-Way-95128/home/1181451,MLSListings,ML81646609,N,Y,37.3077459,-121.938077
PAST SALE,October-20-2017,Condo/Co-op,2025 California St #47,MOUNTAIN VIEW,CA,94040,550000,1,1.0,MOUNTAIN VIEW,640,720,1965,102,859,390,Sold,,,http://www.redfin.com/CA/Mountain-View/2025-California-St-94040/unit-47/home/934409,MLSListings,ML81681093,N,Y,37.3980861,-122.0982699
PAST SALE,October-6-2017,Single Family Residential,931 Wainwright Dr,SAN JOSE,CA,95128,1080000,2,1.0,SAN JOSE,1165,9222,1948,116,927,,Sold,,,http://www.redfin.com/CA/San-Jose/931-Wainwright-Dr-95128/home/1198862,MLSListings,ML81675391,N,Y,37.303762,-121.934715
PAST SALE,August-7-2017,Condo/Co-op,3599 S Bascom Ave #48,CAMPBELL,CA,95008,470000,1,1.0,CAMPBELL,746,800,1984,176,630,361,Sold,,,http://www.redfin.com/CA/Campbell/3599-S-Bascom-Ave-95008/unit-48/home/1265129,MLSListings,ML81669901,N,Y,37.2616,-121.947503
PAST SALE,,Single Family Residential,3122 Hilary Dr,San Jose,CA,95124,880000,3,1.0,,984,6240,1955,,894,,,,,http://www.redfin.com/CA/San-Jose/3122-Hilary-Dr-95124/home/827627,,,N,Y,37.2660754,-121.9259436
PAST SALE,,Single Family Residential,1252 Walnut Dr,Campbell,CA,95008,1250000,3,1.0,,1463,18730,1954,,854,,,,,http://www.redfin.com/CA/Campbell/1252-Walnut-Dr-95008/home/1636833,,,N,Y,37.2682896,-121.9586612
PAST SALE,August-25-2017,Condo/Co-op,1390 Saddle Rack St #134,SAN JOSE,CA,95126,540000,1,1.0,SAN JOSE,917,917,2004,158,589,449,Sold,,,http://www.redfin.com/CA/San-Jose/1390-Saddle-Rack-St-95126/unit-134/home/1168584,MLSListings,ML81672842,N,Y,37.3201952,-121.9130958
PAST SALE,August-21-2017,Condo/Co-op,1103 Indian Summer Ct,SAN JOSE,CA,95122,365000,1,1.0,SAN JOSE,720,,1985,162,507,349,Sold,,,http://www.redfin.com/CA/San-Jose/1103-Indian-Summer-Ct-95122/home/757750,MLSListings,ML81671082,N,Y,37.31954,-121.841806
PAST SALE,,Condo/Co-op,2326 Saidel Dr Apt 3,San Jose,CA,95124,103000,2,1.0,,903,,1973,,114,,,,,http://www.redfin.com/CA/San-Jose/2326-Saidel-Dr-95124/unit-3/home/984769,,,N,Y,37.2514872,-121.9421024
PAST SALE,September-19-2017,Condo/Co-op,1550 Technology Dr #4003,SAN JOSE,CA,95110,520000,1,1.0,SAN JOSE,887,831,2005,133,586,428,Sold,,,http://www.redfin.com/CA/San-Jose/1550-Technology-Dr-95110/unit-4003/home/2125241,MLSListings,ML81675119,N,Y,37.3635149,-121.9139854
PAST SALE,November-27-2017,Single Family Residential,1330 San Juan Ave,SAN JOSE,CA,95110,750000,3,1.0,SAN JOSE,1113,5400,1948,64,674,,Sold,,,http://www.redfin.com/CA/San-Jose/1330-San-Juan-Ave-95110/home/811313,MLSListings,ML81680343,N,Y,37.3585159,-121.913043
PAST SALE,,Single Family Residential,2221 Benton St,Santa Clara,CA,95050,630000,3,1.0,,1209,5618,1950,,521,,,,,http://www.redfin.com/CA/Santa-Clara/2221-Benton-St-95050/home/1498922,,,N,Y,37.3464971,-121.9626924
PAST SALE,,Single Family Residential,835 Jefferson St,Santa Clara,CA,95050,890000,3,1.0,,960,9086,1918,,927,,,,,http://www.redfin.com/CA/Santa-Clara/835-Jefferson-St-95050/home/994249,,,N,Y,37.346406,-121.9495114
PAST SALE,October-12-2017,Single Family Residential,1669 Lexington St,SANTA CLARA,CA,95050,900000,3,1.0,SANTA CLARA,968,6950,1926,110,930,,Sold,,,http://www.redfin.com/CA/Santa-Clara/1669-Lexington-St-95050/home/715800,MLSListings,ML81677964,N,Y,37.3453305,-121.9515022
PAST SALE,November-15-2017,Single Family Residential,1386 Cabrillo Ave,SANTA CLARA,CA,95050,1100000,3,1.0,SANTA CLARA,985,7000,1954,76,1117,,Sold,,,http://www.redfin.com/CA/Santa-Clara/1386-Cabrillo-Ave-95050/home/814964,MLSListings,ML81680544,N,Y,37.3591853,-121.9551398
PAST SALE,November-22-2017,Single Family Residential,2418 Walnut Grove Ave,SAN JOSE,CA,95128,1200000,3,1.0,SAN JOSE,1040,6000,1950,69,1154,,Sold,,,http://www.redfin.com/CA/San-Jose/2418-Walnut-Grove-Ave-95128/home/1813957,MLSListings,ML81683128,N,Y,37.3331975,-121.9477257
PAST SALE,December-29-2017,Single Family Residential,2412 Homewood Dr,SAN JOSE,CA,95128,975000,3,1.0,SAN JOSE,1200,7141,1950,32,813,,Sold,,,http://www.redfin.com/CA/San-Jose/2412-Homewood-Dr-95128/home/549437,MLSListings,ML81687103,N,Y,37.3292339,-121.947126
PAST SALE,,Single Family Residential,1820 Pine Hollow Cir,San Jose,CA,95133,268500,3,1.0,,1000,4500,1989,,269,,,,,http://www.redfin.com/CA/San-Jose/1820-Pine-Hollow-Cir-95133/home/1578590,,,N,Y,37.3685099,-121.8631843
PAST SALE,October-12-2017,Condo/Co-op,2756 Somerset Park Cir,SAN JOSE,CA,95132,440000,1,1.0,SAN JOSE,677,1711,1988,110,650,330,Sold,,,http://www.redfin.com/CA/San-Jose/2756-Somerset-Park-Cir-95132/home/2125703,MLSListings,ML81676316,N,Y,37.395173,-121.861015
PAST SALE,,Single Family Residential,2440 Barlow Ave,San Jose,CA,95122,575000,4,1.0,,1073,5000,1963,,536,,,,,http://www.redfin.com/CA/San-Jose/2440-Barlow-Ave-95122/home/893036,,,N,Y,37.344109,-121.8270913
PAST SALE,December-13-2017,Single Family Residential,11 Valley View Ave,SAN JOSE,CA,95127,820000,2,1.0,SAN JOSE,1180,9520,1940,48,695,,Sold,,,http://www.redfin.com/CA/San-Jose/11-Valley-View-Ave-95127/home/944177,MLSListings,ML81683787,N,Y,37.3789293,-121.8196483
PAST SALE,December-27-2017,Single Family Residential,288 N Cragmont Ave,SAN JOSE,CA,95127,585000,2,1.0,SAN JOSE,1243,5199,1950,34,471,,Sold,,,http://www.redfin.com/CA/San-Jose/288-N-Cragmont-Ave-95127/home/668927,MLSListings,ML81687046,N,Y,37.3771174,-121.8308351
PAST SALE,September-5-2017,Condo/Co-op,1030 Yarwood Ct,SAN JOSE,CA,95128,455000,1,1.0,SAN JOSE,658,1390,1988,147,691,432,Sold,,,http://www.redfin.com/CA/San-Jose/1030-Yarwood-Ct-95128/home/12181496,MLSListings,ML81671609,N,Y,37.312502,-121.939228
PAST SALE,,Single Family Residential,10566 John Way,Cupertino,CA,95014,418000,3,1.0,,1718,9044,1951,,243,,,,,http://www.redfin.com/CA/Cupertino/10566-John-Way-95014/home/784405,,,N,Y,37.3146042,-122.0348042
PAST SALE,October-17-2017,Condo/Co-op,255 S Rengstorff Ave #161,MOUNTAIN VIEW,CA,94040,535000,1,1.0,MOUNTAIN VIEW,551,1395,1965,105,971,394,Sold,,,http://www.redfin.com/CA/Mountain-View/255-S-Rengstorff-Ave-94040/unit-161/home/1748760,MLSListings,ML81680359,N,Y,37.399553,-122.098889
PAST SALE,October-5-2017,Single Family Residential,1521 Marcia Ave,SAN JOSE,CA,95125,1015000,3,1.0,SAN JOSE,1110,5450,1951,117,914,,Sold,,,http://www.redfin.com/CA/San-Jose/1521-Marcia-Ave-95125/home/1567481,MLSListings,ML81676836,N,Y,37.2819977,-121.8973547
PAST SALE,October-10-2017,Condo/Co-op,801 S Winchester Blvd #1107,SAN JOSE,CA,95128,517000,1,1.0,SAN JOSE,692,892,2005,112,747,267,Sold,,,http://www.redfin.com/CA/San-Jose/801-S-Winchester-Blvd-95117/unit-1107/home/2123816,MLSListings,ML81675985,N,Y,37.3126263,-121.9504446
PAST SALE,September-28-2017,Condo/Co-op,1768 Parkview Green Cir,SAN JOSE,CA,95131,560000,1,1.0,SAN JOSE,719,1740,1988,124,779,316,Sold,,,http://www.redfin.com/CA/San-Jose/1768-Parkview-Green-Cir-95131/home/687984,MLSListings,ML81670085,N,Y,37.379258,-121.8827
PAST SALE,August-30-2017,Single Family Residential,1513 Marcia Ave,SAN JOSE,CA,95125,929000,2,1.0,SAN JOSE,1167,5450,1951,153,796,,Sold,,,http://www.redfin.com/CA/San-Jose/1513-Marcia-Ave-95125/home/1536661,MLSListings,ML81669836,N,Y,37.2820629,-121.8972158
PAST SALE,September-22-2017,Condo/Co-op,1017 Foxchase Dr,SAN JOSE,CA,95123,532888,2,1.0,SAN JOSE,1021,1021,1983,130,522,458,Sold,,,http://www.redfin.com/CA/San-Jose/1017-Foxchase-Dr-95123/home/1741803,MLSListings,ML81674331,N,Y,37.252724,-121.874617
PAST SALE,November-6-2017,Condo/Co-op,1268 Bouret Dr #1,SAN JOSE,CA,95118,452000,2,1.0,SAN JOSE,810,7080,1970,85,558,319,Sold,,,http://www.redfin.com/CA/San-Jose/1268-Bouret-Dr-95118/unit-1/home/851226,MLSListings,ML81678486,N,Y,37.2578512,-121.8848852
PAST SALE,,Single Family Residential,3411 Rayanna Ave,Santa Clara,CA,95051,1455100,3,1.0,,1154,9375,1951,,1261,,,,,http://www.redfin.com/CA/Santa-Clara/3411-Rayanna-Ave-95051/home/765063,,,N,Y,37.3536177,-121.9900647
PAST SALE,,Single Family Residential,14241 Esther Dr,San Jose,CA,95124,950000,3,1.0,,1014,8192,1953,,937,,,,,http://www.redfin.com/CA/San-Jose/14241-Esther-Dr-95124/home/829680,,,N,Y,37.261644,-121.935795
PAST SALE,January-12-2018,Condo/Co-op,2857 S Bascom Ave #101,SAN JOSE,CA,95124,446000,1,1.0,SAN JOSE,668,780,1984,18,668,375,Sold,,,http://www.redfin.com/CA/San-Jose/2857-S-Bascom-Ave-95124/unit-101/home/827184,MLSListings,ML81684423,N,Y,37.270769,-121.937645
PAST SALE,September-29-2017,Condo/Co-op,1865 Palm View Pl #229,SANTA CLARA,CA,95050,569000,1,1.0,SANTA CLARA,760,1733,1978,123,749,318,Sold,,,http://www.redfin.com/CA/Santa-Clara/1865-Palm-View-Pl-95050/unit-229/home/2123196,MLSListings,ML81675869,N,Y,37.3570949,-121.9589962
PAST SALE,,Single Family Residential,1932 Louis Rd,Palo Alto,CA,94303,3944000,3,1.0,,1370,7320,1951,,2879,,,,,http://www.redfin.com/CA/Palo-Alto/1932-Louis-Rd-94303/home/547168,,,N,Y,37.4441328,-122.134264
PAST SALE,September-7-2017,Single Family Residential,1843 Lavonne Ave,SAN JOSE,CA,95116,570000,2,1.0,SAN JOSE,840,7800,1948,145,679,,Sold,,,http://www.redfin.com/CA/San-Jose/1843-Lavonne-Ave-95116/home/883400,MLSListings,ML81672315,N,Y,37.345747,-121.8455128
PAST SALE,November-9-2017,Single Family Residential,1335 Boa Vista Dr,SAN JOSE,CA,95122,615000,3,1.0,SAN JOSE,1061,2600,1972,82,580,,Sold,,,http://www.redfin.com/CA/San-Jose/1335-Boa-Vista-Dr-95122/home/1849791,MLSListings,ML81681671,N,Y,37.3240262,-121.8405998
PAST SALE,September-1-2017,Condo/Co-op,2317 Saidel Dr #4,SAN JOSE,CA,95124,520000,2,1.0,SAN JOSE,798,2580,1973,151,652,310,Sold,,,http://www.redfin.com/CA/San-Jose/2317-Saidel-Dr-95124/unit-4/home/1128141,MLSListings,ML81671318,N,Y,37.2521658,-121.9425656
PAST SALE,December-1-2017,Single Family Residential,15020 Stratford Dr,SAN JOSE,CA,95124,1171000,2,1.0,SAN JOSE,929,8505,1948,60,1260,,Sold,,,http://www.redfin.com/CA/San-Jose/15020-Stratford-Dr-95124/home/1444827,MLSListings,ML81683344,N,Y,37.2587263,-121.9316884
PAST SALE,September-7-2017,Single Family Residential,1409 FORRESTAL Ave,SAN JOSE,CA,95110,811000,2,1.0,SAN JOSE,1080,5000,1947,145,751,,Sold,,,http://www.redfin.com/CA/San-Jose/1409-Forrestal-Ave-95110/home/682315,MLSListings,ML81672570,N,Y,37.360444,-121.9130821
PAST SALE,,Condo/Co-op,1527 Alma Ter,San Jose,CA,95125,399000,1,1.0,,784,,1984,,509,,,,,http://www.redfin.com/CA/San-Jose/1527-Alma-Ter-95125/home/570544,,,N,Y,37.307948,-121.885549
PAST SALE,November-16-2017,Condo/Co-op,357 Ethyl St #3,MILPITAS,CA,95035,520000,2,1.0,MILPITAS,882,1800,1971,75,590,359,Sold,,,http://www.redfin.com/CA/Milpitas/357-Ethyl-St-95035/unit-3/home/1348956,MLSListings,ML81681231,N,Y,37.4248963,-121.9093969
PAST SALE,,Single Family Residential,3761 Yerba Buena Rd,San Jose,CA,95135,1400000,4,1.0,,1560,52377,1998,,897,,,,,http://www.redfin.com/CA/San-Jose/3761-Yerba-Buena-Rd-95135/home/1289786,,,N,Y,37.3042974,-121.752949
PAST SALE,August-14-2017,Single Family Residential,2085 Laurelei Ave,SAN JOSE,CA,95128,865000,3,1.0,SAN JOSE,1040,6300,1950,169,832,,Sold,,,http://www.redfin.com/CA/San-Jose/2085-Laurelei-Ave-95128/home/1176292,MLSListings,ML81671198,N,Y,37.3327116,-121.937988
PAST SALE,August-24-2017,Single Family Residential,2448 Pioneer Ave,SAN JOSE,CA,95128,915000,3,1.0,SAN JOSE,1194,5300,1947,159,766,,Sold,,,http://www.redfin.com/CA/San-Jose/2448-Pioneer-Ave-95128/home/721892,MLSListings,ML81671135,N,Y,37.3184381,-121.9369118
PAST SALE,September-20-2017,Single Family Residential,2381 Cabrillo Ave,SANTA CLARA,CA,95050,1275000,3,1.0,SANTA CLARA,1020,6000,1961,132,1250,,Sold,,,http://www.redfin.com/CA/Santa-Clara/2381-Cabrillo-Ave-95050/home/1276400,MLSListings,ML81675450,N,Y,37.3592499,-121.967573
PAST SALE,October-27-2017,Single Family Residential,3221 Monroe St,SANTA CLARA,CA,95051,750000,3,1.0,SANTA CLARA,897,5400,1954,95,836,,Sold,,,http://www.redfin.com/CA/Santa-Clara/3221-Monroe-St-95051/home/1276225,MLSListings,ML81677871,N,Y,37.3671765,-121.9858495
PAST SALE,,Single Family Residential,1194 Carolyn Dr,Santa Clara,CA,95050,1330000,3,1.0,,1078,5936,1954,,1234,,,,,http://www.redfin.com/CA/Santa-Clara/1194-Carolyn-Dr-95050/home/1085733,,,N,Y,37.3478535,-121.9670989
PAST SALE,August-25-2017,Single Family Residential,17721 Navajo Trl,LOS GATOS,CA,95033,605000,2,1.0,LOS GATOS,841,3630,1960,158,719,130,Sold,,,http://www.redfin.com/CA/Los-Gatos/17721-Navajo-Trl-95033/home/1247491,MLSListings,ML81668652,N,Y,37.160659,-121.980286
PAST SALE,November-8-2017,Single Family Residential,485 MacArthur Ave,SAN JOSE,CA,95128,945000,2,1.0,SAN JOSE,908,5775,1945,83,1041,,Sold,,,http://www.redfin.com/CA/San-Jose/485-Mac-Arthur-Ave-95128/home/1563991,MLSListings,ML81681013,N,Y,37.3203499,-121.9358852
PAST SALE,November-2-2017,Condo/Co-op,151 Buckingham Dr #241,SANTA CLARA,CA,95051,525000,1,1.0,SANTA CLARA,862,945,1969,89,609,430,Sold,,,http://www.redfin.com/CA/Santa-Clara/151-Buckingham-Dr-95051/unit-241/home/971415,MLSListings,ML81678194,N,Y,37.3270451,-121.9704358
PAST SALE,,Single Family Residential,985 Market St,Santa Clara,CA,95050,640000,1,1.0,,822,2800,1950,,779,,,,,http://www.redfin.com/CA/Santa-Clara/985-Market-St-95050/home/712825,,,N,Y,37.3464029,-121.9420584
PAST SALE,January-5-2018,Single Family Residential,3425 Cecil Ave,SANTA CLARA,CA,95050,1358000,3,1.0,SANTA CLARA,1095,11508,1949,25,1240,,Sold,,,http://www.redfin.com/CA/Santa-Clara/3425-Cecil-Ave-95050/home/1580078,MLSListings,ML81686099,N,Y,37.3244749,-121.9589433
PAST SALE,August-31-2017,Condo/Co-op,1883 Agnew Rd #247,SANTA CLARA,CA,95054,610000,1,1.0,SANTA CLARA,870,435,2006,152,701,323,Sold,,,http://www.redfin.com/CA/Santa-Clara/1883-Agnew-Rd-95054/unit-247/home/12179279,MLSListings,ML81674251,N,Y,37.3959733,-121.9584212
PAST SALE,November-22-2017,Single Family Residential,1239 Blewett Ave,SAN JOSE,CA,95125,1240000,2,1.0,SAN JOSE,1177,5300,1941,69,1054,,Sold,,,http://www.redfin.com/CA/San-Jose/1239-Blewett-Ave-95125/home/840366,MLSListings,ML81682761,N,Y,37.3065493,-121.8984638
PAST SALE,,Single Family Residential,15105 Bellini Way,Morgan Hill,CA,95037,218500,3,1.0,,1235,4055,2003,,177,,,,,http://www.redfin.com/CA/Morgan-Hill/15105-Bellini-Way-95037/home/937762,,,N,Y,37.096159,-121.645923
PAST SALE,November-29-2017,Single Family Residential,385 Edwards Ave,SAN JOSE,CA,95110,760000,2,1.0,SAN JOSE,942,3520,1935,62,807,,Sold,,,http://www.redfin.com/CA/San-Jose/385-Edwards-Ave-95110/home/711165,MLSListings,ML81681144,N,Y,37.3183144,-121.8865527
PAST SALE,September-20-2017,Condo/Co-op,2764 Somerset Park Cir,SAN JOSE,CA,95132,455000,1,1.0,SAN JOSE,677,1711,1988,132,672,330,Sold,,,http://www.redfin.com/CA/San-Jose/2764-Somerset-Park-Cir-95132/home/2124823,MLSListings,ML81673293,N,Y,37.395226,-121.860942
PAST SALE,October-13-2017,Single Family Residential,3163 Taper Ave,SAN JOSE,CA,95124,940000,3,1.0,SAN JOSE,984,6386,1956,109,955,,Sold,,,http://www.redfin.com/CA/San-Jose/3163-Taper-Ave-95124/home/1370828,MLSListings,ML81679318,N,Y,37.2657533,-121.9282127
PAST SALE,September-27-2017,Condo/Co-op,10202 Danube Dr,CUPERTINO,CA,95014,760000,1,1.0,CUPERTINO,884,,1985,125,860,428,Sold,,,http://www.redfin.com/CA/Cupertino/10202-Danube-Dr-95014/home/789959,MLSListings,ML81674360,N,Y,37.320232,-122.026315
PAST SALE,,Single Family Residential,397 Vine Ave,Sunnyvale,CA,94086,1500000,3,1.0,,1536,5200,1943,,977,,,,,http://www.redfin.com/CA/Sunnyvale/397-Vine-Ave-94086/home/1092726,,,N,Y,37.3715719,-122.0270061
PAST SALE,,Single Family Residential,2987 Patt Ave,San Jose,CA,95133,580000,3,1.0,,957,5022,1961,,606,,,,,http://www.redfin.com/CA/San-Jose/2987-Patt-Ave-95133/home/1145626,,,N,Y,37.3784663,-121.8412465
PAST SALE,September-22-2017,Single Family Residential,295 Beechnut Ave,SUNNYVALE,CA,94085,1282000,3,1.0,SUNNYVALE,1200,5824,1951,130,1068,,Sold,,,http://www.redfin.com/CA/Sunnyvale/295-Beechnut-Ave-94085/home/1393029,MLSListings,ML81673716,N,Y,37.3909924,-122.0280274
PAST SALE,,Single Family Residential,1540 Midfield Ave,San Jose,CA,95122,197500,3,1.0,,960,5000,1959,,206,,,,,http://www.redfin.com/CA/San-Jose/1540-Midfield-Ave-95122/home/889000,,,N,Y,37.3316066,-121.8428668
PAST SALE,August-7-2017,Single Family Residential,16225 Church St,MORGAN HILL,CA,95037,650000,2,1.0,MORGAN HILL,736,6500,1953,176,883,,Sold,,,http://www.redfin.com/CA/Morgan-Hill/16225-Church-St-95037/home/1625640,MLSListings,ML81655355,N,Y,37.1165161,-121.6427243
PAST SALE,August-4-2017,Condo/Co-op,758 Teatree Ct,SAN JOSE,CA,95128,430000,1,1.0,SAN JOSE,658,1390,1988,179,653,432,Sold,,,http://www.redfin.com/CA/San-Jose/758-Teatree-Ct-95128/home/12180176,MLSListings,ML81669441,N,Y,37.314402,-121.938968
PAST SALE,October-17-2017,Townhouse,21060 White Fir Ct,CUPERTINO,CA,95014,1050000,2,1.0,CUPERTINO,914,1548,1971,105,1149,265,Sold,,,http://www.redfin.com/CA/Cupertino/21060-White-Fir-Ct-95014/home/847636,MLSListings,ML81677650,N,Y,37.313194,-122.042306
PAST SALE,November-17-2017,Condo/Co-op,20488 Stevens Creek Blvd #1508,CUPERTINO,CA,95014,900000,1,1.0,CUPERTINO,850,401,2003,74,1059,383,Sold,,,http://www.redfin.com/CA/Cupertino/20488-Stevens-Creek-Blvd-95014/unit-1508/home/1052308,MLSListings,ML81682732,N,Y,37.3225939,-122.030892
PAST SALE,August-30-2017,Condo/Co-op,400-B Ortega Ave #202,MOUNTAIN VIEW,CA,94040,685000,1,1.0,MOUNTAIN VIEW,763,,1975,153,898,359,Sold,,,http://www.redfin.com/CA/Mountain-View/400B-Ortega-Ave-94040/unit-202/home/142544348,MLSListings,ML81669994,N,Y,37.400013,-122.1051247
PAST SALE,September-7-2017,Condo/Co-op,550 Ortega Ave Unit A412,MOUNTAIN VIEW,CA,94040,840000,1,1.0,MOUNTAIN VIEW,822,,1992,145,1022,335,Sold,,,http://www.redfin.com/CA/Mountain-View/550-Ortega-Ave-94040/unit-A412/home/12172018,MLSListings,ML81672740,N,Y,37.399132,-122.1062035
PAST SALE,September-22-2017,Single Family Residential,3376 Kirk Rd,SAN JOSE,CA,95124,920000,3,1.0,SAN JOSE,1280,6500,1962,130,719,,Sold,,,http://www.redfin.com/CA/San-Jose/3376-Kirk-Rd-95124/home/1428212,MLSListings,ML81671563,N,Y,37.265624,-121.9075137
PAST SALE,,Single Family Residential,764 Willis Ave,San Jose,CA,95125,630000,2,1.0,,1232,6670,1912,,511,,,,,http://www.redfin.com/CA/San-Jose/764-Willis-Ave-95125/home/1279679,,,N,Y,37.3207403,-121.8950072
PAST SALE,September-26-2017,Single Family Residential,14568 Wyrick Ave,SAN JOSE,CA,95124,1150000,3,1.0,SAN JOSE,1074,9875,1950,126,1071,,Sold,,,http://www.redfin.com/CA/San-Jose/14568-Wyrick-Ave-95124/home/1266803,MLSListings,ML81675329,N,Y,37.2554675,-121.9236634
PAST SALE,,Condo/Co-op,1390 Saddle Rack St Apt 138,San Jose,CA,95126,550000,1,1.0,,917,,2004,,600,,,,,http://www.redfin.com/CA/San-Jose/1390-Saddle-Rack-St-95126/unit-138/home/687046,,,N,Y,37.3201952,-121.9130958
PAST SALE,September-29-2017,Single Family Residential,126 N 12th St,SAN JOSE,CA,95112,550000,1,1.0,SAN JOSE,484,2450,1953,123,1136,,Sold,,,http://www.redfin.com/CA/San-Jose/126-N-12th-St-95112/home/1157621,MLSListings,ML81674351,N,Y,37.3436227,-121.8803165
PAST SALE,October-4-2017,Single Family Residential,868 S 2nd St,SAN JOSE,CA,95112,740000,3,1.0,SAN JOSE,1632,5127,1904,118,453,,Sold,,,http://www.redfin.com/CA/San-Jose/868-S-2nd-St-95112/home/1729135,MLSListings,ML81655533,N,Y,37.3237674,-121.8795588
PAST SALE,January-12-2018,Single Family Residential,717 Minnesota Ave,SAN JOSE,CA,95125,1000000,2,1.0,SAN JOSE,990,4497,1939,18,1010,,Sold,,,http://www.redfin.com/CA/San-Jose/717-Minnesota-Ave-95125/home/1327509,MLSListings,ML81686873,N,Y,37.3083724,-121.8900071
PAST SALE,August-29-2017,Condo/Co-op,4970 Cherry Ave #102,SAN JOSE,CA,95118,420000,1,1.0,SAN JOSE,675,1879,1979,154,622,260,Sold,,,http://www.redfin.com/CA/San-Jose/4970-Cherry-Ave-95118/unit-102/home/17290043,MLSListings,ML81655781,N,Y,37.2585424,-121.8796741
PAST SALE,October-6-2017,Single Family Residential,355 Lyndale Ave,SAN JOSE,CA,95127,710000,3,1.0,SAN JOSE,1085,7735,1947,116,654,,Sold,,,http://www.redfin.com/CA/San-Jose/355-Lyndale-Ave-95127/home/886839,MLSListings,ML81675960,N,Y,37.3593505,-121.8266324
PAST SALE,September-5-2017,Single Family Residential,115 S 3rd St,CAMPBELL,CA,95008,1280000,2,1.0,CAMPBELL,1080,7650,1900,147,1185,,Sold,,,http://www.redfin.com/CA/Campbell/115-S-3rd-St-95008/home/861971,MLSListings,ML81676777,N,Y,37.285469,-121.9474781
PAST SALE,,Single Family Residential,200 Staples Ave,San Jose,CA,95127,227500,3,1.0,,1036,6180,1951,,220,,,,,http://www.redfin.com/CA/San-Jose/200-Staples-Ave-95127/home/1302659,,,N,Y,37.3734707,-121.8287609
PAST SALE,September-25-2017,Condo/Co-op,3242 Kimber Ct #43,SAN JOSE,CA,95124,525000,2,1.0,SAN JOSE,886,1148,1977,127,593,315,Sold,,,http://www.redfin.com/CA/San-Jose/3242-Kimber-Ct-95124/unit-43/home/973733,MLSListings,ML81674865,N,Y,37.264988,-121.921774
PAST SALE,October-10-2017,Condo/Co-op,2201 Monroe St #1504,SANTA CLARA,CA,95050,595000,2,1.0,SANTA CLARA,853,2750,1978,112,698,302,Sold,,,http://www.redfin.com/CA/Santa-Clara/2201-Monroe-St-95050/unit-1504/home/1671698,MLSListings,ML81676661,N,Y,37.3630051,-121.9600088
PAST SALE,August-11-2017,Single Family Residential,1327 Keoncrest Ave,SAN JOSE,CA,95110,740000,2,1.0,SAN JOSE,1310,5000,1946,172,565,,Sold,,,http://www.redfin.com/CA/San-Jose/1327-Keoncrest-Ave-95110/home/682223,MLSListings,ML81670421,N,Y,37.3600361,-121.9097696
PAST SALE,October-5-2017,Condo/Co-op,2250 Monroe St #206,SANTA CLARA,CA,95050,521000,1,1.0,SANTA CLARA,716,716,1987,117,728,370,Sold,,,http://www.redfin.com/CA/Santa-Clara/2250-Monroe-St-95050/unit-206/home/1053858,MLSListings,ML81675014,N,Y,37.3620091,-121.9637889
PAST SALE,September-30-2017,Condo/Co-op,3740 Miraverde Ct #127,SANTA CLARA,CA,95051,750000,2,1.0,SANTA CLARA,920,,1986,122,815,352,Sold,,,http://www.redfin.com/CA/Santa-Clara/3740-Miraverde-Ct-95051/unit-127/home/1562805,MLSListings,ML81675444,N,Y,37.3582409,-122.0002941
PAST SALE,November-3-2017,Condo/Co-op,1115 Reed Ave Unit D,SUNNYVALE,CA,94086,648000,2,1.0,SUNNYVALE,840,840,1972,88,771,394,Sold,,,http://www.redfin.com/CA/Sunnyvale/1115-Reed-Ave-94086/unit-D/home/1317866,MLSListings,ML81680299,N,Y,37.368179,-121.999887
PAST SALE,,Single Family Residential,831 Bellomy St,Santa Clara,CA,95050,760000,3,1.0,,1183,5876,1935,,642,,,,,http://www.redfin.com/CA/Santa-Clara/831-Bellomy-St-95050/home/549331,,,N,Y,37.3461297,-121.9398375
PAST SALE,November-7-2017,Condo/Co-op,3735 Terstena Pl #153,SANTA CLARA,CA,95051,680000,2,1.0,SANTA CLARA,912,,1986,84,746,466,Sold,,,http://www.redfin.com/CA/Santa-Clara/3735-Terstena-Pl-95051/unit-153/home/1096911,MLSListings,ML81679319,N,Y,37.3581407,-121.9996845
PAST SALE,November-27-2017,Single Family Residential,2852 Butte St,SANTA CLARA,CA,95051,1551000,3,1.0,SANTA CLARA,1400,7500,1947,64,1108,,Sold,,,http://www.redfin.com/CA/Santa-Clara/2852-Butte-St-95051/home/732151,MLSListings,ML81682900,N,Y,37.3506227,-121.978538
PAST SALE,December-22-2017,Condo/Co-op,14225 Lora Dr #90,LOS GATOS,CA,95032,631000,2,1.0,LOS GATOS,1000,2242,1963,39,631,375,Sold,,,http://www.redfin.com/CA/Los-Gatos/14225-Lora-Dr-95032/unit-90/home/1727447,MLSListings,ML81682120,N,Y,37.262377,-121.976824
PAST SALE,October-17-2017,Single Family Residential,1023 Los Trancos Rd,PORTOLA VALLEY,CA,94028,1500000,2,1.0,PORTOLA VALLEY,860,11500,1930,105,1744,,Sold,,,http://www.redfin.com/CA/Portola-Valley/1023-Los-Trancos-Rd-94028/home/1953409,MLSListings,ML81677898,N,Y,37.349949,-122.197992
PAST SALE,November-1-2017,Single Family Residential,252 Sunnyslope Ave,SAN JOSE,CA,95127,655000,3,1.0,SAN JOSE,1392,6750,1959,90,471,,Sold,,,http://www.redfin.com/CA/San-Jose/252-Sunnyslope-Ave-95127/home/1066705,MLSListings,ML81675198,N,Y,37.3688561,-121.8183818
PAST SALE,December-8-2017,Single Family Residential,2201 Santa Ana St,PALO ALTO,CA,94303,2300000,3,1.0,PALO ALTO,1195,6664,1951,53,1925,,Sold,,,http://www.redfin.com/CA/Palo-Alto/2201-Santa-Ana-St-94303/home/1020576,MLSListings,ML81683570,N,Y,37.4460403,-122.1277762
PAST SALE,August-18-2017,Single Family Residential,18872 Devon Ave,SARATOGA,CA,95070,1600000,2,1.0,SARATOGA,816,10000,1951,165,1961,,Sold,,,http://www.redfin.com/CA/Saratoga/18872-Devon-Ave-95070/home/611869,MLSListings,ML81672683,N,Y,37.2784795,-122.0011074
PAST SALE,,Single Family Residential,1066 Prouty Way,San Jose,CA,95129,1938000,3,1.0,,992,5994,1956,,1954,,,,,http://www.redfin.com/CA/San-Jose/1066-Prouty-Way-95129/home/1566309,,,N,Y,37.3072903,-122.0027279
PAST SALE,,Single Family Residential,1173 Edith St,San Jose,CA,95122,640000,5,1.0,,2103,7020,1962,,304,,,,,http://www.redfin.com/CA/San-Jose/1173-Edith-St-95122/home/1100059,,,N,Y,37.3438196,-121.8346588
PAST SALE,,Single Family Residential,12642 Paseo Olivos,Saratoga,CA,95070,1540000,3,1.0,,1620,10000,1950,,951,,,,,http://www.redfin.com/CA/Saratoga/12642-Paseo-Olivos-95070/home/1057205,,,N,Y,37.2839076,-121.9956063
PAST SALE,,Single Family Residential,6111 Barclay Ct,San Jose,CA,95123,114000,2,1.0,,1380,6800,1968,,83,,,,,http://www.redfin.com/CA/San-Jose/6111-Barclay-Ct-95123/home/698680,,,N,Y,37.2362536,-121.8162668
PAST SALE,October-17-2017,Condo/Co-op,1895 Messina Dr,SAN JOSE,CA,95132,610000,2,1.0,SAN JOSE,968,704,1974,105,630,365,Sold,,,http://www.redfin.com/CA/San-Jose/1895-Messina-Dr-95132/home/1079309,MLSListings,ML81677857,N,Y,37.4099771,-121.86177
PAST SALE,,Condo/Co-op,5430 Makati Cir,San Jose,CA,95123,215000,1,1.0,,690,,1984,,312,,,,,http://www.redfin.com/CA/San-Jose/5430-Makati-Cir-95123/home/835397,,,N,Y,37.250084,-121.808066
PAST SALE,August-21-2017,Condo/Co-op,338 San Petra Ct #1,MILPITAS,CA,95035,540000,3,1.0,MILPITAS,1050,1800,1971,162,514,419,Sold,,,http://www.redfin.com/CA/Milpitas/338-San-Petra-Ct-95035/unit-1/home/812355,MLSListings,ML81656121,N,Y,37.4249041,-121.9099797
PAST SALE,August-18-2017,Townhouse,530 Felix Way,SAN JOSE,CA,95125,530000,2,1.0,SAN JOSE,780,2116,1983,165,679,230,Sold,,,http://www.redfin.com/CA/San-Jose/530-Felix-Way-95125/home/1204449,MLSListings,ML81656615,N,Y,37.2972101,-121.877501
PAST SALE,August-18-2017,Single Family Residential,95 Bellevue Ave,SAN JOSE,CA,95110,638000,4,1.0,SAN JOSE,1170,6235,1961,165,545,,Sold,,,http://www.redfin.com/CA/San-Jose/95-Bellevue-Ave-95110/home/95957310,MLSListings,ML81669511,N,Y,37.3124412,-121.87266
PAST SALE,,Condo/Co-op,1472 Freni Ct,San Jose,CA,95121,395000,2,1.0,,884,,1971,,447,,,,,http://www.redfin.com/CA/San-Jose/1472-Freni-Ct-95121/home/1535944,,,N,Y,37.3130424,-121.8254584
PAST SALE,,Single Family Residential,34 George St,San Jose,CA,95110,515000,3,1.0,,1406,4635,1900,,366,,,,,http://www.redfin.com/CA/San-Jose/34-George-St-95110/home/1686076,,,N,Y,37.3473835,-121.8997316
PAST SALE,January-25-2018,Other,215 Tennant Ave,MORGAN HILL,CA,95037,1000000,,,MORGAN HILL,,46173,,5,,,Sold,,,http://www.redfin.com/CA/Morgan-Hill/215-Tennant-Ave-95037/home/12177366,MLSListings,ML81682401,N,Y,37.1149259,-121.639576
PAST SALE,,Single Family Residential,330 Bonita Ave,San Jose,CA,95116,125000,3,1.0,,912,13992,1920,,137,,,,,http://www.redfin.com/CA/San-Jose/330-Bonita-Ave-95116/home/1569484,,,N,Y,37.344634,-121.8591357
PAST SALE,January-29-2018,Mobile/Manufactured Home,1850 Evans Ln #17,SAN JOSE,CA,95125,145000,2,1.0,SAN JOSE,750,,2008,1,193,,Sold,,,http://www.redfin.com/CA/San-Jose/1850-Evans-Ln-95125/unit-17/home/144476865,MLSListings,ML81686945,N,Y,37.2986549,-121.8766192
PAST SALE,,Single Family Residential,475 Arleta Ave,San Jose,CA,95128,775000,2,1.0,,974,4000,1920,,796,,,,,http://www.redfin.com/CA/San-Jose/475-Arleta-Ave-95128/home/720480,,,N,Y,37.3203274,-121.9295271
PAST SALE,,Single Family Residential,1761 Doane Ave,Mountain View,CA,94043,600000,3,1.0,,832,6396,1951,,721,,,,,http://www.redfin.com/CA/Mountain-View/1761-Doane-Ave-94043/home/1458879,,,N,Y,37.4068295,-122.0862587
PAST SALE,November-14-2017,Single Family Residential,330 Via Loma,MORGAN HILL,CA,95037,730000,4,1.0,MORGAN HILL,1320,6000,1968,77,553,,Sold,,,http://www.redfin.com/CA/Morgan-Hill/330-Via-Loma-95037/home/1589226,MLSListings,ML81681082,N,Y,37.1416321,-121.6686566
PAST SALE,August-25-2017,Single Family Residential,2437 Woodland Ave,SAN JOSE,CA,95128,1118000,3,1.0,SAN JOSE,1134,5720,1950,158,986,,Sold,,,http://www.redfin.com/CA/San-Jose/2437-Woodland-Ave-95128/home/718381,MLSListings,ML81671981,N,Y,37.3312459,-121.9481666
PAST SALE,September-12-2017,Single Family Residential,451 Richmond Ave,SAN JOSE,CA,95128,968000,4,1.0,SAN JOSE,1373,6075,1920,140,705,,Sold,,,http://www.redfin.com/CA/San-Jose/451-Richmond-Ave-95128/home/1329721,MLSListings,ML81670900,N,Y,37.3204767,-121.9229744
PAST SALE,August-4-2017,Single Family Residential,10450 Layton Way,SAN JOSE,CA,95127,646000,3,1.0,SAN JOSE,1056,5040,1951,179,612,,Sold,,,http://www.redfin.com/CA/San-Jose/10450-Layton-Way-95127/home/887671,MLSListings,ML81670170,N,Y,37.3579784,-121.8285894
PAST SALE,,Condo/Co-op,88 E San Fernando St Unit 1207,San Jose,CA,95113,640000,1,1.0,,830,,2008,,771,,,,,http://www.redfin.com/CA/San-Jose/88-E-San-Fernando-St-95113/unit-1207/home/23048636,,,N,Y,37.3348194,-121.8873334
PAST SALE,September-25-2017,Single Family Residential,17741 Comanche Trl,LOS GATOS,CA,95033,550000,2,1.0,LOS GATOS,549,3956,1935,127,1002,159,Sold,,,http://www.redfin.com/CA/Los-Gatos/17741-Comanche-Trl-95033/home/916663,MLSListings,ML81674021,N,Y,37.163469,-121.980804
PAST SALE,August-29-2017,Single Family Residential,2633 Phillips Ave,SANTA CLARA,CA,95051,1310000,3,1.0,SANTA CLARA,1000,5500,1956,154,1310,,Sold,,,http://www.redfin.com/CA/Santa-Clara/2633-Phillips-Ave-95051/home/1249136,MLSListings,ML81672770,N,Y,37.3487305,-121.9742744
PAST SALE,,Single Family Residential,3232 El Sobrante St,Santa Clara,CA,95051,350000,3,1.0,,1548,7500,1949,,226,,,,,http://www.redfin.com/CA/Santa-Clara/3232-El-Sobrante-St-95051/home/733895,,,N,Y,37.3489182,-121.9848812
PAST SALE,,Condo/Co-op,3041 Kaiser Dr,Santa Clara,CA,95051,159000,2,1.0,,1097,,1971,,145,,,,,http://www.redfin.com/CA/Santa-Clara/3041-Kaiser-Dr-95051/home/1182088,,,N,Y,37.343528,-121.981505
PAST SALE,,Single Family Residential,2537 Pilot Knob Dr,Santa Clara,CA,95051,1039500,3,1.0,,897,5400,1954,,1159,,,,,http://www.redfin.com/CA/Santa-Clara/2537-Pilot-Knob-Dr-95051/home/1328277,,,N,Y,37.3680782,-121.9773977
PAST SALE,January-19-2018,Condo/Co-op,942 Kiely Blvd Unit A,SANTA CLARA,CA,95051,435000,1,1.0,SANTA CLARA,440,416,1971,11,989,471,Sold,,,http://www.redfin.com/CA/Santa-Clara/942-Kiely-Blvd-95051/unit-A/home/1414352,MLSListings,ML81686836,N,Y,37.342919,-121.979178
PAST SALE,September-27-2017,Single Family Residential,1055 Lackawanna Ct,SUNNYVALE,CA,94087,1750000,2,1.0,SUNNYVALE,925,6000,1953,125,1892,,Sold,,,http://www.redfin.com/CA/Sunnyvale/1055-Lackawanna-Ct-94087/home/869385,MLSListings,ML81675939,N,Y,37.362904,-122.0545725
PAST SALE,December-6-2017,Condo/Co-op,252 Stonegate Cir,SAN JOSE,CA,95110,430000,2,1.0,SAN JOSE,704,852,1984,55,611,250,Sold,,,http://www.redfin.com/CA/San-Jose/252-Stonegate-Cir-95110/home/845013,MLSListings,ML81685065,N,Y,37.312506,-121.879171
PAST SALE,August-23-2017,Single Family Residential,498 Vine Ave,SUNNYVALE,CA,94086,1502000,3,1.0,SUNNYVALE,979,5000,1943,160,1534,,Sold,,,http://www.redfin.com/CA/Sunnyvale/498-Vine-Ave-94086/home/1198670,MLSListings,ML81672563,N,Y,37.370882,-122.0251322
PAST SALE,December-6-2017,Single Family Residential,1115 Cook St,SAN JOSE,CA,95126,850000,2,1.0,SAN JOSE,776,3040,1924,55,1095,,Sold,,,http://www.redfin.com/CA/San-Jose/1115-Cook-St-95126/home/1138716,MLSListings,ML81683726,N,Y,37.3455757,-121.9264636
PAST SALE,September-7-2017,Single Family Residential,710 Hamilton Ln,SANTA CLARA,CA,95051,1120000,3,1.0,SANTA CLARA,900,5253,1955,145,1244,,Sold,,,http://www.redfin.com/CA/Santa-Clara/710-Hamilton-Ln-95051/home/1614199,MLSListings,ML81670901,N,Y,37.3354435,-121.9809647
PAST SALE,,Single Family Residential,1537 Liberty St,San Jose,CA,95002,435000,2,1.0,,637,3600,1940,,683,,,,,http://www.redfin.com/CA/San-Jose/1537-Liberty-St-95002/home/1747184,,,N,Y,37.425731,-121.97457
PAST SALE,November-29-2017,Single Family Residential,275 Wilton Ave,PALO ALTO,CA,94306,2050000,2,1.0,PALO ALTO,744,6664,1942,62,2755,,Sold,,,http://www.redfin.com/CA/Palo-Alto/275-Wilton-Ave-94306/home/1007455,MLSListings,ML81679683,N,Y,37.4202045,-122.1308868
PAST SALE,August-17-2017,Condo/Co-op,2200 Agnew Rd #210,SANTA CLARA,CA,95054,545000,1,1.0,SANTA CLARA,816,1648,1982,166,668,525,Sold,,,http://www.redfin.com/CA/Santa-Clara/2200-Agnew-Rd-95054/unit-210/home/582844,MLSListings,ML81669672,N,Y,37.3923133,-121.9635812
PAST SALE,September-15-2017,Townhouse,125 Connemara Way #24,SUNNYVALE,CA,94087,921000,2,1.0,SUNNYVALE,900,2340,1971,137,1023,300,Sold,,,http://www.redfin.com/CA/Sunnyvale/125-Connemara-Way-94087/unit-24/home/1739318,MLSListings,ML81675773,N,Y,37.3471379,-122.0318218
PAST SALE,November-7-2017,Condo/Co-op,1060 S 3rd St #226,SAN JOSE,CA,95112,415000,1,1.0,SAN JOSE,550,750,2005,84,755,382,Sold,,,http://www.redfin.com/CA/San-Jose/1060-S-3rd-St-95112/unit-226/home/2124546,MLSListings,ML81680352,N,Y,37.321645,-121.8766544
PAST SALE,January-2-2018,Single Family Residential,2075 Don Ct,SANTA CLARA,CA,95050,1070000,3,1.0,SANTA CLARA,985,7125,1954,28,1086,,Sold,,,http://www.redfin.com/CA/Santa-Clara/2075-Don-Ct-95050/home/1377296,MLSListings,ML81684777,N,Y,37.3586703,-121.9551641
PAST SALE,November-28-2017,Single Family Residential,131 Olive St,LOS GATOS,CA,95030,1350000,2,1.0,LOS GATOS,1011,3588,1939,63,1335,,Sold,,,http://www.redfin.com/CA/Los-Gatos/131-Olive-St-95030/home/1663916,MLSListings,ML81667691,N,Y,37.2338616,-121.9804571
PAST SALE,November-24-2017,Condo/Co-op,364 Coyote Creek Cir,SAN JOSE,CA,95116,375000,1,1.0,SAN JOSE,633,1120,1984,67,592,273,Sold,,,http://www.redfin.com/CA/San-Jose/364-Coyote-Creek-Cir-95116/home/1279357,MLSListings,ML81682291,N,Y,37.351743,-121.871784
PAST SALE,,Single Family Residential,1555 Sanborn Ave,San Jose,CA,95110,374000,2,1.0,,1214,5522,1964,,308,,,,,http://www.redfin.com/CA/San-Jose/1555-Sanborn-Ave-95110/home/17292331,,,N,Y,37.3125161,-121.8732131
PAST SALE,October-13-2017,Townhouse,1338 Millich Ln,SAN JOSE,CA,95117,810000,2,1.0,SAN JOSE,968,1568,1972,109,837,250,Sold,,,http://www.redfin.com/CA/San-Jose/1338-Millich-Ln-95117/home/732574,MLSListings,ML81677811,N,Y,37.30073,-121.959207
PAST SALE,November-15-2017,Condo/Co-op,38 N Almaden Blvd #403,San Jose,CA,95110,645000,1,1.0,San Jose,868,164,2008,76,743,500,Sold,,,http://www.redfin.com/CA/San-Jose/38-N-Almaden-Blvd-95110/unit-403/home/17288134,CRMLS,AR17218573,N,Y,37.3348273,-121.8957794
PAST SALE,October-17-2017,Single Family Residential,1394 Lillian Ave,SUNNYVALE,CA,94087,1795000,3,1.0,SUNNYVALE,960,9250,1950,105,1870,,Sold,,,http://www.redfin.com/CA/Sunnyvale/1394-Lillian-Ave-94087/home/1530252,MLSListings,ML81678524,N,Y,37.3488932,-122.0177863
PAST SALE,September-29-2017,Single Family Residential,1433 Navarro Dr,SUNNYVALE,CA,94087,1680000,2,1.0,SUNNYVALE,1176,9300,1950,123,1429,,Sold,,,http://www.redfin.com/CA/Sunnyvale/1433-Navarro-Dr-94087/home/1550003,MLSListings,ML81674898,N,Y,37.3474682,-122.0113612
PAST SALE,October-11-2017,Single Family Residential,3109 Calzar Dr,SAN JOSE,CA,95118,900000,4,1.0,SAN JOSE,1140,5800,1953,111,789,,Sold,,,http://www.redfin.com/CA/San-Jose/3109-Calzar-Dr-95118/home/1551579,MLSListings,ML81677259,N,Y,37.270298,-121.9026536
PAST SALE,December-8-2017,Condo/Co-op,880 E Fremont Ave #324,SUNNYVALE,CA,94087,690000,1,1.0,SUNNYVALE,713,1391,1987,53,968,315,Sold,,,http://www.redfin.com/CA/Sunnyvale/880-E-Fremont-Ave-94087/unit-324/home/2123941,MLSListings,ML81684167,N,Y,37.35183,-122.015045
PAST SALE,December-5-2017,Single Family Residential,1408 Burrows Rd,CAMPBELL,CA,95008,1500000,3,1.0,CAMPBELL,1295,10437,1946,56,1158,,Sold,,,http://www.redfin.com/CA/Campbell/1408-Burrows-Rd-95008/home/818757,MLSListings,ML81684043,N,Y,37.2666762,-121.9725964
PAST SALE,January-16-2018,Single Family Residential,14893 Sandy Ln,SAN JOSE,CA,95124,1275000,3,1.0,SAN JOSE,1047,9091,1950,14,1218,,Sold,,,http://www.redfin.com/CA/San-Jose/14893-Sandy-Ln-95124/home/848649,MLSListings,ML81687452,N,Y,37.2523012,-121.9271233
PAST SALE,December-5-2017,Single Family Residential,1648 Shortridge Ave,SAN JOSE,CA,95116,585000,2,1.0,SAN JOSE,854,3760,1941,56,685,,Sold,,,http://www.redfin.com/CA/San-Jose/1648-Shortridge-Ave-95116/home/998557,MLSListings,ML81682777,N,Y,37.3508848,-121.8567001
PAST SALE,December-6-2017,Single Family Residential,591 Bryan Ave,Sunnyvale,CA,94086-6420,1500000,3,1.0,Santa Clara,1226,5400,1948,55,1223,,Sold,,,http://www.redfin.com/CA/Sunnyvale/591-Bryan-Ave-94086/home/1623053,EBRD/CCAR/Bay East,40802999,N,Y,37.3730762,-122.0216563
PAST SALE,,Condo/Co-op,343 E Latimer Ave Apt 2,Campbell,CA,95008,593500,2,1.0,,903,,1971,,657,,,,,http://www.redfin.com/CA/Campbell/343-E-Latimer-Ave-95008/unit-2/home/1098203,,,N,Y,37.2908983,-121.9455922
PAST SALE,,Single Family Residential,393 N Murphy Ave,Sunnyvale,CA,94085,212000,2,1.0,,900,5200,1942,,236,,,,,http://www.redfin.com/CA/Sunnyvale/393-N-Murphy-Ave-94085/home/658926,,,N,Y,37.3877423,-122.026548
PAST SALE,,Single Family Residential,10641 Wunderlich Dr,Cupertino,CA,95014,1750000,2,1.0,,814,6480,1953,,2150,,,,,http://www.redfin.com/CA/Cupertino/10641-Wunderlich-Dr-95014/home/795851,,,N,Y,37.3134333,-122.000848
PAST SALE,,Single Family Residential,11265 Canyon Dr,San Jose,CA,95127,631500,1,1.0,,1416,17413,1948,,446,,,,,http://www.redfin.com/CA/San-Jose/11265-Canyon-Dr-95127/home/1841910,,,N,Y,37.3887449,-121.821493
PAST SALE,August-28-2017,Condo/Co-op,21089 Red Fir Ct,CUPERTINO,CA,95014,955000,2,1.0,CUPERTINO,914,1548,1971,155,1045,265,Sold,,,http://www.redfin.com/CA/Cupertino/21089-Red-Fir-Ct-95014/home/1075581,MLSListings,ML81667502,N,Y,37.315391,-122.043023
PAST SALE,January-26-2018,Single Family Residential,136 Magellan Ave,SAN JOSE,CA,95116,645000,3,1.0,SAN JOSE,1100,5250,1949,4,586,,Sold,,,http://www.redfin.com/CA/San-Jose/136-Magellan-Ave-95116/home/1795508,MLSListings,ML81683549,N,Y,37.3566114,-121.8555585
PAST SALE,January-16-2018,Condo/Co-op,19117 Vineyard Ln,SARATOGA,CA,95070,735000,1,1.0,SARATOGA,768,1282,1971,14,957,500,Sold,,,http://www.redfin.com/CA/Saratoga/19117-Vineyard-Ln-95070/home/1504623,MLSListings,ML81686757,N,Y,37.278387,-122.006974
PAST SALE,September-29-2017,Single Family Residential,350 Via Loma,MORGAN HILL,CA,95037,658250,2,1.0,MORGAN HILL,931,5750,1972,123,707,,Sold,,,http://www.redfin.com/CA/Morgan-Hill/350-Via-Loma-95037/home/1014501,MLSListings,ML81676275,N,Y,37.1409738,-121.668521
PAST SALE,August-10-2017,Single Family Residential,310 Schroeder St,SUNNYVALE,CA,94085,1300000,3,1.0,SUNNYVALE,1119,6254,1948,173,1162,,Sold,,,http://www.redfin.com/CA/Sunnyvale/310-Schroeder-St-94085/home/659349,MLSListings,ML81671177,N,Y,37.3836777,-122.0252452
PAST SALE,January-22-2018,Condo/Co-op,6190 Gerdts Dr,SAN JOSE,CA,95135,375000,1,1.0,SAN JOSE,698,704,1974,8,537,547,Sold,,,http://www.redfin.com/CA/San-Jose/6190-Gerdts-Dr-95135/home/959330,MLSListings,ML81686112,N,Y,37.285602,-121.7538588
PAST SALE,November-14-2017,Condo/Co-op,14543 Oak St,SARATOGA,CA,95070,865000,1,1.0,SARATOGA,826,1140,1984,77,1047,353,Sold,,,http://www.redfin.com/CA/Saratoga/14543-Oak-St-95070/home/910895,MLSListings,ML81683143,N,Y,37.257038,-122.033035
PAST SALE,,Townhouse,20228 Northwest Sq,Cupertino,CA,95014,375000,1,1.0,,1062,1680,1973,,353,,,,,http://www.redfin.com/CA/Cupertino/20228-Northwest-Sq-95014/home/767478,,,N,Y,37.336937,-122.0277238
PAST SALE,,Single Family Residential,1563 June Ave,San Jose,CA,95122,204545,3,1.0,,960,5400,1959,,213,,,,,http://www.redfin.com/CA/San-Jose/1563-June-Ave-95122/home/1296741,,,N,Y,37.3327272,-121.8400428
PAST SALE,August-8-2017,Condo/Co-op,255 S Rengstorff Ave #108,MOUNTAIN VIEW,CA,94040,615000,1,1.0,MOUNTAIN VIEW,812,1395,1965,175,757,456,Sold,,,http://www.redfin.com/CA/Mountain-View/255-S-Rengstorff-Ave-94040/unit-108/home/1112534,MLSListings,ML81655756,N,Y,37.399553,-122.098889
PAST SALE,October-6-2017,Condo/Co-op,576 W Parr Ave #10,LOS GATOS,CA,95032,575000,2,1.0,LOS GATOS,934,1587,1987,116,616,436,Sold,,,http://www.redfin.com/CA/Los-Gatos/576-W-Parr-Ave-95032/unit-10/home/1778505,MLSListings,ML81679631,N,Y,37.2639008,-121.9636119
PAST SALE,August-23-2017,Condo/Co-op,49 Showers Dr Unit N364,MOUNTAIN VIEW,CA,94040,800000,1,1.0,MOUNTAIN VIEW,1000,1880,1974,160,800,410,Sold,,,http://www.redfin.com/CA/Mountain-View/49-Showers-Dr-94040/unit-N364/home/12171760,MLSListings,ML81669600,N,Y,37.4049241,-122.1040167
PAST SALE,October-6-2017,Condo/Co-op,5622 Allen Ave #2,SAN JOSE,CA,95123,436000,2,1.0,SAN JOSE,903,8190,1970,116,483,350,Sold,,,http://www.redfin.com/CA/San-Jose/5622-Allen-Ave-95123/unit-2/home/997223,MLSListings,ML81676055,N,Y,37.2495126,-121.8544021
PAST SALE,August-30-2017,Single Family Residential,14508 Nelson Way,SAN JOSE,CA,95124,1160000,3,1.0,SAN JOSE,1322,9875,1952,153,877,,Sold,,,http://www.redfin.com/CA/San-Jose/14508-Nelson-Way-95124/home/1235390,MLSListings,ML81674152,N,Y,37.2572452,-121.9224389
PAST SALE,September-8-2017,Condo/Co-op,38 N Almaden Blvd #505,SAN JOSE,CA,95110,635000,1,1.0,SAN JOSE,956,164,2008,144,664,516,Sold,,,http://www.redfin.com/CA/San-Jose/38-N-Almaden-Blvd-95110/unit-505/home/17288130,MLSListings,ML81642497,N,Y,37.3348273,-121.8957794
PAST SALE,,Single Family Residential,1145 Delmas Ave,San Jose,CA,95125,800000,3,1.0,,1483,8950,1900,,539,,,,,http://www.redfin.com/CA/San-Jose/1145-Delmas-Ave-95125/home/1218112,,,N,Y,37.3112521,-121.8933293
PAST SALE,August-18-2017,Single Family Residential,254 Beemer Ave,SUNNYVALE,CA,94086,1080000,2,1.0,SUNNYVALE,773,3248,1947,165,1397,,Sold,,,http://www.redfin.com/CA/Sunnyvale/254-Beemer-Ave-94086/home/659396,MLSListings,ML81669556,N,Y,37.3803618,-122.0307553
PAST SALE,September-18-2017,Single Family Residential,2380 Cherry Ave,SAN JOSE,CA,95125,1025000,3,1.0,SAN JOSE,1161,6250,1951,134,883,,Sold,,,http://www.redfin.com/CA/San-Jose/2380-Cherry-Ave-95125/home/1551426,MLSListings,ML81674232,N,Y,37.2833279,-121.8956053
PAST SALE,August-17-2017,Single Family Residential,152 S Bayview Ave,SUNNYVALE,CA,94086,1428000,2,1.0,SUNNYVALE,1112,6580,1939,166,1284,,Sold,,,http://www.redfin.com/CA/Sunnyvale/152-S-Bayview-Ave-94086/home/1092642,MLSListings,ML81672450,N,Y,37.3757577,-122.0259727
PAST SALE,September-25-2017,Condo/Co-op,38 N Almaden Blvd #1803,SAN JOSE,CA,95110,670000,1,1.0,SAN JOSE,868,164,2008,127,772,500,Sold,,,http://www.redfin.com/CA/San-Jose/38-N-Almaden-Blvd-95110/unit-1803/home/17291297,MLSListings,ML81668931,N,Y,37.3348273,-121.8957794
PAST SALE,August-10-2017,Single Family Residential,35 Wright Ave,MORGAN HILL,CA,95037,528000,2,1.0,MORGAN HILL,889,4300,1940,173,594,,Sold,,,http://www.redfin.com/CA/Morgan-Hill/35-Wright-Ave-95037/home/1238095,MLSListings,ML81648301,N,Y,37.1348986,-121.6595685
PAST SALE,September-5-2017,Condo/Co-op,92 Saddle Brook Dr,SAN JOSE,CA,95136,470000,2,1.0,SAN JOSE,816,766,1984,147,576,386,Sold,,,http://www.redfin.com/CA/San-Jose/92-Saddlebrook-Dr-95136/home/983780,MLSListings,ML81674606,N,Y,37.2652349,-121.823772
PAST SALE,September-22-2017,Condo/Co-op,292 Tradewinds Dr #3,SAN JOSE,CA,95123,390000,1,1.0,SAN JOSE,722,2809,1970,130,540,358,Sold,,,http://www.redfin.com/CA/San-Jose/292-Tradewinds-Dr-95123/unit-3/home/1588705,MLSListings,ML81674544,N,Y,37.252928,-121.827485
PAST SALE,September-7-2017,Single Family Residential,1222 S Almaden Ave,SAN JOSE,CA,95110,455000,2,1.0,SAN JOSE,946,5400,1907,145,481,,Sold,,,http://www.redfin.com/CA/San-Jose/1222-S-Almaden-Ave-95110/home/1716188,MLSListings,ML81676903,N,Y,37.3158244,-121.8796022
PAST SALE,September-26-2017,Condo/Co-op,1375 Lick Ave #923,SAN JOSE,CA,95110,545000,1,1.0,SAN JOSE,820,1394,2009,126,665,450,Sold,,,http://www.redfin.com/CA/San-Jose/1375-Lick-Ave-95110/unit-923/home/17288363,MLSListings,ML81674519,N,Y,37.311469,-121.8823991
PAST SALE,September-1-2017,Condo/Co-op,99 Sherland Ave Unit B,MOUNTAIN VIEW,CA,94043,765000,2,1.0,MOUNTAIN VIEW,917,910,1972,151,834,405,Sold,,,http://www.redfin.com/CA/Mountain-View/99-Sherland-Ave-94043/unit-B/home/1391863,MLSListings,ML81653136,N,Y,37.4002264,-122.062379
PAST SALE,September-6-2017,Condo/Co-op,280 Easy St #417,MOUNTAIN VIEW,CA,94043,780000,2,1.0,MOUNTAIN VIEW,894,,1964,146,872,362,Sold,,,http://www.redfin.com/CA/Mountain-View/280-Easy-St-94043/unit-417/home/625578,MLSListings,ML81672645,N,Y,37.3977731,-122.0669526
PAST SALE,September-25-2017,Condo/Co-op,617 Balfour Dr,SAN JOSE,CA,95111,362500,1,1.0,SAN JOSE,668,,1983,127,543,270,Sold,,,http://www.redfin.com/CA/San-Jose/617-Balfour-Dr-95111/home/1122243,MLSListings,ML81672981,N,Y,37.300564,-121.840028
PAST SALE,August-9-2017,Condo/Co-op,5502 Spinnaker Dr #1,SAN JOSE,CA,95123,397000,2,1.0,SAN JOSE,810,1750,1970,174,490,295,Sold,,,http://www.redfin.com/CA/San-Jose/5502-Spinnaker-Dr-95123/unit-1/home/1233199,MLSListings,ML81671300,N,Y,37.2535733,-121.8226119
PAST SALE,September-29-2017,Single Family Residential,10271 Shoreham Ct,SAN JOSE,CA,95127,650000,3,1.0,SAN JOSE,1060,6150,1952,123,613,,Sold,,,http://www.redfin.com/CA/San-Jose/10271-Shoreham-Ct-95127/home/887215,MLSListings,ML81674262,N,Y,37.3550732,-121.8282445
PAST SALE,September-18-2017,Condo/Co-op,264 N Whisman Rd #7,MOUNTAIN VIEW,CA,94043,780000,2,1.0,MOUNTAIN VIEW,1087,3135,1978,134,718,652,Sold,,,http://www.redfin.com/CA/Mountain-View/264-N-Whisman-Rd-94043/unit-7/home/659144,MLSListings,ML81669732,N,Y,37.3961285,-122.0601963
PAST SALE,September-18-2017,Single Family Residential,10160 Stonehedge Way,SAN JOSE,CA,95127,602000,3,1.0,SAN JOSE,1444,5096,1953,134,417,,Sold,,,http://www.redfin.com/CA/San-Jose/10160-Stonehedge-Way-95127/home/887979,MLSListings,ML81670230,N,Y,37.3574342,-121.8212599
PAST SALE,August-24-2017,Single Family Residential,1734 Galewood Ct,SAN JOSE,CA,95133,560000,3,1.0,SAN JOSE,900,5600,1955,159,622,,Sold,,,http://www.redfin.com/CA/San-Jose/1734-Galewood-Ct-95133/home/1474039,MLSListings,ML81670779,N,Y,37.360544,-121.8617757
PAST SALE,August-30-2017,Single Family Residential,2820 Donizetti Ct,SAN JOSE,CA,95132,810000,2,1.0,SAN JOSE,899,6000,1970,153,901,,Sold,,,http://www.redfin.com/CA/San-Jose/2820-Donizetti-Ct-95132/home/851540,MLSListings,ML81672371,N,Y,37.3972908,-121.8602922
PAST SALE,September-22-2017,Single Family Residential,2740 Gay Ave,SAN JOSE,CA,95127,710000,2,1.0,SAN JOSE,918,7750,1954,130,773,,Sold,,,http://www.redfin.com/CA/San-Jose/2740-Gay-Ave-95127/home/1418616,MLSListings,ML81674614,N,Y,37.366969,-121.8388429
PAST SALE,September-13-2017,Condo/Co-op,259 N Capitol Ave #191,SAN JOSE,CA,95127,325000,1,1.0,SAN JOSE,777,,1977,139,418,266,Sold,,,http://www.redfin.com/CA/San-Jose/259-N-Capitol-Ave-95127/unit-191/home/1569824,MLSListings,ML81674587,N,Y,37.3686787,-121.8422041
PAST SALE,October-2-2017,Condo/Co-op,4716 Capay Dr #3,SAN JOSE,CA,95118,485000,2,1.0,SAN JOSE,903,6313,1970,120,537,319,Sold,,,http://www.redfin.com/CA/San-Jose/4716-Capay-Dr-95118/unit-3/home/555802,MLSListings,ML81675083,N,Y,37.2590743,-121.8884699
PAST SALE,August-9-2017,Condo/Co-op,5577 Spinnaker Dr #3,SAN JOSE,CA,95123,462000,2,1.0,SAN JOSE,903,1750,1970,174,512,295,Sold,,,http://www.redfin.com/CA/San-Jose/5577-Spinnaker-Dr-95123/unit-3/home/1512179,MLSListings,ML81668450,N,Y,37.2525371,-121.8242642
PAST SALE,September-29-2017,Condo/Co-op,2505 Golzio Ct #3,SAN JOSE,CA,95133,462000,2,1.0,SAN JOSE,903,1500,1971,123,512,301,Sold,,,http://www.redfin.com/CA/San-Jose/2505-Golzio-Ct-95133/unit-3/home/1081936,MLSListings,ML81675549,N,Y,37.379985,-121.8565229
PAST SALE,October-4-2017,Condo/Co-op,22 Castlecrest Dr,SAN JOSE,CA,95116,301000,1,1.0,SAN JOSE,456,1875,1983,118,660,308,Sold,,,http://www.redfin.com/CA/San-Jose/22-Castlecrest-Dr-95116/home/920065,MLSListings,ML81669456,N,Y,37.355894,-121.850098
PAST SALE,September-19-2017,Condo/Co-op,880 N Winchester Blvd #204,SANTA CLARA,CA,95050,575000,1,1.0,SANTA CLARA,931,1000,1985,133,618,333,Sold,,,http://www.redfin.com/CA/Santa-Clara/880-N-Winchester-Blvd-95050/unit-204/home/1577554,MLSListings,ML81669022,N,Y,37.345921,-121.951393
PAST SALE,August-14-2017,Single Family Residential,1081 Morse St,SAN JOSE,CA,95126,920000,2,1.0,SAN JOSE,1476,5800,1928,169,623,,Sold,,,http://www.redfin.com/CA/San-Jose/1081-Morse-St-95126/home/681137,MLSListings,ML81670220,N,Y,37.34157,-121.9289136
PAST SALE,September-18-2017,Single Family Residential,1735 Franck Ave,SANTA CLARA,CA,95051,1000000,3,1.0,SANTA CLARA,1032,5656,1953,134,969,,Sold,,,http://www.redfin.com/CA/Santa-Clara/1735-Franck-Ave-95051/home/674579,MLSListings,ML81675151,N,Y,37.3543662,-121.9699198
PAST SALE,September-29-2017,Single Family Residential,2095 Main St,SANTA CLARA,CA,95050,740000,4,1.0,SANTA CLARA,1285,5000,1954,123,576,,Sold,,,http://www.redfin.com/CA/Santa-Clara/2095-Main-St-95050/home/1576824,MLSListings,ML81672854,N,Y,37.3603982,-121.9533677
PAST SALE,October-10-2017,Single Family Residential,2536 Parkland Ct,SANTA CLARA,CA,95051,1080000,3,1.0,SANTA CLARA,1114,5600,1954,112,969,,Sold,,,http://www.redfin.com/CA/Santa-Clara/2536-Parkland-Ct-95051/home/1514071,MLSListings,ML81676329,N,Y,37.369684,-121.979918
PAST SALE,,Condo/Co-op,984 Kiely Blvd Unit L,Santa Clara,CA,95051,537000,2,1.0,,882,,1971,,609,,,,,http://www.redfin.com/CA/Santa-Clara/984-Kiely-Blvd-95051/unit-L/home/738755,,,N,Y,37.343639,-121.978637
PAST SALE,August-18-2017,Single Family Residential,1363 Cliffwood Dr,SAN JOSE,CA,95122,475000,3,1.0,SAN JOSE,960,5000,1959,165,495,,Sold,,,http://www.redfin.com/CA/San-Jose/1363-Cliffwood-Dr-95122/home/1729474,MLSListings,ML81634624,N,Y,37.3373823,-121.8374832
PAST SALE,October-19-2017,Condo/Co-op,1720 Halford Ave #330,SANTA CLARA,CA,95051,455000,1,1.0,SANTA CLARA,678,1554,1970,103,671,478,Sold,,,http://www.redfin.com/CA/Santa-Clara/1720-Halford-Ave-95051/unit-330/home/1590374,MLSListings,ML81677165,N,Y,37.354915,-121.999042
PAST SALE,,Single Family Residential,2329 Bray Ave,Santa Clara,CA,95050,1320000,3,1.0,,1021,5940,1950,,1293,,,,,http://www.redfin.com/CA/Santa-Clara/2329-Bray-Ave-95050/home/579782,,,N,Y,37.353437,-121.9658574
PAST SALE,November-6-2017,Condo/Co-op,110 E Middlefield Rd Unit C,MOUNTAIN VIEW,CA,94043,865000,2,1.0,MOUNTAIN VIEW,917,910,1972,85,943,405,Sold,,,http://www.redfin.com/CA/Mountain-View/110-E-Middlefield-Rd-94043/unit-C/home/1391850,MLSListings,ML81680330,N,Y,37.398693,-122.062882
PAST SALE,October-31-2017,Condo/Co-op,280 Easy St #406,MOUNTAIN VIEW,CA,94043,739000,2,1.0,MOUNTAIN VIEW,894,2050,1964,91,827,362,Sold,,,http://www.redfin.com/CA/Mountain-View/280-Easy-St-94043/unit-406/home/1561759,MLSListings,ML81674419,N,Y,37.3977731,-122.0669526
PAST SALE,December-1-2017,Single Family Residential,2101 Main St,SANTA CLARA,CA,95050,800000,3,1.0,SANTA CLARA,985,5000,1954,60,812,,Sold,,,http://www.redfin.com/CA/Santa-Clara/2101-Main-St-95050/home/1074672,MLSListings,ML81676256,N,Y,37.3606097,-121.9538032
PAST SALE,November-23-2017,Single Family Residential,10323 Dale Dr,SAN JOSE,CA,95127,575000,3,1.0,SAN JOSE,1192,5600,1951,68,482,,Sold,,,http://www.redfin.com/CA/San-Jose/10323-Dale-Dr-95127/home/788822,MLSListings,ML81683500,N,Y,37.3624253,-121.8191066
PAST SALE,November-3-2017,Condo/Co-op,264 N Whisman Rd #20,MOUNTAIN VIEW,CA,94043,850000,2,1.0,MOUNTAIN VIEW,1087,3135,1978,88,782,652,Sold,,,http://www.redfin.com/CA/Mountain-View/264-N-Whisman-Rd-94043/unit-20/home/1197739,MLSListings,ML81678753,N,Y,37.3961285,-122.0601963
PAST SALE,December-8-2017,Single Family Residential,482 Morse Ave,SUNNYVALE,CA,94085,1371000,3,1.0,SUNNYVALE,917,7000,1947,53,1495,,Sold,,,http://www.redfin.com/CA/Sunnyvale/482-Morse-Ave-94085/home/1310259,MLSListings,ML81682775,N,Y,37.386172,-122.021237
PAST SALE,,Condo/Co-op,1700 Civic Center Dr Apt 404,Santa Clara,CA,95050,246000,1,1.0,,646,,1972,,381,,,,,http://www.redfin.com/CA/Santa-Clara/1700-Civic-Center-Dr-95050/unit-404/home/993664,,,N,Y,37.3552064,-121.9577406
PAST SALE,,Single Family Residential,334 N Bayview Ave,Sunnyvale,CA,94085,850000,3,1.0,,766,7000,1947,,1110,,,,,http://www.redfin.com/CA/Sunnyvale/334-N-Bayview-Ave-94085/home/1210584,,,N,Y,37.3833488,-122.0234547
PAST SALE,November-28-2017,Condo/Co-op,5556 Cribari Cir,SAN JOSE,CA,95135,415000,1,1.0,SAN JOSE,947,1326,1968,63,438,560,Sold,,,http://www.redfin.com/CA/San-Jose/5556-Cribari-Cir-95135/home/962439,MLSListings,ML81682001,N,Y,37.292188,-121.754948
PAST SALE,,Condo/Co-op,18226 Hale Ave Apt G,Morgan Hill,CA,95037,435000,3,1.0,,1145,,1976,,380,,,,,http://www.redfin.com/CA/Morgan-Hill/18226-Hale-Ave-95037/unit-G/home/1014871,,,N,Y,37.138008,-121.664772
PAST SALE,November-9-2017,Condo/Co-op,280 Easy St #201,MOUNTAIN VIEW,CA,94043,543000,1,1.0,MOUNTAIN VIEW,711,2050,1964,82,764,362,Sold,,,http://www.redfin.com/CA/Mountain-View/280-Easy-St-94043/unit-201/home/625163,MLSListings,ML81679184,N,Y,37.3977731,-122.0669526
PAST SALE,January-22-2018,Single Family Residential,10291 Serrano Ave,SAN JOSE,CA,95127,710000,3,1.0,SAN JOSE,1192,9490,1951,8,596,,Sold,,,http://www.redfin.com/CA/San-Jose/10291-Serrano-Ave-95127/home/946743,MLSListings,ML81686744,N,Y,37.3615358,-121.8196312
PAST SALE,August-25-2017,Other,1445 Westmont Ave,CAMPBELL,CA,95008,3725000,,,CAMPBELL,,54013,,158,,,Sold,,,http://www.redfin.com/CA/Campbell/1445-Westmont-Ave-95008/home/1799770,MLSListings,ML81670434,N,Y,37.2719845,-121.9756566
PAST SALE,September-1-2017,Single Family Residential,1197 Lovell Ave,CAMPBELL,CA,95008,1340000,2,1.0,CAMPBELL,1068,14280,1947,151,1255,,Sold,,,http://www.redfin.com/CA/Campbell/1197-Lovell-Ave-95008/home/1663759,MLSListings,ML81647912,N,Y,37.2725975,-121.9705946
PAST SALE,August-31-2017,Townhouse,640 W Sunnyoaks Ave,CAMPBELL,CA,95008,705000,2,1.0,CAMPBELL,948,1820,1978,152,744,269,Sold,,,http://www.redfin.com/CA/Campbell/640-W-Sunnyoaks-Ave-95008/home/1727199,MLSListings,ML81671331,N,Y,37.2719639,-121.960661
PAST SALE,October-31-2017,Single Family Residential,1348 Darryl Dr,SAN JOSE,CA,95130,790000,2,1.0,SAN JOSE,905,3222,1960,91,873,150,Sold,,,http://www.redfin.com/CA/San-Jose/1348-Darryl-Dr-95130/home/45107073,MLSListings,ML81678007,N,Y,37.2996229,-121.9649344
PAST SALE,,Single Family Residential,219 Hawthorne Ave,Palo Alto,CA,94301,425000,1,1.0,,866,3250,1923,,491,,,,,http://www.redfin.com/CA/Palo-Alto/219-Hawthorne-Ave-94301/home/1113241,,,N,Y,37.4475052,-122.1664169
PAST SALE,,Single Family Residential,346 Palo Alto Ave,Palo Alto,CA,94301,2030000,2,1.0,,960,4200,1925,,2115,,,,,http://www.redfin.com/CA/Palo-Alto/346-Palo-Alto-Ave-94301/home/1391450,,,N,Y,37.4506944,-122.1671105
PAST SALE,November-22-2017,Condo/Co-op,104 E Middlefield Rd Unit D,MOUNTAIN VIEW,CA,94043,780000,2,1.0,MOUNTAIN VIEW,840,800,1972,69,929,405,Sold,,,http://www.redfin.com/CA/Mountain-View/104-E-Middlefield-Rd-94043/unit-D/home/593421,MLSListings,ML81682898,N,Y,37.3983599,-122.063267
PAST SALE,October-2-2017,Single Family Residential,14358 Chrisland Ave,SAN JOSE,CA,95127,535000,3,1.0,SAN JOSE,992,5000,1951,120,539,,Sold,,,http://www.redfin.com/CA/San-Jose/14358-Chrisland-Ave-95127/home/1420320,MLSListings,ML81674353,N,Y,37.3624163,-121.8168896
PAST SALE,,Single Family Residential,103 Balboa Ave,San Jose,CA,95116,500000,2,1.0,,824,5250,1948,,607,,,,,http://www.redfin.com/CA/San-Jose/103-Balboa-Ave-95116/home/786874,,,N,Y,37.355265,-121.85607
PAST SALE,August-29-2017,Condo/Co-op,5083 Sutter Creek Cir,SAN JOSE,CA,95136,467000,2,1.0,SAN JOSE,816,,1986,154,572,386,Sold,,,http://www.redfin.com/CA/San-Jose/5083-Sutter-Creek-Cir-95136/home/1269561,MLSListings,ML81670938,N,Y,37.261856,-121.822056
PAST SALE,September-7-2017,Single Family Residential,21660 Bertram Rd,SAN JOSE,CA,95120,875000,3,1.0,SAN JOSE,1471,13061,1953,145,595,,Sold,,,http://www.redfin.com/CA/San-Jose/21660-Bertram-Rd-95120/home/615042,MLSListings,ML81668888,N,Y,37.174845,-121.822228
PAST SALE,,Condo/Co-op,5506 Sean Cir #12,San Jose,CA,95123,481500,2,1.0,,997,,1979,,483,,,,,http://www.redfin.com/CA/San-Jose/5506-Sean-Cir-95123/unit-12/home/1782461,,,N,Y,37.252952,-121.828969
PAST SALE,December-5-2017,Single Family Residential,814 Wake Forest Dr,MOUNTAIN VIEW,CA,94043,1100000,3,1.0,MOUNTAIN VIEW,816,6545,1954,56,1348,,Sold,,,http://www.redfin.com/CA/Mountain-View/814-Wake-Forest-Dr-94043/home/940908,MLSListings,ML81682858,N,Y,37.4042795,-122.0650891
PAST SALE,November-20-2017,Single Family Residential,621 Hale Ave,MORGAN HILL,CA,95037,500000,3,1.0,MORGAN HILL,1200,24393,1960,71,417,,Sold,,,http://www.redfin.com/CA/Morgan-Hill/621-Hale-Ave-95037/home/1772721,MLSListings,ML81671203,N,Y,37.1714544,-121.7112141
PAST SALE,December-15-2017,Condo/Co-op,5588 Makati Cir,SAN JOSE,CA,95123,475000,1,1.0,SAN JOSE,744,,1985,46,638,388,Sold,,,http://www.redfin.com/CA/San-Jose/5588-Makati-Cir-95123/home/996416,MLSListings,ML81684734,N,Y,37.248398,-121.807418
PAST SALE,,Condo/Co-op,1055 N Capitol Ave Apt 45,San Jose,CA,95133,350000,1,1.0,,632,,1981,,554,,,,,http://www.redfin.com/CA/San-Jose/1055-N-Capitol-Ave-95133/unit-45/home/703403,,,N,Y,37.3835867,-121.8592423
PAST SALE,October-12-2017,Condo/Co-op,408 Dempsey Rd #108,MILPITAS,CA,95035,451000,2,1.0,MILPITAS,842,842,2007,110,536,345,Sold,,,http://www.redfin.com/CA/Milpitas/408-Dempsey-Rd-95035/unit-108/home/12179108,MLSListings,ML81675820,N,Y,37.4288028,-121.8843556
PAST SALE,,Single Family Residential,375 Orchard Ave,Sunnyvale,CA,94085,995000,2,1.0,,790,5200,1942,,1259,,,,,http://www.redfin.com/CA/Sunnyvale/375-Orchard-Ave-94085/home/1592487,,,N,Y,37.3872512,-122.0284409
PAST SALE,,Single Family Residential,1442 Sanborn Ave,San Jose,CA,95110,410000,1,1.0,,1077,5200,1919,,381,,,,,http://www.redfin.com/CA/San-Jose/1442-Sanborn-Ave-95110/home/843356,,,N,Y,37.3145204,-121.8747112
PAST SALE,,Single Family Residential,1158 Pine Ave,San Jose,CA,95125,865000,2,1.0,,1338,6000,1935,,646,,,,,http://www.redfin.com/CA/San-Jose/1158-Pine-Ave-95125/home/612682,,,N,Y,37.2974453,-121.8951183
PAST SALE,September-18-2017,Condo/Co-op,477 Carpentier Way,SAN JOSE,CA,95111,475000,3,1.0,SAN JOSE,941,1031,1982,134,505,272,Sold,,,http://www.redfin.com/CA/San-Jose/477-Carpentier-Way-95111/home/900665,MLSListings,ML81673521,N,Y,37.2900045,-121.8328067
PAST SALE,,Single Family Residential,326 Jackson St,Sunnyvale,CA,94085,1310000,3,1.0,,1119,6785,1948,,1171,,,,,http://www.redfin.com/CA/Sunnyvale/326-Jackson-St-94085/home/1355257,,,N,Y,37.3841241,-122.0241863
PAST SALE,October-16-2017,Single Family Residential,679 N 21st St,SAN JOSE,CA,95112,820000,2,1.0,SAN JOSE,1000,6250,1949,106,820,,Sold,,,http://www.redfin.com/CA/San-Jose/679-N-21st-St-95112/home/1563442,MLSListings,ML81676653,N,Y,37.3578978,-121.8801105
PAST SALE,August-16-2017,Single Family Residential,175 Hobson St,SAN JOSE,CA,95110,870000,3,1.0,SAN JOSE,1302,4500,1921,167,668,,Sold,,,http://www.redfin.com/CA/San-Jose/175-Hobson-St-95110/home/1454144,MLSListings,ML81669950,N,Y,37.3455319,-121.9014489
PAST SALE,August-15-2017,Condo/Co-op,259 N Capitol Ave #102,SAN JOSE,CA,95127,345000,1,1.0,SAN JOSE,777,777,1977,168,444,266,Sold,,,http://www.redfin.com/CA/San-Jose/259-N-Capitol-Ave-95127/unit-102/home/957957,MLSListings,ML81670601,N,Y,37.3686787,-121.8422041
PAST SALE,August-4-2017,Single Family Residential,475 E Middle Ave,SAN MARTIN,CA,95046,700000,3,1.0,SAN MARTIN,1100,39204,1961,179,636,,Sold,,,http://www.redfin.com/CA/San-Martin/475-E-Middle-Ave-95046/home/1654918,MLSListings,ML81667461,N,Y,37.103628,-121.6148545
PAST SALE,August-4-2017,Condo/Co-op,880 E Fremont Ave #214,SUNNYVALE,CA,94087,672000,1,1.0,SUNNYVALE,713,1391,1987,179,942,315,Sold,,,http://www.redfin.com/CA/Sunnyvale/880-E-Fremont-Ave-94087/unit-214/home/2123924,MLSListings,ML81667817,N,Y,37.35183,-122.015045
PAST SALE,August-25-2017,Single Family Residential,4388 Silva Ct,PALO ALTO,CA,94306,2400000,3,1.0,PALO ALTO,972,9288,1951,158,2469,,Sold,,,http://www.redfin.com/CA/Palo-Alto/4388-Silva-Ct-94306/home/2120564,MLSListings,ML81671064,N,Y,37.4077209,-122.1138095
PAST SALE,August-7-2017,Condo/Co-op,19 Comstock Queen Ct,MOUNTAIN VIEW,CA,94043,860000,2,1.0,MOUNTAIN VIEW,990,1872,1971,176,869,330,Sold,,,http://www.redfin.com/CA/Mountain-View/19-Comstock-Queen-Ct-94043/home/1072671,MLSListings,ML81655962,N,Y,37.403947,-122.078841
PAST SALE,January-3-2018,Mobile/Manufactured Home,433 Sylvan #144,MOUNTAIN VIEW,CA,94041,229000,2,1.0,MOUNTAIN VIEW,832,,2011,27,275,,Sold,,,http://www.redfin.com/CA/Mountain-View/433-Sylvan-Ave-94041/unit-144/home/41395936,MLSListings,ML81682669,N,Y,37.383185,-122.05941
PAST SALE,,Condo/Co-op,400 Ortega Ave Apt 202,Mountain View,CA,94040,685000,1,1.0,,763,,1975,,898,,,,,http://www.redfin.com/CA/Mountain-View/400-Ortega-Ave-94040/unit-202/home/2121052,,,N,Y,37.4000103,-122.1052618
PAST SALE,September-11-2017,Single Family Residential,818 Birch Ave,SUNNYVALE,CA,94086,1055000,3,1.0,SUNNYVALE,1009,5000,1944,141,1046,,Sold,,,http://www.redfin.com/CA/Sunnyvale/818-Birch-Ave-94086/home/1340764,MLSListings,ML81674958,N,Y,37.3779874,-122.0189104
PAST SALE,,Condo/Co-op,550 Ortega Ave Apt B432,Mountain View,CA,94040,460000,1,1.0,,811,,1992,,567,,,,,http://www.redfin.com/CA/Mountain-View/550-Ortega-Ave-94040/unit-B432/home/2121349,,,N,Y,37.399132,-122.1062035
PAST SALE,,Condo/Co-op,2255 Showers Dr Apt 194,Mountain View,CA,94040,750000,2,1.0,,789,,1999,,951,,,,,http://www.redfin.com/CA/Mountain-View/2255-Showers-Dr-94040/unit-194/home/2121476,,,N,Y,37.4072721,-122.1080943
PAST SALE,November-14-2017,Single Family Residential,858 Burgoyne St,MOUNTAIN VIEW,CA,94043,1660000,3,1.0,MOUNTAIN VIEW,877,6300,1951,77,1893,,Sold,,,http://www.redfin.com/CA/Mountain-View/858-Burgoyne-St-94043/home/708341,MLSListings,ML81681233,N,Y,37.4059681,-122.0862506
PAST SALE,September-26-2017,Condo/Co-op,8018 Pinot Noir Ct,SAN JOSE,CA,95135,398000,2,1.0,SAN JOSE,811,900,1974,126,491,582,Sold,,,http://www.redfin.com/CA/San-Jose/8018-Pinot-Noir-Ct-95135/home/960687,MLSListings,ML81639824,N,Y,37.287608,-121.75092
PAST SALE,November-10-2017,Single Family Residential,1250 Hoffman Ln,CAMPBELL,CA,95008,1050000,2,1.0,CAMPBELL,1136,12792,1964,81,924,,Sold,,,http://www.redfin.com/CA/Campbell/1250-Hoffman-Ln-95008/home/599225,MLSListings,ML81680893,N,Y,37.2686182,-121.9453434
PAST SALE,December-7-2017,Other,317 Sierra Vista Ave,MOUNTAIN VIEW,CA,94043,3350000,,,MOUNTAIN VIEW,,12972,,54,,,Sold,,,http://www.redfin.com/CA/Mountain-View/317-Sierra-Vista-Ave-94043/home/1666428,MLSListings,ML81674073,N,Y,37.405645,-122.090389
PAST SALE,December-13-2017,Condo/Co-op,2255 Showers Dr #197,MOUNTAIN VIEW,CA,94040,878888,2,1.0,MOUNTAIN VIEW,814,567,1999,48,1080,316,Sold,,,http://www.redfin.com/CA/Mountain-View/2255-Showers-Dr-94040/unit-197/home/12172184,MLSListings,ML81686070,N,Y,37.4072721,-122.1080943
PAST SALE,January-16-2018,Condo/Co-op,500 W Middlefield Rd #181,MOUNTAIN VIEW,CA,94043,750000,1,1.0,MOUNTAIN VIEW,720,2000,1971,14,1042,411,Sold,,,http://www.redfin.com/CA/Mountain-View/500-W-Middlefield-Rd-94043/unit-181/home/1622194,MLSListings,ML81684258,N,Y,37.401406825,-122.0702666
PAST SALE,January-5-2018,Single Family Residential,109 N Frances St,SUNNYVALE,CA,94086,1380000,2,1.0,SUNNYVALE,1176,6096,1926,25,1173,,Sold,,,http://www.redfin.com/CA/Sunnyvale/109-N-Frances-St-94086/home/1304017,MLSListings,ML81684154,N,Y,37.3792058,-122.0307658
PAST SALE,,Condo/Co-op,290 Stonegate Cir,San Jose,CA,95110,375000,1,1.0,,560,,1984,,670,,,,,http://www.redfin.com/CA/San-Jose/290-Stonegate-Cir-95110/home/844569,,,N,Y,37.312208,-121.879578
PAST SALE,November-2-2017,Condo/Co-op,505 Cypress Point Dr #26,MOUNTAIN VIEW,CA,94043,595000,1,1.0,MOUNTAIN VIEW,692,2000,1971,89,860,404,Sold,,,http://www.redfin.com/CA/Mountain-View/505-Cypress-Point-Dr-94043/unit-26/home/1274935,MLSListings,ML81678844,N,Y,37.39769,-122.072516
PAST SALE,August-17-2017,Single Family Residential,895 N 15th St,SAN JOSE,CA,95112,712000,2,1.0,SAN JOSE,1034,5375,1940,166,689,,Sold,,,http://www.redfin.com/CA/San-Jose/895-N-15th-St-95112/home/1681796,MLSListings,ML81669559,N,Y,37.3599024,-121.8892038
PAST SALE,January-12-2018,Single Family Residential,792 Penitencia St,MILPITAS,CA,95035,940000,3,1.0,MILPITAS,1068,6000,1962,18,880,,Sold,,,http://www.redfin.com/CA/Milpitas/792-Penitencia-St-95035/home/1373562,MLSListings,ML81686433,N,Y,37.4384533,-121.9138095
PAST SALE,August-14-2017,Condo/Co-op,2601 Cortez Dr #5208,SANTA CLARA,CA,95051,485970,2,1.0,SANTA CLARA,712,696,1972,169,683,292,Sold,,,http://www.redfin.com/CA/Santa-Clara/2601-Cortez-Dr-95051/unit-5208/home/12179675,MLSListings,ML81669453,N,Y,37.3689759,-121.9747983
PAST SALE,October-31-2017,Condo/Co-op,500 W Middlefield Rd #144,MOUNTAIN VIEW,CA,94043,711000,1,1.0,MOUNTAIN VIEW,752,2000,1971,91,945,415,Sold,,,http://www.redfin.com/CA/Mountain-View/500-W-Middlefield-Rd-94043/unit-144/home/1091562,MLSListings,ML81677678,N,Y,37.401406825,-122.0702666
PAST SALE,,Single Family Residential,14331 Browns Ln,Los Gatos,CA,95032,850000,2,1.0,,816,9523,1948,,1042,,,,,http://www.redfin.com/CA/Los-Gatos/14331-Browns-Ln-95032/home/821385,,,N,Y,37.2603076,-121.9721681
PAST SALE,,Condo/Co-op,980 Kiely Blvd Unit 118,Santa Clara,CA,95051,390500,1,1.0,,622,,1971,,628,,,,,http://www.redfin.com/CA/Santa-Clara/980-Kiely-Blvd-95051/unit-118/home/1306253,,,N,Y,37.343308,-121.980085
PAST SALE,November-16-2017,Single Family Residential,2726 Benton St,SANTA CLARA,CA,95051,1160000,3,1.0,SANTA CLARA,900,5355,1956,75,1289,,Sold,,,http://www.redfin.com/CA/Santa-Clara/2726-Benton-St-95051/home/734186,MLSListings,ML81681099,N,Y,37.3460124,-121.9760883
PAST SALE,November-27-2017,Single Family Residential,3149 Agate Dr,SANTA CLARA,CA,95051,1035000,3,1.0,SANTA CLARA,897,7150,1955,64,1154,,Sold,,,http://www.redfin.com/CA/Santa-Clara/3149-Agate-Dr-95051/home/1328287,MLSListings,ML81682033,N,Y,37.3701533,-121.9843494
PAST SALE,,Condo/Co-op,599 Groth Dr,San Jose,CA,95111,350000,2,1.0,,762,,1982,,459,,,,,http://www.redfin.com/CA/San-Jose/599-Groth-Dr-95111/home/899532,,,N,Y,37.2911349,-121.831555
PAST SALE,January-18-2018,Single Family Residential,183 N Sunnyvale Ave,SUNNYVALE,CA,94086,1300000,2,1.0,SUNNYVALE,1112,7005,1915,12,1169,,Sold,,,http://www.redfin.com/CA/Sunnyvale/183-N-Sunnyvale-Ave-94086/home/1786055,MLSListings,ML81686350,N,Y,37.3801402,-122.0279696
PAST SALE,December-29-2017,Condo/Co-op,984 Kiely Blvd Unit F,SANTA CLARA,CA,95051,630000,2,1.0,SANTA CLARA,882,924,1971,32,714,475,Sold,,,http://www.redfin.com/CA/Santa-Clara/984-Kiely-Blvd-95051/unit-F/home/1335643,MLSListings,ML81684721,N,Y,37.343639,-121.978637
PAST SALE,January-18-2018,Single Family Residential,557 Kirk Ave,SUNNYVALE,CA,94085,1250000,3,1.0,SUNNYVALE,1260,5019,1950,12,992,,Sold,,,http://www.redfin.com/CA/Sunnyvale/557-Kirk-Ave-94085/home/608340,MLSListings,ML81687303,N,Y,37.3887416,-122.023983
PAST SALE,September-29-2017,Condo/Co-op,6906 Chantel Ct,SAN JOSE,CA,95129,569000,1,1.0,SAN JOSE,582,,1987,123,978,310,Sold,,,http://www.redfin.com/CA/San-Jose/6906-Chantel-Ct-95129/home/792838,MLSListings,ML81669363,N,Y,37.2979619,-122.0307364
PAST SALE,January-19-2018,Single Family Residential,21551 Mary Alice Way,LOS GATOS,CA,95033,780000,3,1.0,LOS GATOS,1060,11409,1934,11,736,89,Sold,,,http://www.redfin.com/CA/Los-Gatos/21551-Mary-Alice-Way-95033/home/12177260,MLSListings,ML81689637,N,Y,37.155005,-121.986135
PAST SALE,December-26-2017,Condo/Co-op,95 Church St #2104,LOS GATOS,CA,95030,895000,1,1.0,LOS GATOS,1059,2100,1981,35,845,567,Sold,,,http://www.redfin.com/CA/Los-Gatos/95-Church-St-95030/unit-2104/home/864086,MLSListings,ML81675982,N,Y,37.2223445,-121.9792825
PAST SALE,December-22-2017,Single Family Residential,15891 Ravine Rd,LOS GATOS,CA,95030,2400000,1,1.0,LOS GATOS,2702,61419,1940,39,888,,Sold,,,http://www.redfin.com/CA/Los-Gatos/15891-Ravine-Rd-95030/home/555282,MLSListings,ML81684918,N,Y,37.2371883,-122.0113392
PAST SALE,November-3-2017,Condo/Co-op,1395 McQuesten Dr Unit D,San Jose,CA,95122,395000,2,1.0,San Jose,876,,1980,88,451,331,Sold,,,http://www.redfin.com/CA/San-Jose/1395-McQuesten-Dr-95122/unit-D/home/1038415,San Francisco MLS,463811,N,Y,37.330548,-121.846112
PAST SALE,,Single Family Residential,1067 Mango Ave,Sunnyvale,CA,94087,1600000,3,1.0,,1161,6000,1953,,1378,,,,,http://www.redfin.com/CA/Sunnyvale/1067-Mango-Ave-94087/home/1355107,,,N,Y,37.3604686,-122.0543118
PAST SALE,August-18-2017,Condo/Co-op,6037 Montgomery Cors,SAN JOSE,CA,95135,385000,1,1.0,SAN JOSE,650,650,1972,165,592,520,Sold,,,http://www.redfin.com/CA/San-Jose/6037-Montgomery-Cor-95135/home/1240125,MLSListings,ML81648110,N,Y,37.2880762,-121.7563621
PAST SALE,,Condo/Co-op,505 Cypress Point Dr Unit 57,Mountain View,CA,94043,450000,1,1.0,,662,,1971,,680,,,,,http://www.redfin.com/CA/Mountain-View/505-Cypress-Point-Dr-94043/unit-57/home/623172,,,N,Y,37.39769,-122.072516
PAST SALE,,Single Family Residential,355 Bishop Ave,Sunnyvale,CA,94086,1200000,2,1.0,,1248,6993,1952,,962,,,,,http://www.redfin.com/CA/Sunnyvale/355-Bishop-Ave-94086/home/666877,,,N,Y,37.3700579,-122.0290333
PAST SALE,October-13-2017,Condo/Co-op,1031 Crestview Dr #218,MOUNTAIN VIEW,CA,94040,630000,1,1.0,MOUNTAIN VIEW,855,1332,1969,109,737,425,Sold,,,http://www.redfin.com/CA/Mountain-View/1031-Crestview-Dr-94040/unit-218/home/1281246,MLSListings,ML81675266,N,Y,37.3737079,-122.059551
PAST SALE,,Single Family Residential,328 Flora Vista Ave,Sunnyvale,CA,94086,950000,2,1.0,,723,4305,1952,,1314,,,,,http://www.redfin.com/CA/Sunnyvale/328-Flora-Vista-Ave-94086/home/1462823,,,N,Y,37.3728601,-122.0279203
PAST SALE,,Single Family Residential,552 Crawford Dr,Sunnyvale,CA,94087,1724000,3,1.0,,1125,9825,1953,,1532,,,,,http://www.redfin.com/CA/Sunnyvale/552-Crawford-Dr-94087/home/1094430,,,N,Y,37.3628773,-122.034065
PAST SALE,August-23-2017,Single Family Residential,205 Wilton Ave,PALO ALTO,CA,94306,1826000,2,1.0,PALO ALTO,1000,7140,1942,160,1826,,Sold,,,http://www.redfin.com/CA/Palo-Alto/205-Wilton-Ave-94306/home/563191,MLSListings,ML81670681,N,Y,37.4210181,-122.1302294
PAST SALE,October-5-2017,Single Family Residential,748 Encina Grande Dr,PALO ALTO,CA,94306,2450000,2,1.0,PALO ALTO,1007,6780,1949,117,2433,,Sold,,,http://www.redfin.com/CA/Palo-Alto/748-Encina-Grande-Dr-94306/home/605867,MLSListings,ML81676787,Y,Y,37.4119613,-122.1304521
PAST SALE,,Single Family Residential,262 Whitclem Dr,Palo Alto,CA,94306,1812000,3,1.0,,1066,6400,1951,,1700,,,,,http://www.redfin.com/CA/Palo-Alto/262-Whitclem-Dr-94306/home/2120652,,,N,Y,37.4119466,-122.1173532
PAST SALE,December-4-2017,Condo/Co-op,505 Cypress Point Dr #280,MOUNTAIN VIEW,CA,94041,685000,1,1.0,MOUNTAIN VIEW,784,2000,1971,57,874,434,Sold,,,http://www.redfin.com/CA/Mountain-View/505-Cypress-Point-Dr-94043/unit-280/home/1798174,MLSListings,ML81683563,N,Y,37.39769,-122.072516
PAST SALE,December-7-2017,Condo/Co-op,2200 Agnew Rd #108,Santa Clara,CA,95054,540000,1,1.0,Santa Clara,816,1648,1982,54,662,525,Sold,,,http://www.redfin.com/CA/Santa-Clara/2200-Agnew-Rd-95054/unit-108/home/582839,EBRD/CCAR/Bay East,40801975,N,Y,37.3923133,-121.9635812
PAST SALE,December-27-2017,Condo/Co-op,500 W Middlefield Rd #100,MOUNTAIN VIEW,CA,94043,760000,1,1.0,MOUNTAIN VIEW,740,796,1971,34,1027,422,Sold,,,http://www.redfin.com/CA/Mountain-View/500-W-Middlefield-Rd-94043/unit-100/home/934701,MLSListings,ML81685646,N,Y,37.399578,-122.0708945
PAST SALE,,Single Family Residential,2924 Bewcastle Ct,San Jose,CA,95132,985000,3,1.0,,960,6000,1970,,1026,,,,,http://www.redfin.com/CA/San-Jose/2924-Bewcastle-Ct-95132/home/976883,,,N,Y,37.4059391,-121.8707307
PAST SALE,,Condo/Co-op,125 Connemara Way Apt 59,Sunnyvale,CA,94087,740000,2,1.0,,900,,1971,,822,,,,,http://www.redfin.com/CA/Sunnyvale/125-Connemara-Way-94087/unit-59/home/1140046,,,N,Y,37.3471379,-122.0318218
PAST SALE,,Single Family Residential,473 N 20th St,San Jose,CA,95112,145000,2,1.0,,840,5500,1949,,173,,,,,http://www.redfin.com/CA/San-Jose/473-N-20th-St-95112/home/1775329,,,N,Y,37.35313,-121.877858
PAST SALE,December-12-2017,Condo/Co-op,500 W Middlefield Rd #81,MOUNTAIN VIEW,CA,94043,645000,1,1.0,MOUNTAIN VIEW,564,2000,1971,49,1144,385,Sold,,,http://www.redfin.com/CA/Mountain-View/500-W-Middlefield-Rd-94043/unit-81/home/1591441,MLSListings,ML81683457,N,Y,37.401406825,-122.0702666
PAST SALE,January-16-2018,Single Family Residential,1344 Davis St,SAN JOSE,CA,95126,860000,3,1.0,SAN JOSE,1452,5650,1905,14,592,,Sold,,,http://www.redfin.com/CA/San-Jose/1344-Davis-St-95126/home/682853,MLSListings,ML81684416,N,Y,37.3394533,-121.9290535
PAST SALE,December-12-2017,Single Family Residential,1447 Las Palmas Dr,SANTA CLARA,CA,95051,1200900,3,1.0,SANTA CLARA,1354,6000,1952,49,887,,Sold,,,http://www.redfin.com/CA/Santa-Clara/1447-Las-Palmas-Dr-95051/home/1791201,MLSListings,ML81683328,N,Y,37.3509819,-121.9698885
PAST SALE,August-18-2017,Single Family Residential,779 S Jackson Ave,SAN JOSE,CA,95116,640000,4,1.0,SAN JOSE,1561,5400,1961,165,410,,Sold,,,http://www.redfin.com/CA/San-Jose/779-S-Jackson-Ave-95116/home/957783,MLSListings,ML81668725,N,Y,37.3499545,-121.8358373
PAST SALE,,Single Family Residential,1723 Terilyn Ave,San Jose,CA,95122,227000,3,1.0,,960,5000,1959,,236,,,,,http://www.redfin.com/CA/San-Jose/1723-Terilyn-Ave-95122/home/1755724,,,N,Y,37.329131,-121.8399892
PAST SALE,,Single Family Residential,1734 Castlebrook Ct,San Jose,CA,95133,165500,3,1.0,,900,5600,1955,,184,,,,,http://www.redfin.com/CA/San-Jose/1734-Castlebrook-Ct-95133/home/699311,,,N,Y,37.3614965,-121.8630827
PAST SALE,November-29-2017,Condo/Co-op,2164 Galveston Ave Unit B,SAN JOSE,CA,95122,482500,2,1.0,SAN JOSE,885,1012,1979,62,545,325,Sold,,,http://www.redfin.com/CA/San-Jose/2164-Galveston-Ave-95122/unit-B/home/879895,MLSListings,ML81680474,N,Y,37.313995,-121.844384
PAST SALE,November-30-2017,Condo/Co-op,18909 Sara Park Cir,SARATOGA,CA,95070,660000,1,1.0,SARATOGA,628,868,1980,61,1051,269,Sold,,,http://www.redfin.com/CA/Saratoga/18909-Sara-Park-Cir-95070/home/806674,MLSListings,ML81681834,N,Y,37.282804,-121.999507
PAST SALE,September-27-2017,Condo/Co-op,1359 Phelps Ave #11,SAN JOSE,CA,95117,475000,2,1.0,SAN JOSE,840,840,1963,125,565,287,Sold,,,http://www.redfin.com/CA/San-Jose/1359-Phelps-Ave-95117/unit-11/home/754952,MLSListings,ML81668668,N,Y,37.299867,-121.961933
PAST SALE,October-13-2017,Condo/Co-op,1435 Alma Loop,SAN JOSE,CA,95125,451000,1,1.0,SAN JOSE,784,,1984,109,575,320,Sold,,,http://www.redfin.com/CA/San-Jose/1435-Alma-Loop-95125/home/844521,MLSListings,ML81676771,N,Y,37.3088415,-121.8867301
PAST SALE,August-4-2017,Condo/Co-op,400 Shadow Run Dr,SAN JOSE,CA,95110,440000,1,1.0,SAN JOSE,621,765,1987,179,709,282,Sold,,,http://www.redfin.com/CA/San-Jose/400-Shadow-Run-Dr-95110/home/1862027,MLSListings,ML81668870,N,Y,37.3102886,-121.8810438
PAST SALE,,Single Family Residential,1398 Hampton Dr,Sunnyvale,CA,94087,1200000,3,1.0,,1014,7060,1950,,1183,,,,,http://www.redfin.com/CA/Sunnyvale/1398-Hampton-Dr-94087/home/829157,,,N,Y,37.348418,-122.0129081
PAST SALE,August-21-2017,Condo/Co-op,1903 Miraplaza Ct #15,SANTA CLARA,CA,95051,767000,2,1.0,SANTA CLARA,920,,1986,162,834,352,Sold,,,http://www.redfin.com/CA/Santa-Clara/1903-Miraplaza-Ct-95051/unit-15/home/1789405,MLSListings,ML81672589,N,Y,37.357434,-121.998213
PAST SALE,August-28-2017,Condo/Co-op,1750 Halford Ave #206,SANTA CLARA,CA,95051,435000,1,1.0,SANTA CLARA,678,1554,1970,155,642,473,Sold,,,http://www.redfin.com/CA/Santa-Clara/1750-Halford-Ave-95051/unit-206/home/1058409,MLSListings,ML81672957,N,Y,37.3557149,-121.998715
PAST SALE,,Condo/Co-op,880 E Fremont Ave Apt 413,Sunnyvale,CA,94087,156500,1,1.0,,733,,1987,,214,,,,,http://www.redfin.com/CA/Sunnyvale/880-E-Fremont-Ave-94087/unit-413/home/2122568,,,N,Y,37.35183,-122.015045
PAST SALE,October-26-2017,Single Family Residential,1436 Hampton Dr,SUNNYVALE,CA,94087,1550000,2,1.0,SUNNYVALE,827,7068,1950,96,1874,,Sold,,,http://www.redfin.com/CA/Sunnyvale/1436-Hampton-Dr-94087/home/1604597,MLSListings,ML81681605,Y,Y,37.3473493,-122.0129489
PAST SALE,August-3-2017,Condo/Co-op,505 Cypress Point Dr #237,MOUNTAIN VIEW,CA,94043,600000,1,1.0,MOUNTAIN VIEW,784,2000,1971,180,765,411,Sold,,,http://www.redfin.com/CA/Mountain-View/505-Cypress-Point-Dr-94043/unit-237/home/1280505,MLSListings,ML81668091,N,Y,37.39769,-122.072516
PAST SALE,November-3-2017,Condo/Co-op,1902 Miraplaza Ct #25,SANTA CLARA,CA,95051,781000,2,1.0,SANTA CLARA,920,,1986,88,849,375,Sold,,,http://www.redfin.com/CA/Santa-Clara/1902-Miraplaza-Ct-95051/unit-25/home/690052,MLSListings,ML81679749,N,Y,37.3575299,-121.998603
PAST SALE,November-7-2017,Single Family Residential,1871 Saint Lawrence Dr,SANTA CLARA,CA,95051,1250000,3,1.0,SANTA CLARA,1068,5300,1954,84,1170,,Sold,,,http://www.redfin.com/CA/Santa-Clara/1871-Saint-Lawrence-Dr-95051/home/675313,MLSListings,ML81680404,N,Y,37.3566886,-121.9909974
PAST SALE,August-9-2017,Condo/Co-op,505 Cypress Point Dr #249,MOUNTAIN VIEW,CA,94043,595000,1,1.0,MOUNTAIN VIEW,784,2000,1971,174,759,411,Sold,,,http://www.redfin.com/CA/Mountain-View/505-Cypress-Point-Dr-94043/unit-249/home/1070457,MLSListings,ML81657039,N,Y,37.39769,-122.072516
PAST SALE,September-29-2017,Condo/Co-op,425 Navaro Way #222,SAN JOSE,CA,95134,650000,1,1.0,SAN JOSE,950,,1991,123,684,255,Sold,,,http://www.redfin.com/CA/San-Jose/425-Navaro-Way-95134/unit-222/home/1055962,MLSListings,ML81676027,N,Y,37.4005368,-121.9225863
PAST SALE,November-15-2017,Condo/Co-op,1019 Foxchase Dr,SAN JOSE,CA,95123,550000,1,1.0,SAN JOSE,916,,1983,76,600,458,Sold,,,http://www.redfin.com/CA/San-Jose/1019-Foxchase-Dr-95123/home/863038,MLSListings,ML81680495,N,Y,37.252724,-121.874617
PAST SALE,,Single Family Residential,3803 Arbuckle Dr,San Jose,CA,95124,950000,3,1.0,,1102,6400,1958,,862,,,,,http://www.redfin.com/CA/San-Jose/3803-Arbuckle-Dr-95124/home/1098504,,,N,Y,37.2599126,-121.9215157
PAST SALE,October-31-2017,Condo/Co-op,63 Monte Verano Ct,SAN JOSE,CA,95116,342000,1,1.0,SAN JOSE,597,1810,1988,91,573,333,Sold,,,http://www.redfin.com/CA/San-Jose/63-Monte-Verano-Ct-95116/home/2125651,MLSListings,ML81680550,N,Y,37.361083,-121.839999
PAST SALE,,Single Family Residential,220 Carroll St,Sunnyvale,CA,94086,2100000,2,1.0,,1180,12700,1930,,1780,,,,,http://www.redfin.com/CA/Sunnyvale/220-Carroll-St-94086/home/1464180,,,N,Y,37.37503,-122.027906
PAST SALE,August-4-2017,Condo/Co-op,505 Cypress Point Dr #177,MOUNTAIN VIEW,CA,94043,680000,1,1.0,MOUNTAIN VIEW,784,2000,1971,179,867,411,Sold,,,http://www.redfin.com/CA/Mountain-View/505-Cypress-Point-Dr-94043/unit-177/home/563911,MLSListings,ML81655088,N,Y,37.39769,-122.072516
PAST SALE,October-20-2017,Single Family Residential,523 Carroll St,SUNNYVALE,CA,94086,1730000,3,1.0,SUNNYVALE,1264,7975,1953,102,1369,,Sold,,,http://www.redfin.com/CA/Sunnyvale/523-Carroll-St-94086/home/1500684,MLSListings,ML81678620,N,Y,37.3699471,-122.0304222
PAST SALE,September-29-2017,Single Family Residential,375 N 6th St,SAN JOSE,CA,95112,825000,3,1.0,SAN JOSE,1328,6900,1901,123,621,,Sold,,,http://www.redfin.com/CA/San-Jose/375-N-6th-St-95112/home/696575,MLSListings,ML81671481,N,Y,37.3444824,-121.8898958
PAST SALE,December-5-2017,Townhouse,151 Heritage Pl,CAMPBELL,CA,95008,900000,2,1.0,CAMPBELL,1136,1721,2004,56,792,215,Sold,,,http://www.redfin.com/CA/Campbell/151-Heritage-Pl-95008/home/910006,MLSListings,ML81683445,N,Y,37.2858203,-121.9409913
PAST SALE,,Single Family Residential,576 Borregas Ave,Sunnyvale,CA,94085,1220000,3,1.0,,913,5564,1949,,1336,,,,,http://www.redfin.com/CA/Sunnyvale/576-Borregas-Ave-94085/home/821986,,,N,Y,37.3897221,-122.0250237
PAST SALE,August-18-2017,Single Family Residential,569 Waite Ave,SUNNYVALE,CA,94085,1120000,3,1.0,SUNNYVALE,913,5564,1949,165,1227,,Sold,,,http://www.redfin.com/CA/Sunnyvale/569-Waite-Ave-94085/home/827469,MLSListings,ML81670520,N,Y,37.3893539,-122.024689
PAST SALE,December-15-2017,Condo/Co-op,6131 Montgomery Ct,SAN JOSE,CA,95135,535000,2,1.0,SAN JOSE,1127,2430,1973,46,475,631,Sold,,,http://www.redfin.com/CA/San-Jose/6131-Montgomery-Ct-95135/home/891525,MLSListings,ML81683691,N,Y,37.287253,-121.75569
PAST SALE,,Single Family Residential,760 Madrone Ave,Sunnyvale,CA,94085,192000,3,1.0,,1027,5000,1953,,187,,,,,http://www.redfin.com/CA/Sunnyvale/760-Madrone-Ave-94085/home/654946,,,N,Y,37.3957677,-122.0248201
PAST SALE,September-15-2017,Condo/Co-op,500 W Middlefield Rd #6,MOUNTAIN VIEW,CA,94043,705000,1,1.0,MOUNTAIN VIEW,752,2000,1971,137,938,416,Sold,,,http://www.redfin.com/CA/Mountain-View/500-W-Middlefield-Rd-94043/unit-6/home/1427118,MLSListings,ML81672901,N,Y,37.399578,-122.0708945
PAST SALE,September-27-2017,Townhouse,10961 Northsky Sq,CUPERTINO,CA,95014,943888,1,1.0,CUPERTINO,1062,1680,1973,125,889,352,Sold,,,http://www.redfin.com/CA/Cupertino/10961-Northsky-Sq-95014/home/1754602,MLSListings,ML81656496,N,Y,37.336821,-122.026581
PAST SALE,,Single Family Residential,1324 Orlando Dr,San Jose,CA,95122,247500,3,1.0,,960,5871,1959,,258,,,,,http://www.redfin.com/CA/San-Jose/1324-Orlando-Dr-95122/home/1441836,,,N,Y,37.3373838,-121.8391397
PAST SALE,October-11-2017,Condo/Co-op,505 Cypress Point Dr #54,MOUNTAIN VIEW,CA,94043,800000,2,1.0,MOUNTAIN VIEW,843,2000,1971,111,949,403,Sold,,,http://www.redfin.com/CA/Mountain-View/505-Cypress-Point-Dr-94043/unit-54/home/623156,MLSListings,ML81677639,N,Y,37.39769,-122.072516
PAST SALE,,Single Family Residential,10405 Calvert Dr,Cupertino,CA,95014,425000,2,1.0,,814,4947,1952,,522,,,,,http://www.redfin.com/CA/Cupertino/10405-Calvert-Dr-95014/home/1192562,,,N,Y,37.3170433,-122.0001372
PAST SALE,October-17-2017,Condo/Co-op,505 Cypress Point Dr #70,MOUNTAIN VIEW,CA,94043,770000,2,1.0,MOUNTAIN VIEW,843,2000,1971,105,913,403,Sold,,,http://www.redfin.com/CA/Mountain-View/505-Cypress-Point-Dr-94043/unit-70/home/1339645,MLSListings,ML81676878,N,Y,37.39769,-122.072516
PAST SALE,October-20-2017,Condo/Co-op,505 Cypress Point Dr #85,MOUNTAIN VIEW,CA,94043,635000,1,1.0,MOUNTAIN VIEW,662,2000,1971,102,959,385,Sold,,,http://www.redfin.com/CA/Mountain-View/505-Cypress-Point-Dr-94043/unit-85/home/1309489,MLSListings,ML81676754,N,Y,37.39769,-122.072516
PAST SALE,October-31-2017,Condo/Co-op,505 Cypress Point Dr #302,MOUNTAIN VIEW,CA,94043,620000,1,1.0,MOUNTAIN VIEW,658,2000,1971,91,942,349,Sold,,,http://www.redfin.com/CA/Mountain-View/505-Cypress-Point-Dr-94043/unit-302/home/1772141,MLSListings,ML81677869,N,Y,37.39769,-122.072516
PAST SALE,October-6-2017,Condo/Co-op,2200 Agnew Rd #209,SANTA CLARA,CA,95054,493000,1,1.0,SANTA CLARA,816,1648,1982,116,604,526,Sold,,,http://www.redfin.com/CA/Santa-Clara/2200-Agnew-Rd-95054/unit-209/home/581556,MLSListings,ML81676864,N,Y,37.3923133,-121.9635812
PAST SALE,,Condo/Co-op,1883 Agnew Rd Unit 418,Santa Clara,CA,95054,260000,1,1.0,,870,,2006,,299,,,,,http://www.redfin.com/CA/Santa-Clara/1883-Agnew-Rd-95054/unit-418/home/12181817,,,N,Y,37.3959733,-121.9584212
