SALE TYPE,SOLD DATE,PROPERTY TYPE,ADDRESS,CITY,STATE,ZIP,PRICE,BEDS,BATHS,LOCATION,SQUARE FEET,LOT SIZE,YEAR BUILT,DAYS ON MARKET,$/SQUARE FEET,HOA/MONTH,STATUS,NEXT OPEN HOUSE START TIME,NEXT OPEN HOUSE END TIME,URL (SEE http://www.redfin.com/buy-a-home/comparative-market-analysis FOR INFO ON PRICING),SOURCE,MLS#,FAVORITE,INTERESTED,LATITUDE,LONGITUDE
PAST SALE,,Condo/Co-op,855 Folsom St Apt 502,San Francisco,CA,94107,286000,1,1.0,,722,,2001,,396,,,,,http://www.redfin.com/CA/San-Francisco/855-Folsom-St-94107/unit-502/home/12398151,,,N,Y,37.7807737,-122.4021633
PAST SALE,March-3-2017,Multi-Family (2-4 Unit),1309 Hayes St,San Francisco,CA,94117,2300000,8,3.0,North Panhandle,4340,3436,1900,333,530,,Sold,,,http://www.redfin.com/CA/San-Francisco/1309-Hayes-St-94117/home/1676338,San Francisco MLS,453687,N,Y,37.7747126,-122.4383788
PAST SALE,March-15-2017,Condo/Co-op,1811 Turk St #302,San Francisco,CA,94115,1850000,2,2.0,North Panhandle,1599,,2017,321,1157,621,Sold,,,http://www.redfin.com/CA/San-Francisco/1811-Turk-St-94115/unit-302/home/113105845,San Francisco MLS,454660,N,Y,37.7793533,-122.4393342
PAST SALE,,Condo/Co-op,260 King St Unit 741,San Francisco,CA,94107,745000,1,1.0,,854,,2004,,872,,,,,http://www.redfin.com/CA/San-Francisco/260-King-St-94107/unit-741/home/12331133,,,N,Y,37.7780619,-122.3943601
PAST SALE,,Condo/Co-op,83 6th Ave,San Francisco,CA,94118,1550000,3,2.0,,1578,,1908,,982,,,,,http://www.redfin.com/CA/San-Francisco/83-6th-Ave-94118/home/17491078,,,N,Y,37.7870163,-122.4649981
PAST SALE,February-17-2017,Condo/Co-op,440 Locust St,San Francisco,CA,94118,1625000,2,2.5,Presidio Heights,1396,,2001,347,1164,624,Sold,,,http://www.redfin.com/CA/San-Francisco/440-Locust-St-94118/home/2022857,San Francisco MLS,453532,N,Y,37.787112,-122.451497
PAST SALE,,Multi-Family (5+ Unit),338 Main St Unit D27A,San Francisco,CA,94105,2300000,2,2.0,,1572,,2016,,1463,,,,,http://www.redfin.com/CA/San-Francisco/338-Main-St-94105/unit-D27A/home/110052599,,,N,Y,37.7888208,-122.3912963
PAST SALE,March-14-2017,Condo/Co-op,201 Folsom St Unit 18D,San Francisco,CA,94105,1235000,1,1.0,South Beach,880,,2017,322,1403,994,Sold,,,http://www.redfin.com/CA/San-Francisco/201-Folsom-St-94105/unit-18D/home/112846166,San Francisco MLS,453294,N,Y,37.7886997,-122.39226
PAST SALE,February-6-2017,Condo/Co-op,1688 Pine St Unit EPH04,San Francisco,CA,94109,969000,1,1.0,Van Ness/Civic Center,616,,2016,358,1573,635,Sold,,,http://www.redfin.com/CA/San-Francisco/1688-Pine-St-94109/unit-EPH04/home/108189044,San Francisco MLS,453137,N,Y,37.7895441,-122.4235215
PAST SALE,February-2-2017,Condo/Co-op,338 Potrero Ave #309,San Francisco,CA,94103,1002000,2,2.0,Inner Mission,,,2016,362,,703,Sold,,,http://www.redfin.com/CA/San-Francisco/338-Potrero-Ave-94103/unit-309/home/109233785,San Francisco MLS,451225,N,Y,37.7651466,-122.4078174
PAST SALE,March-15-2017,Single Family Residential,454 32nd Ave,San Francisco,CA,94121,1628000,4,3.5,Central Richmond,1968,3000,1924,321,827,,Sold,,,http://www.redfin.com/CA/San-Francisco/454-32nd-Ave-94121/home/1324284,San Francisco MLS,451155,Y,Y,37.7806491,-122.4920765
PAST SALE,February-28-2017,Single Family Residential,360 Valdez Ave,San Francisco,CA,94127,1900000,4,3.0,Westwood Highlands,,3746,1926,336,,4,Sold,,,http://www.redfin.com/CA/San-Francisco/360-Valdez-Ave-94127/home/1509999,San Francisco MLS,453999,N,Y,37.7333861,-122.4565496
PAST SALE,February-23-2017,Condo/Co-op,2595 Clay St #1,San Francisco,CA,94115,1240800,2,1.0,Pacific Heights,990,,1924,341,1253,464,Sold,,,http://www.redfin.com/CA/San-Francisco/2595-Clay-St-94115/unit-1/home/1865862,San Francisco MLS,454326,N,Y,37.7904173,-122.4355633
PAST SALE,,Single Family Residential,483 Valley St,San Francisco,CA,94131,3125000,2,1.0,,679,2779,1908,,4602,,,,,http://www.redfin.com/CA/San-Francisco/483-Valley-St-94131/home/1961794,,,N,Y,37.7440088,-122.4329335
PAST SALE,February-9-2017,Single Family Residential,712 Brazil Ave,San Francisco,CA,94112,710000,4,2.0,Excelsior,1350,2500,1900,355,526,,Sold,,,http://www.redfin.com/CA/San-Francisco/712-Brazil-Ave-94112/home/1336367,San Francisco MLS,448727,N,Y,37.7218044,-122.4290801
PAST SALE,,Townhouse,550 Davis St Unit 16,San Francisco,CA,94111,950000,2,3.0,,1602,1603,1981,,593,,,,,http://www.redfin.com/CA/San-Francisco/550-Davis-St-94111/unit-16/home/1586359,,,N,Y,37.7974207,-122.3981644
PAST SALE,February-3-2017,Multi-Family (2-4 Unit),1944-1946 Clement St,San Francisco,CA,94121,1627000,,,Central Richmond,3500,2500,,361,465,,Sold,,,http://www.redfin.com/CA/San-Francisco/1946-Clement-St-94121/home/109837092,San Francisco MLS,452557,N,Y,37.7822411,-122.480368
PAST SALE,,Single Family Residential,668 23rd Ave,San Francisco,CA,94121,2025000,4,3.0,,2400,2996,1922,,844,,,,,http://www.redfin.com/CA/San-Francisco/668-23rd-Ave-94121/home/618894,,,N,Y,37.7751792,-122.4820279
PAST SALE,February-17-2017,Condo/Co-op,631 Folsom St Unit 6C,San Francisco,CA,94107,1105000,2,2.0,Yerba Buena,1054,,2009,347,1048,794,Sold,,,http://www.redfin.com/CA/San-Francisco/631-Folsom-St-94107/unit-6C/home/21965628,San Francisco MLS,453846,N,Y,37.7848177,-122.3969577
PAST SALE,February-14-2017,Condo/Co-op,300 Ivy St #500,San Francisco,CA,94102,1480000,2,2.0,Hayes Valley,1075,,2014,350,1377,610,Sold,,,http://www.redfin.com/CA/San-Francisco/300-Ivy-St-94102/unit-500/home/52861692,San Francisco MLS,453803,N,Y,37.7774382,-122.42343
PAST SALE,March-9-2017,Single Family Residential,657 Cambridge St,San Francisco,CA,94134,1300000,3,2.0,Portola,1573,3000,1984,327,826,,Sold,,,http://www.redfin.com/CA/San-Francisco/657-Cambridge-St-94134/home/775776,San Francisco MLS,449083,N,Y,37.7233822,-122.4169116
PAST SALE,,Multi-Family (5+ Unit),1636 Powell St #1656,San Francisco,CA,94133,2080000,,28.0,,22060,18800,1914,,94,,,,,http://www.redfin.com/CA/San-Francisco/1636-Powell-St-94133/unit-1656/home/1941363,,,N,Y,37.7998921,-122.4103979
PAST SALE,March-1-2017,Multi-Family (5+ Unit),3001-3003 25th St,San Francisco,CA,94110,1745000,4,,Inner Mission,2790,2996,1900,335,625,,Sold,,,http://www.redfin.com/CA/San-Francisco/3003-25th-St-94110/home/736857,San Francisco MLS,451416,N,Y,37.7510456,-122.4101015
PAST SALE,February-28-2017,Condo/Co-op,4057 23rd St,San Francisco,CA,94114,1652000,2,3.0,Noe Valley,1553,,1906,336,1064,256,Sold,,,http://www.redfin.com/CA/San-Francisco/4057-23rd-St-94114/home/12353043,San Francisco MLS,454286,N,Y,37.7527796,-122.433249
PAST SALE,February-13-2017,Condo/Co-op,1821 Grant Ave #201,San Francisco,CA,94133,1275000,2,2.0,Telegraph Hill,1350,,1975,351,944,400,Sold,,,http://www.redfin.com/CA/San-Francisco/1821-Grant-Ave-94133/unit-201/home/1864994,San Francisco MLS,453767,N,Y,37.8037589,-122.4084883
PAST SALE,February-28-2017,Condo/Co-op,724 Tennessee St,San Francisco,CA,94107,1225000,3,1.0,Central Waterfront,1152,,1900,336,1063,125,Sold,,,http://www.redfin.com/CA/San-Francisco/724-Tennessee-St-94107/home/52059313,San Francisco MLS,453468,N,Y,37.7625798,-122.3899567
PAST SALE,February-16-2017,Condo/Co-op,1754 Larkin St #5,San Francisco,CA,94109,790000,1,1.0,Nob Hill,,,1910,348,,275,Sold,,,http://www.redfin.com/CA/San-Francisco/1754-Larkin-St-94109/unit-5/home/11892981,San Francisco MLS,453368,N,Y,37.794201,-122.419456
PAST SALE,,Unknown,1601 Larkin St #306,San Francisco,CA,94109,1104133,,,,,,,,,,,,,http://www.redfin.com/CA/San-Francisco/1601-Larkin-St-94109/unit-306/home/113731187,,,N,Y,37.7927537,-122.4197781
PAST SALE,July-27-2017,Single Family Residential,1129 Mendell St,San Francisco,CA,94124,825000,3,2.0,Bayview,949,1485,1908,187,869,,Sold,,,http://www.redfin.com/CA/San-Francisco/1129-Mendell-St-94124/home/1687580,San Francisco MLS,459680,N,Y,37.735991,-122.388802
PAST SALE,August-1-2017,Condo/Co-op,4800 3rd St #302,San Francisco,CA,94124,268840,1,1.0,Bayview,580,,2009,182,464,364,Sold,,,http://www.redfin.com/CA/San-Francisco/4800-3rd-St-94124/unit-302/home/40628878,San Francisco MLS,454744,N,Y,37.7347554,-122.3910825
PAST SALE,June-16-2017,Single Family Residential,1683 Newcomb Ave,San Francisco,CA,94124,1450000,4,5.0,Bayview,2908,2500,1890,228,499,,Sold,,,http://www.redfin.com/CA/San-Francisco/1683-Newcomb-Ave-94124/home/1074581,San Francisco MLS,458642,N,Y,37.7359781,-122.3914976
PAST SALE,June-29-2017,Single Family Residential,100 Bridgeview Dr,San Francisco,CA,94124,900000,2,1.0,Silver Terrace,1050,4312,1955,215,857,,Sold,,,http://www.redfin.com/CA/San-Francisco/100-Bridgeview-Dr-94124/home/1911981,San Francisco MLS,454870,N,Y,37.7350192,-122.3954782
PAST SALE,October-20-2017,Single Family Residential,6 Youngs Ct,San Francisco,CA,94124,1025000,3,2.0,Bayview,1570,1720,1985,102,653,,Sold,,,http://www.redfin.com/CA/San-Francisco/6-Youngs-Ct-94124/home/1487602,San Francisco MLS,464792,N,Y,37.7361412,-122.3865694
PAST SALE,November-9-2017,Single Family Residential,1119 Mendell St,San Francisco,CA,94124,870000,2,1.0,Bayview,1354,1875,1924,82,643,,Sold,,,http://www.redfin.com/CA/San-Francisco/1119-Mendell-St-94124/home/1193337,San Francisco MLS,464138,N,Y,37.736086,-122.388716
PAST SALE,November-20-2017,Townhouse,11 Garnett Ter,SAN FRANCISCO,CA,94124,680000,3,2.0,SAN FRANCISCO,1554,1554,1996,71,438,137,Sold,,,http://www.redfin.com/CA/San-Francisco/11-Garnett-Ter-94124/home/741001,MLSListings,ML81675545,N,Y,37.732881,-122.382341
PAST SALE,July-24-2017,Condo/Co-op,3044 Franklin St #202,San Francisco,CA,94123,1600000,3,2.0,Marina,1650,,1975,190,970,435,Sold,,,http://www.redfin.com/CA/San-Francisco/3044-Franklin-St-94123/unit-202/home/557320,San Francisco MLS,459490,N,Y,37.802717,-122.426147
PAST SALE,April-6-2017,Condo/Co-op,1990 Green St #204,San Francisco,CA,94123,1425000,2,1.0,Pacific Heights,1170,,1926,299,1218,766,Sold,,,http://www.redfin.com/CA/San-Francisco/1990-Green-St-94123/unit-204/home/1483250,EBRD/CCAR/Bay East,40768887,N,Y,37.7968296,-122.431882
PAST SALE,May-3-2017,Condo/Co-op,1649 Greenwich St,San Francisco,CA,94123,860000,1,1.0,Cow Hollow,746,,1900,272,1153,335,Sold,,,http://www.redfin.com/CA/San-Francisco/1649-Greenwich-St-94123/home/2022968,San Francisco MLS,456061,N,Y,37.7999999,-122.4265636
PAST SALE,November-20-2017,Condo/Co-op,2064 Green St,San Francisco,CA,94123,2490000,2,2.0,Pacific Heights,1834,,1948,71,1358,801,Sold,,,http://www.redfin.com/CA/San-Francisco/2064-Green-St-94123/home/1268447,San Francisco MLS,463224,N,Y,37.796672,-122.433164
PAST SALE,,Condo/Co-op,161 Russ St,San Francisco,CA,94103,416500,,2.0,,1466,,1996,,284,,,,,http://www.redfin.com/CA/San-Francisco/161-Russ-St-94103/home/722257,,,N,Y,37.778277,-122.40711
PAST SALE,August-22-2017,Condo/Co-op,322 6th St #5,San Francisco,CA,94103,1250000,2,3.0,South of Market,1997,,2001,161,626,700,Sold,,,http://www.redfin.com/CA/San-Francisco/322-6th-St-94103/unit-5/home/1978213,San Francisco MLS,457493,N,Y,37.77795,-122.4054166
PAST SALE,August-25-2017,Condo/Co-op,201 Sansome St #1101,San Francisco,CA,94104,1160000,2,2.0,Financial District,984,,1909,158,1179,663,Sold,,,http://www.redfin.com/CA/San-Francisco/201-Sansome-St-94104/unit-1101/home/12277371,San Francisco MLS,459982,N,Y,37.7922314,-122.4012282
PAST SALE,July-26-2017,Condo/Co-op,855 Folsom St #505,San Francisco,CA,94107,1599000,2,2.0,Yerba Buena,1396,,2001,188,1145,617,Sold,,,http://www.redfin.com/CA/San-Francisco/855-Folsom-St-94107/unit-505/home/877290,San Francisco MLS,453822,N,Y,37.7807737,-122.4021633
PAST SALE,March-20-2017,Condo/Co-op,855 Folsom St #342,San Francisco,CA,94107,466125,2,1.0,Yerba Buena,,,2001,316,,472,Sold,,,http://www.redfin.com/CA/San-Francisco/855-Folsom-St-94107/unit-342/home/12397853,San Francisco MLS,453014,N,Y,37.7807737,-122.4021633
PAST SALE,May-23-2017,Condo/Co-op,333 Grant Ave #701,San Francisco,CA,94108,1115000,1,1.5,Financial District,834,,1908,252,1337,840,Sold,,,http://www.redfin.com/CA/San-Francisco/333-Grant-Ave-94108/unit-701/home/873059,San Francisco MLS,459634,N,Y,37.7901568,-122.4057559
PAST SALE,November-1-2017,Condo/Co-op,920 Harrison St #8,San Francisco,CA,94107,820000,1,1.0,South of Market,1137,,1999,90,721,590,Sold,,,http://www.redfin.com/CA/San-Francisco/920-Harrison-St-94107/unit-8/home/12395886,San Francisco MLS,460815,N,Y,37.778785,-122.40256
PAST SALE,April-18-2017,Condo/Co-op,236 Shipley St #202,San Francisco,CA,94107,899000,2,2.0,South of Market,,,,287,,588,Sold,,,http://www.redfin.com/CA/San-Francisco/236-Shipley-St-94107/unit-202/home/109827466,San Francisco MLS,452608,N,Y,37.7792326,-122.4038728
PAST SALE,November-22-2017,Condo/Co-op,74 New Montgomery St #613,San Francisco,CA,94105,770000,1,1.0,Yerba Buena,,,1914,69,,804,Sold,,,http://www.redfin.com/CA/San-Francisco/74-New-Montgomery-St-94105/unit-613/home/17305969,San Francisco MLS,463441,N,Y,37.7876853,-122.4010321
PAST SALE,July-6-2017,Condo/Co-op,950 Harrison St #212,San Francisco,CA,94107,880000,1,1.5,South of Market,1056,,2000,208,833,454,Sold,,,http://www.redfin.com/CA/San-Francisco/950-Harrison-St-94107/unit-212/home/12397161,San Francisco MLS,459560,N,Y,37.7783535,-122.4031682
PAST SALE,,Single Family Residential,612 Holloway Ave,San Francisco,CA,94112,900000,,1.0,,1428,2495,1900,,630,,,,,http://www.redfin.com/CA/San-Francisco/612-Holloway-Ave-94112/home/917179,,,N,Y,37.7219951,-122.4595478
PAST SALE,,Single Family Residential,254 Thrift St,San Francisco,CA,94112,880000,,1.0,,1105,3123,1958,,796,,,,,http://www.redfin.com/CA/San-Francisco/254-Thrift-St-94112/home/1850606,,,N,Y,37.717601,-122.4610711
PAST SALE,,Single Family Residential,229 Minerva St,San Francisco,CA,94112,725000,2,1.0,,1259,3000,1948,,576,,,,,http://www.redfin.com/CA/San-Francisco/229-Minerva-St-94112/home/1760996,,,N,Y,37.7155966,-122.4600117
PAST SALE,,Single Family Residential,271 Granada Ave,San Francisco,CA,94112,317000,,1.0,,710,2809,1909,,446,,,,,http://www.redfin.com/CA/San-Francisco/271-Granada-Ave-94112/home/815500,,,N,Y,37.723415,-122.4574864
PAST SALE,November-21-2017,Single Family Residential,407 Lakeview Ave,San Francisco,CA,94112,1180000,3,1.5,Ingleside,1485,2495,1967,70,795,,Sold,,,http://www.redfin.com/CA/San-Francisco/407-Lakeview-Ave-94112/home/826145,San Francisco MLS,464028,N,Y,37.7177586,-122.453713
PAST SALE,,Condo/Co-op,1117 Ocean Ave #308,San Francisco,CA,94112,882000,3,2.0,,1450,,2005,,608,,,,,http://www.redfin.com/CA/San-Francisco/1117-Ocean-Ave-94112/unit-308/home/12278050,,,N,Y,37.723237,-122.4545155
PAST SALE,February-22-2017,Single Family Residential,45 Shore View Ave,San Francisco,CA,94121,2800000,6,5.0,Outer Richmond,5240,4046,1923,342,534,,Sold,,,http://www.redfin.com/CA/San-Francisco/45-Shore-View-Ave-94121/home/1888732,San Francisco MLS,450237,N,Y,37.78027,-122.497463
PAST SALE,,Single Family Residential,7420 Geary Blvd,San Francisco,CA,94121,1170000,3,1.0,,1425,2615,1941,,821,,,,,http://www.redfin.com/CA/San-Francisco/7420-Geary-Blvd-94121/home/612297,,,N,Y,37.7797349,-122.4991318
PAST SALE,,Multi-Family (2-4 Unit),543 37th Ave,San Francisco,CA,94121,1540000,4,2.0,,1400,3000,1912,,1100,,,,,http://www.redfin.com/CA/San-Francisco/543-37th-Ave-94121/home/1756556,,,N,Y,37.7785922,-122.4975482
PAST SALE,July-17-2017,Condo/Co-op,861 37th Ave,San Francisco,CA,94121,1250000,2,1.0,Outer Richmond,1264,,1925,197,989,353,Sold,,,http://www.redfin.com/CA/San-Francisco/861-37th-Ave-94121/home/39599233,San Francisco MLS,458775,N,Y,37.772735,-122.497429
PAST SALE,,Single Family Residential,818 39th Ave,San Francisco,CA,94121,8800,1,1.0,,1360,2996,1926,,6,,,,,http://www.redfin.com/CA/San-Francisco/818-39th-Ave-94121/home/1860127,,,N,Y,37.7734025,-122.4990727
PAST SALE,July-26-2017,Condo/Co-op,200 Townsend St #12,San Francisco,CA,94107,829000,1,2.0,South Beach,818,,2003,188,1013,583,Sold,,,http://www.redfin.com/CA/San-Francisco/200-Townsend-St-94107/home/12400613,San Francisco MLS,458168,N,Y,37.7789009,-122.393248
PAST SALE,,Condo/Co-op,250 King St Unit 1102,San Francisco,CA,94107,1365000,2,2.0,,1476,,2004,,925,,,,,http://www.redfin.com/CA/San-Francisco/250-King-St-94107/unit-1102/home/11282450,,,N,Y,37.778131,-122.3932477
PAST SALE,,Condo/Co-op,188 King St Unit 309,San Francisco,CA,94107,950000,1,2.0,,,,2006,,,,,,,http://www.redfin.com/CA/San-Francisco/188-King-St-94107/unit-309/home/12402340,,,N,Y,37.778621,-122.3918058
PAST SALE,October-30-2017,Condo/Co-op,260 King St #439,San Francisco,CA,94107,835000,1,1.0,Mission Bay,850,,2004,92,982,777,Sold,,,http://www.redfin.com/CA/San-Francisco/260-King-St-94107/unit-439/home/12331103,San Francisco MLS,463232,N,Y,37.7780619,-122.3943601
PAST SALE,November-2-2017,Condo/Co-op,260 King St #267,San Francisco,CA,94107,675000,1,1.0,Mission Bay,699,,2004,89,966,728,Sold,,,http://www.redfin.com/CA/San-Francisco/260-King-St-94107/unit-267/home/12331141,San Francisco MLS,463599,N,Y,37.7780619,-122.3943601
PAST SALE,November-7-2017,Condo/Co-op,260 King St #401,San Francisco,CA,94107,231224,0,1.0,Mission Bay,703,,2004,84,329,750,Sold,,,http://www.redfin.com/CA/San-Francisco/260-King-St-94107/unit-401/home/12401923,San Francisco MLS,457588,N,Y,37.7780619,-122.3943601
PAST SALE,April-21-2017,Condo/Co-op,260 King St #263,San Francisco,CA,94107,680000,1,1.0,Mission Bay,692,,2004,284,983,750,Sold,,,http://www.redfin.com/CA/San-Francisco/260-King-St-94107/unit-263/home/12331140,San Francisco MLS,455726,N,Y,37.7780619,-122.3943601
PAST SALE,June-28-2017,Multi-Family (2-4 Unit),667 669A Haight St,San Francisco,CA,94117,2185000,7,3.0,Hayes Valley,3900,4687,1900,216,560,,Sold,,,http://www.redfin.com/CA/San-Francisco/669-Haight-St-94117/unit-669A/home/1651181,San Francisco MLS,457950,N,Y,37.7715755,-122.4331886
PAST SALE,April-10-2017,Condo/Co-op,560 Haight St #203,San Francisco,CA,94117,1375000,2,2.0,Hayes Valley,,,2001,295,,648,Sold,,,http://www.redfin.com/CA/San-Francisco/560-Haight-St-94117/unit-203/home/900319,San Francisco MLS,455276,N,Y,37.7721863,-122.4315164
PAST SALE,October-18-2017,Single Family Residential,59 Potomac St,San Francisco,CA,94117,2350000,4,1.0,Hayes Valley,1800,2247,1900,104,1306,,Sold,,,http://www.redfin.com/CA/San-Francisco/59-Potomac-St-94117/home/1942482,San Francisco MLS,462323,N,Y,37.7700683,-122.4327908
PAST SALE,November-22-2017,Condo/Co-op,560 Haight St #208,San Francisco,CA,94117,1800000,2,2.0,Hayes Valley,1660,,2001,69,1084,751,Sold,,,http://www.redfin.com/CA/San-Francisco/560-Haight-St-94117/unit-208/home/855717,San Francisco MLS,464099,N,Y,37.7721863,-122.4315164
PAST SALE,February-15-2017,Multi-Family (5+ Unit),258 Valley St,San Francisco,CA,94131,1850000,5,,Noe Valley,3623,2962,1936,349,511,,Sold,,,http://www.redfin.com/CA/San-Francisco/258-Valley-St-94131/home/1923260,San Francisco MLS,452905,N,Y,37.744661,-122.428097
PAST SALE,March-23-2017,Condo/Co-op,146 Santa Marina St,San Francisco,CA,94110,1025000,2,2.0,Bernal Heights,850,,,313,1206,,Sold,,,http://www.redfin.com/CA/San-Francisco/146-Santa-Marina-St-94110/home/40629239,San Francisco MLS,456015,N,Y,37.7393395,-122.4205062
PAST SALE,,Condo/Co-op,148 28th St,San Francisco,CA,94131,1874933,3,2.0,,1669,,1951,,1123,,,,,http://www.redfin.com/CA/San-Francisco/148-28th-St-94131/home/17305769,,,N,Y,37.7455423,-122.4257591
PAST SALE,May-4-2017,Condo/Co-op,16 A Powers Ave,San Francisco,CA,94110,829000,2,1.0,Bernal Heights,843,,,271,983,260,Sold,,,http://www.redfin.com/CA/San-Francisco/16-Powers-Ave-94110/unit-A/home/1986086,San Francisco MLS,454200,N,Y,37.7458389,-122.41919
PAST SALE,,Single Family Residential,526 Duncan St,San Francisco,CA,94131,12000000,4,3.0,,5371,,2005,,2234,,,,,http://www.redfin.com/CA/San-Francisco/526-Duncan-St-94131/home/1285265,,,N,Y,37.746154,-122.432134
PAST SALE,June-5-2017,Single Family Residential,365 Banks St,SAN FRANCISCO,CA,94110,1640000,4,2.0,SAN FRANCISCO,1650,2250,1909,239,994,,Sold,,,http://www.redfin.com/CA/San-Francisco/365-Banks-St-94110/home/1986110,MLSListings,ML81643466,N,Y,37.7385242,-122.4125812
PAST SALE,,Single Family Residential,379 Coleridge St,San Francisco,CA,94110,565000,,1.0,,1300,2256,1900,,435,,,,,http://www.redfin.com/CA/San-Francisco/379-Coleridge-St-94110/home/984725,,,N,Y,37.740789,-122.421268
PAST SALE,,Single Family Residential,14 Bessie St,San Francisco,CA,94110,895000,,2.0,,825,938,1900,,1085,,,,,http://www.redfin.com/CA/San-Francisco/14-Bessie-St-94110/home/1868665,,,N,Y,37.7465815,-122.4147168
PAST SALE,,Single Family Residential,235 Duncan St,San Francisco,CA,94131,2987000,4,3.5,,2244,3419,1950,,1331,,,,,http://www.redfin.com/CA/San-Francisco/235-Duncan-St-94131/home/888516,,,N,Y,37.7460114,-122.4255628
PAST SALE,March-29-2017,Single Family Residential,106 Coleridge St,San Francisco,CA,94110,3100000,5,4.0,Bernal Heights,3015,2500,1900,307,1028,,Sold,,,http://www.redfin.com/CA/San-Francisco/106-Coleridge-St-94110/home/1743208,San Francisco MLS,455342,N,Y,37.7441466,-122.4197575
PAST SALE,July-14-2017,Multi-Family (2-4 Unit),35 Fair Ave,SAN FRANCISCO,CA,94110,1580000,4,,SAN FRANCISCO,1990,2200,1912,200,794,,Sold,,,http://www.redfin.com/CA/San-Francisco/35-Fair-Ave-94110/home/1406665,MLSListings,ML81639693,N,Y,37.74553,-122.419191
PAST SALE,June-26-2017,Multi-Family (2-4 Unit),384-386 28th St,San Francisco,CA,94131,2540000,4,4.5,Noe Valley,3692,2813,1914,218,688,,Sold,,,http://www.redfin.com/CA/San-Francisco/386-28th-St-94131/home/802698,San Francisco MLS,458559,N,Y,37.7451717,-122.4308919
PAST SALE,July-11-2017,Single Family Residential,121 Ellert St,San Francisco,CA,94110,1380000,2,1.0,Bernal Heights,1125,2809,1937,203,1227,,Sold,,,http://www.redfin.com/CA/San-Francisco/121-Ellert-St-94110/home/760435,San Francisco MLS,458712,N,Y,37.738598,-122.417393
PAST SALE,June-29-2017,Single Family Residential,324 Day St,San Francisco,CA,94131,2675000,4,3.0,Noe Valley,2213,2848,1900,215,1209,,Sold,,,http://www.redfin.com/CA/San-Francisco/324-Day-St-94131/home/908529,San Francisco MLS,458802,N,Y,37.7429194,-122.4295021
PAST SALE,,Multi-Family (2-4 Unit),137 Charles St,San Francisco,CA,94131,203773,,4.0,,3348,3060,1910,,61,,,,,http://www.redfin.com/CA/San-Francisco/137-Charles-St-94131/home/1345912,,,N,Y,37.7382201,-122.4255774
PAST SALE,March-23-2017,Single Family Residential,176 Banks St,San Francisco,CA,94110,952000,2,1.0,Bernal Heights,1005,1746,1900,313,947,,Sold,,,http://www.redfin.com/CA/San-Francisco/176-Banks-St-94110/home/2025011,San Francisco MLS,452830,N,Y,37.7404943,-122.4128404
PAST SALE,May-18-2017,Single Family Residential,460 Lansdale Ave,San Francisco,CA,94127,1636845,4,3.0,Sherwood Forest,2361,3336,1958,257,693,,Sold,,,http://www.redfin.com/CA/San-Francisco/460-Lansdale-Ave-94127/home/2036963,San Francisco MLS,456328,N,Y,37.7359542,-122.4553212
PAST SALE,May-15-2017,Single Family Residential,456 Los Palmos Dr,San Francisco,CA,94127,1425000,4,4.0,Miraloma Park,2050,2299,1947,260,695,,Sold,,,http://www.redfin.com/CA/San-Francisco/456-Los-Palmos-Dr-94127/home/914211,San Francisco MLS,456048,N,Y,37.7346112,-122.4520624
PAST SALE,June-20-2017,Single Family Residential,501 Rockdale Dr,San Francisco,CA,94127,1325000,2,2.0,Miraloma Park,1350,3275,1941,224,981,,Sold,,,http://www.redfin.com/CA/San-Francisco/501-Rockdale-Dr-94127/home/1165262,San Francisco MLS,458253,N,Y,37.7394219,-122.4497688
PAST SALE,June-14-2017,Single Family Residential,423 Raymond Ave,SAN FRANCISCO,CA,94134,1200000,4,3.0,SAN FRANCISCO,1798,2500,1926,230,667,,Sold,,,http://www.redfin.com/CA/San-Francisco/423-Raymond-Ave-94134/home/985497,MLSListings,ML81649826,N,Y,37.714315,-122.411929
PAST SALE,June-9-2017,Single Family Residential,440 Sawyer St,San Francisco,CA,94134,855000,3,2.0,Visitacion Valley,1310,2750,1944,235,653,,Sold,,,http://www.redfin.com/CA/San-Francisco/440-Sawyer-St-94134/home/1167837,San Francisco MLS,457678,N,Y,37.7126395,-122.4149207
PAST SALE,,Single Family Residential,80 Alpha St,San Francisco,CA,94134,366000,,1.0,,943,2012,1941,,388,,,,,http://www.redfin.com/CA/San-Francisco/80-Alpha-St-94134/home/1956105,,,N,Y,37.7152411,-122.4031933
PAST SALE,August-18-2017,Condo/Co-op,239 Brannan St Unit 5C,San Francisco,CA,94107,1500000,2,2.0,South Beach,1321,,2002,165,1136,1069,Sold,,,http://www.redfin.com/CA/San-Francisco/239-Brannan-St-94107/unit-5C/home/920076,San Francisco MLS,460156,N,Y,37.782646,-122.390388
PAST SALE,September-11-2017,Condo/Co-op,88 King St #302,San Francisco,CA,94107,1340000,2,2.0,South Beach,1092,,2000,141,1227,969,Sold,,,http://www.redfin.com/CA/San-Francisco/88-King-St-94107/unit-302/home/12397425,San Francisco MLS,461214,N,Y,37.7806904,-122.3892201
PAST SALE,,Condo/Co-op,461 2nd St Unit C114,San Francisco,CA,94107,775100,1,1.0,,753,,1907,,1029,,,,,http://www.redfin.com/CA/San-Francisco/461-2nd-St-94107/unit-C114/home/726145,,,N,Y,37.7836882,-122.3935753
PAST SALE,October-23-2017,Condo/Co-op,239 Brannan St Unit 5A,San Francisco,CA,94107,1700000,2,2.0,South Beach,1279,,2002,99,1329,1106,Sold,,,http://www.redfin.com/CA/San-Francisco/239-Brannan-St-94107/unit-5A/home/853662,San Francisco MLS,462565,N,Y,37.782646,-122.390388
PAST SALE,October-26-2017,Condo/Co-op,239 Brannan St Unit 12C,San Francisco,CA,94107,1650000,2,2.0,South Beach,1321,,,96,1249,1069,Sold,,,http://www.redfin.com/CA/San-Francisco/239-Brannan-St-94107/unit-12C/home/1713824,San Francisco MLS,459611,N,Y,37.782646,-122.390388
PAST SALE,,Condo/Co-op,1 Federal St Apt 48,San Francisco,CA,94107,850000,,,,797,,2003,,1066,,,,,http://www.redfin.com/CA/San-Francisco/1-Federal-St-94107/unit-48/home/1761945,,,N,Y,37.7839668,-122.3911212
PAST SALE,April-28-2017,Condo/Co-op,200 Brannan St #420,San Francisco,CA,94107,1650000,2,2.0,South Beach,1949,,2004,277,847,799,Sold,,,http://www.redfin.com/CA/San-Francisco/200-Brannan-St-94107/home/2028349,San Francisco MLS,455122,N,Y,37.7835714,-122.3907008
PAST SALE,,Multi-Family (5+ Unit),72 Townsend St Unit 308,San Francisco,CA,94107,845000,1,1.0,,950,,2015,,889,,,,,http://www.redfin.com/CA/San-Francisco/72-Townsend-St-94107/unit-308/home/105420430,,,N,Y,37.7812595,-122.3902125
PAST SALE,,Condo/Co-op,219 Brannan St Unit 16D,San Francisco,CA,94107,75000,2,2.0,,1347,,2000,,56,,,,,http://www.redfin.com/CA/San-Francisco/219-Brannan-St-94107/unit-16D/home/1823220,,,N,Y,37.7830568,-122.3901601
PAST SALE,October-13-2017,Condo/Co-op,461 2nd St #218,San Francisco,CA,94107,890000,1,1.0,South Beach,1023,,1907,109,870,643,Sold,,,http://www.redfin.com/CA/San-Francisco/461-2nd-St-94107/unit-218/home/22876580,San Francisco MLS,461207,N,Y,37.7836882,-122.3935753
PAST SALE,June-9-2017,Condo/Co-op,200 Brannan St #402,San Francisco,CA,94107,1250000,1,2.0,South Beach,1263,,2004,235,990,631,Sold,,,http://www.redfin.com/CA/San-Francisco/200-Brannan-St-94107/unit-402/home/1196898,San Francisco MLS,456644,N,Y,37.7835714,-122.3907008
PAST SALE,,Condo/Co-op,219 Brannan St Unit 16D,San Francisco,CA,94107,3000000,2,2.0,,1611,,2000,,1862,,,,,http://www.redfin.com/CA/San-Francisco/219-Brannan-St-94107/unit-16D/home/1275213,,,N,Y,37.7830568,-122.3901601
PAST SALE,August-2-2017,Single Family Residential,1144 Quintara St,San Francisco,CA,94116,925000,1,1.0,Parkside,1050,1498,1942,181,881,,Sold,,,http://www.redfin.com/CA/San-Francisco/1144-Quintara-St-94116/home/649899,San Francisco MLS,458604,N,Y,37.748741,-122.4779713
PAST SALE,August-15-2017,Single Family Residential,1969 17th Ave,San Francisco,CA,94116,1380000,2,1.0,Inner Parkside,1516,3371,1927,168,910,,Sold,,,http://www.redfin.com/CA/San-Francisco/1969-17th-Ave-94116/home/1765901,San Francisco MLS,459813,N,Y,37.7512057,-122.4744268
PAST SALE,November-15-2017,Single Family Residential,1906 11th Ave,San Francisco,CA,94116,1300000,2,1.0,Golden Gate Heights,,,1952,76,,,Sold,,,http://www.redfin.com/CA/San-Francisco/1906-11th-Ave-94116/home/1548516,San Francisco MLS,463665,N,Y,37.7525699,-122.467488
PAST SALE,July-31-2017,Single Family Residential,1769 11th Ave,San Francisco,CA,94122,3250000,4,4.5,Inner Sunset,3600,,2017,183,903,,Sold,,,http://www.redfin.com/CA/San-Francisco/1769-11th-Ave-94122/home/113820936,San Francisco MLS,457478,N,Y,37.7552444,-122.4681605
PAST SALE,November-22-2017,Single Family Residential,70 Sotelo Ave,San Francisco,CA,94116,2725000,4,3.0,Forest Hill,,9173,1954,69,,,Sold,,,http://www.redfin.com/CA/San-Francisco/70-Sotelo-Ave-94116/home/1905389,San Francisco MLS,462694,N,Y,37.749884,-122.4640888
PAST SALE,,Condo/Co-op,637 Powell St Apt 102,San Francisco,CA,94108,986500,2,2.0,,1590,,1923,,620,,,,,http://www.redfin.com/CA/San-Francisco/637-Powell-St-94108/unit-102/home/1973790,,,N,Y,37.7906513,-122.4091786
PAST SALE,April-7-2017,Condo/Co-op,930 Pine St #114,San Francisco,CA,94108,645000,0,1.0,Downtown,505,,1973,298,1277,374,Sold,,,http://www.redfin.com/CA/San-Francisco/930-Pine-St-94108/unit-114/home/1998884,San Francisco MLS,455001,N,Y,37.7910682,-122.4113055
PAST SALE,,Multi-Family (5+ Unit),1068 Stockton St #68,San Francisco,CA,94108,800000,,3.0,,3166,1652,1925,,253,,,,,http://www.redfin.com/CA/San-Francisco/1068-Stockton-St-94108/unit-68/home/110053480,,,N,Y,37.7956892,-122.408001
PAST SALE,November-6-2017,Multi-Family (5+ Unit),1146 Taylor St,San Francisco,CA,94108,4600000,,,Nob Hill,5492,1999,1913,85,838,,Sold,,,http://www.redfin.com/CA/San-Francisco/1146-Taylor-St-94108/home/1845699,San Francisco MLS,460637,N,Y,37.7931422,-122.4125249
PAST SALE,,Condo/Co-op,1170 Sacramento St Apt 18D,San Francisco,CA,94108,7110000,,5.0,,2780,,1963,,2558,,,,,http://www.redfin.com/CA/San-Francisco/1170-Sacramento-St-94108/unit-18D/home/1978648,,,N,Y,37.7929129,-122.4122042
PAST SALE,November-22-2017,Condo/Co-op,901 Bush St #207,San Francisco,CA,94109,342264,1,1.0,Downtown,532,,1909,69,643,363,Sold,,,http://www.redfin.com/CA/San-Francisco/901-Bush-St-94109/unit-207/home/23423947,San Francisco MLS,460350,N,Y,37.789553,-122.4123553
PAST SALE,,Single Family Residential,1742 45th Ave,San Francisco,CA,94122,398000,,1.0,,1204,2996,1947,,331,,,,,http://www.redfin.com/CA/San-Francisco/1742-45th-Ave-94122/home/1119600,,,N,Y,37.7540571,-122.5041885
PAST SALE,September-8-2017,Single Family Residential,1767 43rd Ave,San Francisco,CA,94122,850000,3,1.0,Outer Sunset,1032,2909,1945,144,824,,Sold,,,http://www.redfin.com/CA/San-Francisco/1767-43rd-Ave-94122/home/1910549,San Francisco MLS,460974,N,Y,37.7537215,-122.5024601
PAST SALE,,Single Family Residential,1714 39th Ave,San Francisco,CA,94122,1050000,,2.0,,1268,2996,1941,,828,,,,,http://www.redfin.com/CA/San-Francisco/1714-39th-Ave-94122/home/1253718,,,N,Y,37.7548184,-122.4977875
PAST SALE,November-14-2017,Single Family Residential,3221 Noriega St,San Francisco,CA,94122,1225000,3,1.0,Outer Sunset,1300,2321,1949,77,942,,Sold,,,http://www.redfin.com/CA/San-Francisco/3221-Noriega-St-94122/home/648790,San Francisco MLS,463761,N,Y,37.7530612,-122.4983337
PAST SALE,November-22-2017,Single Family Residential,1647 40th Ave,San Francisco,CA,94122,1270000,2,1.0,Outer Sunset,1025,3000,1940,69,1239,,Sold,,,http://www.redfin.com/CA/San-Francisco/1647-40th-Ave-94122/home/1262128,San Francisco MLS,463802,N,Y,37.756071,-122.4993999
PAST SALE,April-6-2017,Single Family Residential,290 Maynard,San Francisco,CA,94112,960000,2,1.25,Excelsior,975,2915,1939,299,985,,Sold,,,http://www.redfin.com/CA/San-Francisco/290-Maynard-St-94112/home/1036613,San Francisco MLS,455192,N,Y,37.7293746,-122.4240098
PAST SALE,March-21-2017,Single Family Residential,123 Vienna St,San Francisco,CA,94112,900000,2,1.0,Excelsior,1006,2495,1950,315,895,,Sold,,,http://www.redfin.com/CA/San-Francisco/123-Vienna-St-94112/home/774241,San Francisco MLS,452771,N,Y,37.7262116,-122.4258478
PAST SALE,July-14-2017,Single Family Residential,122 Milton St,San Francisco,CA,94112,1165000,2,1.5,Bernal Heights,1305,2500,1915,200,893,,Sold,,,http://www.redfin.com/CA/San-Francisco/122-Milton-St-94112/home/1672280,San Francisco MLS,459393,N,Y,37.7329287,-122.4295248
PAST SALE,July-12-2017,Single Family Residential,31 Edinburgh St,San Francisco,CA,94112,1116000,3,1.0,Excelsior,1250,2500,1926,202,893,,Sold,,,http://www.redfin.com/CA/San-Francisco/31-Edinburgh-St-94112/home/1768485,San Francisco MLS,459111,N,Y,37.7280515,-122.426573
PAST SALE,February-16-2017,Single Family Residential,53 Edinburgh St,San Francisco,CA,94112,1011000,2,1.0,Excelsior,1125,2500,1912,348,899,,Sold,,,http://www.redfin.com/CA/San-Francisco/53-Edinburgh-St-94112/home/1336253,San Francisco MLS,453433,N,Y,37.7277756,-122.4268192
PAST SALE,May-11-2017,Single Family Residential,104 Trumbull St,San Francisco,CA,94112,810000,3,2.0,Excelsior,1900,2759,1900,264,426,,Sold,,,http://www.redfin.com/CA/San-Francisco/104-Trumbull-St-94112/home/768475,San Francisco MLS,456277,N,Y,37.730553,-122.42815
PAST SALE,April-28-2017,Single Family Residential,290 Rutledge St,San Francisco,CA,94110,1710000,1,2.0,Bernal Heights,,1260,1989,277,,,Sold,,,http://www.redfin.com/CA/San-Francisco/290-Rutledge-St-94110/home/1990247,San Francisco MLS,455898,N,Y,37.7451891,-122.4087919
PAST SALE,April-27-2017,Single Family Residential,215 Bradford St,San Francisco,CA,94110,1160000,3,1.0,Bernal Heights,1200,1751,1960,278,967,,Sold,,,http://www.redfin.com/CA/San-Francisco/215-Bradford-St-94110/home/1695824,San Francisco MLS,456336,N,Y,37.7393731,-122.4094038
PAST SALE,June-7-2017,Single Family Residential,76 Bronte St,San Francisco,CA,94110,1850000,3,3.0,Bernal Heights,1732,1751,1940,237,1068,,Sold,,,http://www.redfin.com/CA/San-Francisco/76-Bronte-St-94110/home/1240678,San Francisco MLS,456784,N,Y,37.7385391,-122.4104051
PAST SALE,,Single Family Residential,110 Montcalm St,San Francisco,CA,94110,1710000,,1.0,,1700,1750,1900,,1006,,,,,http://www.redfin.com/CA/San-Francisco/110-Montcalm-St-94110/home/754832,,,N,Y,37.7465226,-122.4070616
PAST SALE,June-27-2017,Single Family Residential,17 Costa St,San Francisco,CA,94110,1395000,3,2.0,Bernal Heights,1466,1751,1908,217,952,,Sold,,,http://www.redfin.com/CA/San-Francisco/17-Costa-St-94110/home/1583477,San Francisco MLS,457862,N,Y,37.7445931,-122.4064324
PAST SALE,,Multi-Family (5+ Unit),661 Peralta Ave Apt 2,San Francisco,CA,94110,535000,,4.0,,2586,2622,1960,,207,,,,,http://www.redfin.com/CA/San-Francisco/661-Peralta-Ave-94110/unit-2/home/1759886,,,N,Y,37.7420578,-122.4086972
PAST SALE,May-19-2017,Single Family Residential,110 Montcalm St,San Francisco,CA,94110,1710000,3,2.0,Bernal Heights,1700,1746,,256,1006,,Sold,,,http://www.redfin.com/CA/San-Francisco/110-Montcalm-St-94110/home/110063656,San Francisco MLS,456438,N,Y,37.7465226,-122.4070616
PAST SALE,May-12-2017,Single Family Residential,144 Putnam St,San Francisco,CA,94110,1333144,3,1.0,Bernal Heights,1215,1750,1955,263,1097,,Sold,,,http://www.redfin.com/CA/San-Francisco/144-Putnam-St-94110/home/1511005,San Francisco MLS,456357,N,Y,37.7376104,-122.4110752
PAST SALE,May-5-2017,Single Family Residential,1622 Ingalls St,San Francisco,CA,94124,700000,3,1.0,Bayview,995,1875,1944,270,704,,Sold,,,http://www.redfin.com/CA/San-Francisco/1622-Ingalls-St-94124/home/738332,San Francisco MLS,456378,N,Y,37.7289198,-122.3844078
PAST SALE,,Unknown,570 Innes Ave #202,San Francisco,CA,94124,234000,,,,,,,,,,,,,http://www.redfin.com/CA/San-Francisco/570-Innes-Ave-94124/unit-202/home/131989451,,,N,Y,37.7288313,-122.3701812
PAST SALE,June-29-2017,Condo/Co-op,2916 Arelious Walker Dr #6,San Francisco,CA,94124,447313,2,1.0,Bayview,780,,2006,215,573,200,Sold,,,http://www.redfin.com/CA/San-Francisco/2916-Arelious-Walker-Dr-94124/unit-6/home/112854850,San Francisco MLS,453351,N,Y,37.717431,-122.386097
PAST SALE,,Single Family Residential,1418 Shafter Ave,San Francisco,CA,94124,578382,4,3.0,,2043,2570,1933,,283,,,,,http://www.redfin.com/CA/San-Francisco/1418-Shafter-Ave-94124/home/1272995,,,N,Y,37.7293106,-122.3872502
PAST SALE,,Condo/Co-op,900 Gilman Ave #6,San Francisco,CA,94124,447500,2,1.0,,780,,2006,,574,,,,,http://www.redfin.com/CA/San-Francisco/900-Gilman-Ave-94124/unit-6/home/12243469,,,N,Y,37.7174911,-122.3864988
PAST SALE,,Condo/Co-op,900 Gilman Ave #4,San Francisco,CA,94124,469000,2,1.0,,780,,2006,,601,,,,,http://www.redfin.com/CA/San-Francisco/900-Gilman-Ave-94124/unit-4/home/12243467,,,N,Y,37.7174911,-122.3864988
PAST SALE,May-12-2017,Townhouse,208 Friedell,San Francisco,CA,94124,819000,2,2.0,Hunters Point,1481,,2016,263,553,228,Sold,,,http://www.redfin.com/CA/San-Francisco/208-Friedell-St-94124/home/109464999,San Francisco MLS,455319,N,Y,37.7285308,-122.3700221
PAST SALE,November-21-2017,Single Family Residential,550 Crestlake Dr,San Francisco,CA,94132,1810000,3,3.0,Pine Lake Park,1706,5776,1950,70,1061,,Sold,,,http://www.redfin.com/CA/San-Francisco/550-Crestlake-Dr-94132/home/670707,San Francisco MLS,463720,N,Y,37.7365771,-122.4905225
PAST SALE,,Multi-Family (5+ Unit),745 Arguello Blvd,San Francisco,CA,94118,710000,8,4.0,,4322,3000,1906,,164,,,,,http://www.redfin.com/CA/San-Francisco/745-Arguello-Blvd-94118/home/1954028,,,N,Y,37.7765714,-122.4588053
PAST SALE,,Single Family Residential,30 Jordan Ave,San Francisco,CA,94118,4500000,6,3.0,,4430,3619,1912,,1016,,,,,http://www.redfin.com/CA/San-Francisco/30-Jordan-Ave-94118/home/590458,,,N,Y,37.7852816,-122.4566166
PAST SALE,,Multi-Family (5+ Unit),4005 California St,San Francisco,CA,94118,6200000,21,12.0,,11472,4437,1923,,540,,,,,http://www.redfin.com/CA/San-Francisco/4005-California-St-94118/home/1359134,,,N,Y,37.7853317,-122.4605605
PAST SALE,April-20-2017,Condo/Co-op,420 Stanyan St #4,San Francisco,CA,94117,1500000,3,2.0,North Panhandle,1465,,2003,285,1024,699,Sold,,,http://www.redfin.com/CA/San-Francisco/420-Stanyan-St-94117/unit-4/home/1536556,San Francisco MLS,454484,N,Y,37.7744337,-122.4542758
PAST SALE,April-12-2017,Single Family Residential,229 Stanyan St,San Francisco,CA,94118,1825000,3,2.5,Lone Mountain,1821,2221,1938,293,1002,,Sold,,,http://www.redfin.com/CA/San-Francisco/229-Stanyan-St-94118/home/1676308,San Francisco MLS,455745,N,Y,37.7768228,-122.4552865
PAST SALE,,Multi-Family (5+ Unit),3852 California St #3862,San Francisco,CA,94118,6238636,,16.0,,14188,10300,1924,,440,,,,,http://www.redfin.com/CA/San-Francisco/3852-California-St-94118/unit-3862/home/980195,,,N,Y,37.786121,-122.458105
PAST SALE,October-31-2017,Single Family Residential,65 Almaden Ct,San Francisco,CA,94118,1825000,3,1.5,Lone Mountain,,2818,1936,91,,,Sold,,,http://www.redfin.com/CA/San-Francisco/65-Almaden-Ct-94118/home/1341147,San Francisco MLS,462678,N,Y,37.7798968,-122.4580558
PAST SALE,October-20-2017,Condo/Co-op,847 Arguello Blvd #4,San Francisco,CA,94118,1003000,2,2.0,Inner Richmond,,,1983,102,,484,Sold,,,http://www.redfin.com/CA/San-Francisco/847-Arguello-Blvd-94118/unit-4/home/620921,San Francisco MLS,461939,N,Y,37.7749698,-122.4587526
PAST SALE,October-18-2017,Condo/Co-op,189 Commonwealth Ave #3,San Francisco,CA,94118,1450000,2,1.5,Jordan Park/Laurel Heights,1553,,1919,104,934,463,Sold,,,http://www.redfin.com/CA/San-Francisco/189-Commonwealth-Ave-94118/unit-3/home/589275,San Francisco MLS,462560,N,Y,37.7819134,-122.4559027
PAST SALE,November-14-2017,Single Family Residential,2850 Fulton St,San Francisco,CA,94118,2360000,3,3.0,Inner Richmond,2265,3084,1921,77,1042,,Sold,,,http://www.redfin.com/CA/San-Francisco/2850-Fulton-St-94118/home/1709400,San Francisco MLS,464439,N,Y,37.7740943,-122.4625071
PAST SALE,November-16-2017,Condo/Co-op,100 Parker Ave #301,San Francisco,CA,94118,975000,1,1.0,Jordan Park/Laurel Heights,1237,,1929,75,788,466,Sold,,,http://www.redfin.com/CA/San-Francisco/100-Parker-Ave-94118/unit-301/home/591586,San Francisco MLS,463040,N,Y,37.7838031,-122.454399
PAST SALE,,Condo/Co-op,1245 Anza St #1,San Francisco,CA,94118,895000,1,1.0,,902,,1938,,992,,,,,http://www.redfin.com/CA/San-Francisco/1245-Anza-St-94118/unit-1/home/1633184,,,N,Y,37.7790631,-122.4616459
PAST SALE,,Multi-Family (5+ Unit),28 Parker Ave Apt 104,San Francisco,CA,94118,1015000,24,24.0,,13632,5510,1929,,74,,,,,http://www.redfin.com/CA/San-Francisco/28-Parker-Ave-94118/unit-104/home/1579802,,,N,Y,37.785653,-122.4544206
PAST SALE,August-24-2017,Multi-Family (2-4 Unit),2926 Cesar Chavez,San Francisco,CA,94110,1210000,,,Inner Mission,2664,1389,1915,159,454,,Sold,,,http://www.redfin.com/CA/San-Francisco/2926-Cesar-Chavez-St-94110/home/110053525,San Francisco MLS,452331,N,Y,37.7485099,-122.4083268
PAST SALE,,Single Family Residential,43 Lucky St,San Francisco,CA,94110,825000,2,1.0,,800,1125,1880,,1031,,,,,http://www.redfin.com/CA/San-Francisco/43-Lucky-St-94110/home/40142949,,,N,Y,37.7518248,-122.4133645
PAST SALE,August-15-2017,Multi-Family (2-4 Unit),1388 1392 Alabama St,San Francisco,CA,94110,1600000,9,5.0,San Francisco County,3780,2500,1900,168,423,,Sold,,,http://www.redfin.com/CA/San-Francisco/1392-Alabama-St-94110/home/1855850,BAREIS,21707116,N,Y,37.749667,-122.410952
PAST SALE,September-12-2017,Multi-Family (5+ Unit),2485-2489 Folsom St,San Francisco,CA,94110,1950000,6,,Inner Mission,4170,2374,1912,140,468,,Sold,,,http://www.redfin.com/CA/San-Francisco/2489-Folsom-St-94110/home/1855425,San Francisco MLS,461134,N,Y,37.7575329,-122.4144738
PAST SALE,,Multi-Family (2-4 Unit),2816 21st St,San Francisco,CA,94110,740000,,3.0,,4170,2596,1910,,177,,,,,http://www.redfin.com/CA/San-Francisco/2816-21st-St-94110/home/2022108,,,N,Y,37.7576109,-122.4109131
PAST SALE,October-26-2017,Condo/Co-op,2209 Bryant St,San Francisco,CA,94110,1450000,3,1.5,Inner Mission,1410,,1907,96,1028,225,Sold,,,http://www.redfin.com/CA/San-Francisco/2209-Bryant-St-94110/home/1192967,San Francisco MLS,462268,N,Y,37.758951,-122.409401
PAST SALE,,Multi-Family (2-4 Unit),1163 York St,San Francisco,CA,94110,3485000,,2.0,,2984,2596,1900,,1168,,,,,http://www.redfin.com/CA/San-Francisco/1163-York-St-94110/home/2027760,,,N,Y,37.7535111,-122.4080643
PAST SALE,April-7-2017,Condo/Co-op,2101 Bryant St #102,San Francisco,CA,94110,920000,1,1.0,Inner Mission,782,,1919,298,1176,372,Sold,,,http://www.redfin.com/CA/San-Francisco/2101-Bryant-St-94110/unit-102/home/40138953,San Francisco MLS,455259,N,Y,37.7601776,-122.4098229
PAST SALE,,Multi-Family (5+ Unit),1097 York St,San Francisco,CA,94110,1360000,,4.0,,4076,1785,1927,,334,,,,,http://www.redfin.com/CA/San-Francisco/1097-York-St-94110/home/1510591,,,N,Y,37.754699,-122.4081833
PAST SALE,February-10-2017,Single Family Residential,792 Dartmouth St,San Francisco,CA,94134,870000,3,2.0,Portola,1220,1750,1953,354,713,,Sold,,,http://www.redfin.com/CA/San-Francisco/792-Dartmouth-St-94134/home/781206,San Francisco MLS,456137,N,Y,37.7208412,-122.4097335
PAST SALE,July-10-2017,Vacant Land,770 Woolsey St,San Francisco,CA,94134,7500000,,,Portola,,95997,,204,,,Sold,,,http://www.redfin.com/CA/San-Francisco/770-Woolsey-St-94134/home/49883664,San Francisco MLS,448569,N,Y,37.7237148,-122.4091338
PAST SALE,April-12-2017,Single Family Residential,26 Staples Ave,San Francisco,CA,94131,832750,2,1.0,Sunnyside,1000,2809,1924,293,833,,Sold,,,http://www.redfin.com/CA/San-Francisco/26-Staples-Ave-94131/home/1334666,San Francisco MLS,454512,N,Y,37.7293146,-122.4426959
PAST SALE,May-5-2017,Single Family Residential,109 Turquoise Way,San Francisco,CA,94131,2240000,4,2.25,Diamond Heights,2200,4312,1964,270,1018,,Sold,,,http://www.redfin.com/CA/San-Francisco/109-Turquoise-Way-94131/home/1008015,San Francisco MLS,455976,N,Y,37.7434738,-122.4443017
PAST SALE,May-18-2017,Single Family Residential,945 Teresita Blvd,San Francisco,CA,94127,1470000,3,2.0,Miraloma Park,1589,2495,1946,257,925,,Sold,,,http://www.redfin.com/CA/San-Francisco/945-Teresita-Blvd-94127/home/1800436,San Francisco MLS,456699,N,Y,37.7341157,-122.4474793
PAST SALE,,Single Family Residential,683 Teresita Blvd,San Francisco,CA,94127,1640000,4,3.0,,1686,3628,1950,,973,,,,,http://www.redfin.com/CA/San-Francisco/683-Teresita-Blvd-94127/home/1873555,,,N,Y,37.7358943,-122.4460868
PAST SALE,July-13-2017,Single Family Residential,33 Turquoise Way,San Francisco,CA,94131,1925000,4,2.5,Diamond Heights,2215,3341,1963,201,869,,Sold,,,http://www.redfin.com/CA/San-Francisco/33-Turquoise-Way-94131/home/1689086,San Francisco MLS,458985,N,Y,37.7450306,-122.445806
PAST SALE,April-4-2017,Single Family Residential,190 Stillings Ave,San Francisco,CA,94131,1275000,3,2.0,Glen Park,1000,2495,1950,301,1275,,Sold,,,http://www.redfin.com/CA/San-Francisco/190-Stillings-Ave-94131/home/1102448,San Francisco MLS,454907,N,Y,37.734721,-122.4441258
PAST SALE,May-30-2017,Single Family Residential,248 Miramar Ave,San Francisco,CA,94112,831000,2,1.0,Ingleside,810,2813,1924,245,1026,,Sold,,,http://www.redfin.com/CA/San-Francisco/248-Miramar-Ave-94112/home/1623703,San Francisco MLS,457953,N,Y,37.7229933,-122.4579622
PAST SALE,,Multi-Family (5+ Unit),257 Miramar Ave,San Francisco,CA,94112,870000,,5.0,,2000,2813,1906,,435,,,,,http://www.redfin.com/CA/San-Francisco/257-Miramar-Ave-94112/home/1456863,,,N,Y,37.7231934,-122.4584136
PAST SALE,June-5-2017,Single Family Residential,1171 Capitol Ave,SAN FRANCISCO,CA,94112,950000,3,1.0,SAN FRANCISCO,1250,2813,1925,239,760,,Sold,,,http://www.redfin.com/CA/San-Francisco/1171-Capitol-Ave-94112/home/815451,MLSListings,ML81650106,N,Y,37.723128,-122.4594266
PAST SALE,June-15-2017,Single Family Residential,1321 Plymouth Ave,San Francisco,CA,94112,1550000,2,1.5,Westwood Park,2176,3515,1919,229,712,7,Sold,,,http://www.redfin.com/CA/San-Francisco/1321-Plymouth-Ave-94112/home/1873646,San Francisco MLS,455211,N,Y,37.7263396,-122.456674
PAST SALE,June-12-2017,Single Family Residential,833 Head St,San Francisco,CA,94132,1910000,3,1.25,Ingleside Terrace,1760,8285,1926,232,1085,,Sold,,,http://www.redfin.com/CA/San-Francisco/833-Head-St-94132/home/2009370,San Francisco MLS,457570,N,Y,37.7224755,-122.4639823
PAST SALE,June-27-2017,Single Family Residential,447 Faxon Ave,San Francisco,CA,94112,1050000,3,1.0,Ingleside,938,2809,1922,217,1119,,Sold,,,http://www.redfin.com/CA/San-Francisco/447-Faxon-Ave-94112/home/815485,San Francisco MLS,457572,N,Y,37.7227114,-122.4604323
PAST SALE,November-16-2017,Single Family Residential,286 Trumbull St,San Francisco,CA,94112,608000,3,1.0,Excelsior,862,2100,1951,75,705,,Sold,,,http://www.redfin.com/CA/San-Francisco/286-Trumbull-St-94112/home/767632,San Francisco MLS,464100,N,Y,37.730718,-122.424183
PAST SALE,November-21-2017,Single Family Residential,35 Cayuga Ave,San Francisco,CA,94112,810000,3,1.5,Mission Terrace,1390,2064,1932,70,583,,Sold,,,http://www.redfin.com/CA/San-Francisco/35-Cayuga-Ave-94112/home/1850521,San Francisco MLS,464426,N,Y,37.7313997,-122.4292321
PAST SALE,March-30-2017,Multi-Family (5+ Unit),2338 Vicente St,San Francisco,CA,94116,1702000,4,,Parkside,3755,2495,1951,306,453,,Sold,,,http://www.redfin.com/CA/San-Francisco/2338-Vicente-St-94116/home/663575,San Francisco MLS,454150,N,Y,37.7387969,-122.4922046
PAST SALE,April-27-2017,Single Family Residential,2247 45th Ave,SAN FRANCISCO,CA,94116,1025000,2,1.5,SAN FRANCISCO,1145,2996,1927,278,895,,Sold,,,http://www.redfin.com/CA/San-Francisco/2247-45th-Ave-94116/home/1860622,MLSListings,ML81644925,N,Y,37.744655,-122.5039959
PAST SALE,April-25-2017,Single Family Residential,2438 45th Ave,San Francisco,CA,94116,1170000,3,2.0,Outer Parkside,1647,3000,1944,280,710,,Sold,,,http://www.redfin.com/CA/San-Francisco/2438-45th-Ave-94116/home/884656,San Francisco MLS,455425,N,Y,37.7410885,-122.5032653
PAST SALE,May-5-2017,Single Family Residential,2701 41st Ave,San Francisco,CA,94116,1200000,5,3.0,Outer Parkside,2620,1746,1947,270,458,,Sold,,,http://www.redfin.com/CA/San-Francisco/2701-41st-Ave-94116/home/1620806,San Francisco MLS,456579,N,Y,37.7362762,-122.4990831
PAST SALE,June-12-2017,Multi-Family (2-4 Unit),2386-2390 34th Ave,San Francisco,CA,94116,1200000,4,3.0,Parkside,2358,1746,1945,232,509,,Sold,,,http://www.redfin.com/CA/San-Francisco/2390-34th-Ave-94116/home/100810660,San Francisco MLS,457712,N,Y,37.7426437,-122.4916068
PAST SALE,,Single Family Residential,2131 43rd Ave,San Francisco,CA,94116,1019533,,1.0,,995,2996,1944,,1025,,,,,http://www.redfin.com/CA/San-Francisco/2131-43rd-Ave-94116/home/1428391,,,N,Y,37.7468792,-122.5019578
PAST SALE,May-12-2017,Single Family Residential,2418 47th Ave,San Francisco,CA,94116,1300000,3,3.5,Outer Parkside,1550,2996,1940,263,839,,Sold,,,http://www.redfin.com/CA/San-Francisco/2418-47th-Ave-94116/home/1469643,San Francisco MLS,456572,N,Y,37.741323,-122.505334
PAST SALE,June-2-2017,Single Family Residential,2507 42nd Ave,San Francisco,CA,94116,1150000,2,1.0,Outer Parkside,1000,2063,1948,242,1150,,Sold,,,http://www.redfin.com/CA/San-Francisco/2507-42nd-Ave-94116/home/1446016,San Francisco MLS,456963,N,Y,37.7398875,-122.5004051
PAST SALE,May-22-2017,Single Family Residential,2339 37th Ave,San Francisco,CA,94116,1700000,5,4.5,Outer Parkside,2805,2996,1936,253,606,,Sold,,,http://www.redfin.com/CA/San-Francisco/2339-37th-Ave-94116/home/1900098,San Francisco MLS,457081,N,Y,37.7432988,-122.4952959
PAST SALE,March-17-2017,Single Family Residential,2319 47th Ave,San Francisco,CA,94116,1200000,2,1.0,Outer Parkside,1400,2996,1937,319,857,,Sold,,,http://www.redfin.com/CA/San-Francisco/2319-47th-Ave-94116/home/943982,San Francisco MLS,454528,N,Y,37.7431627,-122.5060719
PAST SALE,June-30-2017,Single Family Residential,2944 Ulloa St,San Francisco,CA,94116,1762500,5,4.0,Parkside,,2495,1924,214,,,Sold,,,http://www.redfin.com/CA/San-Francisco/2944-Ulloa-St-94116/home/1394781,San Francisco MLS,459001,N,Y,37.7408519,-122.4882203
PAST SALE,April-25-2017,Single Family Residential,2422 41st Ave,San Francisco,CA,94116,1225000,3,1.0,Outer Parkside,1162,2996,1946,280,1054,,Sold,,,http://www.redfin.com/CA/San-Francisco/2422-41st-Ave-94116/home/1693615,San Francisco MLS,456314,N,Y,37.741532,-122.4989838
PAST SALE,July-11-2017,Single Family Residential,2242 35th Ave,San Francisco,CA,94116,1388000,2,1.0,Parkside,1500,2996,1937,203,925,,Sold,,,http://www.redfin.com/CA/San-Francisco/2242-35th-Ave-94116/home/1603920,San Francisco MLS,458308,N,Y,37.7452104,-122.4927522
PAST SALE,July-7-2017,Single Family Residential,2729 35th Ave,San Francisco,CA,94116,1805000,6,5.0,Pine Lake Park,3265,3005,1940,207,553,,Sold,,,http://www.redfin.com/CA/San-Francisco/2729-35th-Ave-94116/home/665619,San Francisco MLS,458239,N,Y,37.7363294,-122.4926719
PAST SALE,May-9-2017,Single Family Residential,2695 46th Ave,San Francisco,CA,94116,925000,3,2.0,Outer Parkside,1400,1746,1955,266,661,,Sold,,,http://www.redfin.com/CA/San-Francisco/2695-46th-Ave-94116/home/1921730,San Francisco MLS,455179,N,Y,37.736313,-122.504479
PAST SALE,June-30-2017,Single Family Residential,2246 30th Ave,San Francisco,CA,94116,1462000,3,1.5,Parkside,1540,2996,1939,214,949,,Sold,,,http://www.redfin.com/CA/San-Francisco/2246-30th-Ave-94116/home/1873120,San Francisco MLS,458491,N,Y,37.7453933,-122.487454
PAST SALE,March-22-2017,Condo/Co-op,901 Bayshore Blvd #202,San Francisco,CA,94124,305000,1,1.0,Silver Terrace,527,,2003,314,579,383,Sold,,,http://www.redfin.com/CA/San-Francisco/901-Bayshore-Blvd-94124/unit-202/home/12401966,San Francisco MLS,454997,N,Y,37.7326762,-122.4042747
PAST SALE,,Single Family Residential,2093 Bancroft Ave,San Francisco,CA,94124,949000,3,3.0,,2350,2500,1992,,404,,,,,http://www.redfin.com/CA/San-Francisco/2093-Bancroft-Ave-94124/home/1213614,,,N,Y,37.73062,-122.4021104
PAST SALE,June-1-2017,Single Family Residential,180 Maddux Ave,San Francisco,CA,94124,835000,5,1.5,Silver Terrace,1778,2186,1940,243,470,,Sold,,,http://www.redfin.com/CA/San-Francisco/180-Maddux-Ave-94124/home/1273132,San Francisco MLS,455502,N,Y,37.7327091,-122.3999121
PAST SALE,July-5-2017,Condo/Co-op,120 Burrows St #1,SAN FRANCISCO,CA,94134,620000,2,1.5,SAN FRANCISCO,959,4900,1980,209,647,350,Sold,,,http://www.redfin.com/CA/San-Francisco/120-Burrows-St-94134/unit-1/home/102820936,MLSListings,ML81652224,N,Y,37.728905,-122.4047
PAST SALE,,Condo/Co-op,120 Burrows St Apt 1,San Francisco,CA,94134,620000,2,2.0,,959,,1980,,647,,,,,http://www.redfin.com/CA/San-Francisco/120-Burrows-St-94134/unit-1/home/1301986,,,N,Y,37.728905,-122.4047
PAST SALE,,Single Family Residential,46 Mercury St,San Francisco,CA,94124,450000,2,1.0,,1125,2121,1941,,400,,,,,http://www.redfin.com/CA/San-Francisco/46-Mercury-St-94124/home/1671328,,,N,Y,37.7319161,-122.4018136
PAST SALE,April-26-2017,Single Family Residential,2638 Phelps St,San Francisco,CA,94124,960000,5,2.0,Bayview,1749,1820,1947,279,549,,Sold,,,http://www.redfin.com/CA/San-Francisco/2638-Phelps-St-94124/home/1036019,San Francisco MLS,455498,N,Y,37.7289096,-122.401366
PAST SALE,,Single Family Residential,430 Ellington Ave,San Francisco,CA,94112,845000,,1.0,,1375,2996,1927,,615,,,,,http://www.redfin.com/CA/San-Francisco/430-Ellington-Ave-94112/home/2028251,,,N,Y,37.7119204,-122.4473956
PAST SALE,March-17-2017,Single Family Residential,3 Mercato Ct,San Francisco,CA,94131,2175000,4,3.0,Glen Park,3640,2962,1977,319,598,,Sold,,,http://www.redfin.com/CA/San-Francisco/3-Mercato-Ct-94131/home/1102456,San Francisco MLS,454320,N,Y,37.7351011,-122.4425477
PAST SALE,,Single Family Residential,2149 Castro St,San Francisco,CA,94131,4350000,,1.0,,850,2779,1913,,5118,,,,,http://www.redfin.com/CA/San-Francisco/2149-Castro-St-94131/home/1150677,,,N,Y,37.7442378,-122.4330732
PAST SALE,April-11-2017,Condo/Co-op,135 Red Rock Way Unit 310L,San Francisco,CA,94131,463000,0,1.0,Diamond Heights,474,,1972,294,977,454,Sold,,,http://www.redfin.com/CA/San-Francisco/135-Red-Rock-Way-94131/unit-310L/home/1929815,San Francisco MLS,455780,N,Y,37.7462028,-122.4419974
PAST SALE,April-21-2017,Condo/Co-op,5108 Diamond Hts Unit A,San Francisco,CA,94131,865000,2,2.0,Diamond Heights,,,,284,,644,Sold,,,http://www.redfin.com/CA/San-Francisco/5108-Diamond-Heights-Blvd-94131/unit-A/home/840534,San Francisco MLS,455740,N,Y,37.746697,-122.441968
PAST SALE,June-30-2017,Condo/Co-op,950 Duncan St Unit 206E,San Francisco,CA,94131,725000,1,1.0,Diamond Heights,744,,1972,214,974,526,Sold,,,http://www.redfin.com/CA/San-Francisco/950-Duncan-St-94131/unit-206E/home/1816305,San Francisco MLS,458309,N,Y,37.7454272,-122.4414335
PAST SALE,,Condo/Co-op,60 Ora Way Unit H211,San Francisco,CA,94131,214000,1,1.0,,409,,1975,,523,,,,,http://www.redfin.com/CA/San-Francisco/60-Ora-Way-94131/unit-H211/home/843390,,,N,Y,37.7410468,-122.4379879
PAST SALE,June-15-2017,Condo/Co-op,60 Ora Way Unit H211,San Francisco,CA,94131,213833,0,1.0,Diamond Heights,409,,1975,229,523,519,Sold,,,http://www.redfin.com/CA/San-Francisco/60-Ora-Way-94131/unit-H211/home/109941258,San Francisco MLS,452624,N,Y,37.7410468,-122.4379879
PAST SALE,May-5-2017,Single Family Residential,583 Moultrie St,San Francisco,CA,94110,1900000,3,3.0,Bernal Heights,1552,1750,2015,270,1224,,Sold,,,http://www.redfin.com/CA/San-Francisco/583-Moultrie-St-94110/home/765202,San Francisco MLS,456393,N,Y,37.7373951,-122.4157461
PAST SALE,April-19-2017,Condo/Co-op,8100 Oceanview Ter #119,San Francisco,CA,94132,560000,1,1.0,Ingleside Heights,669,,,286,837,425,Sold,,,http://www.redfin.com/CA/San-Francisco/8100-Ocean-View-Ter-94132/unit-119/home/1947255,San Francisco MLS,455686,N,Y,37.7104841,-122.4666514
PAST SALE,,Condo/Co-op,8300 Ocean View Ter Apt 204,San Francisco,CA,94132,685000,2,2.0,,1021,,2002,,671,,,,,http://www.redfin.com/CA/San-Francisco/8300-Ocean-View-Ter-94132/unit-204/home/866436,,,N,Y,37.7098446,-122.4678576
PAST SALE,March-23-2017,Condo/Co-op,8100 Oceanview Ter #101,San Francisco,CA,94132,545000,1,1.0,Ingleside Heights,669,,,313,815,,Sold,,,http://www.redfin.com/CA/San-Francisco/8100-Ocean-View-Ter-94132/unit-101/home/1844486,San Francisco MLS,453588,N,Y,37.7104841,-122.4666514
PAST SALE,May-2-2017,Condo/Co-op,8300 Oceanview Ter #205,San Francisco,CA,94132,712800,2,2.0,Ingleside Heights,1068,,2002,273,667,489,Sold,,,http://www.redfin.com/CA/San-Francisco/8300-Ocean-View-Ter-94132/unit-205/home/2022903,San Francisco MLS,456153,N,Y,37.7098446,-122.4678576
PAST SALE,,Condo/Co-op,8100 Ocean View Ter Apt 213,San Francisco,CA,94132,680000,2,2.0,,950,,2002,,716,,,,,http://www.redfin.com/CA/San-Francisco/8100-Ocean-View-Ter-94132/unit-213/home/1106150,,,N,Y,37.7104841,-122.4666514
PAST SALE,June-13-2017,Single Family Residential,939 Randolph St,San Francisco,CA,94132,875000,3,2.0,Ingleside Heights,1520,6311,1940,231,576,,Sold,,,http://www.redfin.com/CA/San-Francisco/939-Randolph-St-94132/home/1346228,San Francisco MLS,457077,N,Y,37.7139877,-122.471138
PAST SALE,,Single Family Residential,217 Montana St,San Francisco,CA,94112,845000,,1.0,,781,3123,1946,,1082,,,,,http://www.redfin.com/CA/San-Francisco/217-Montana-St-94112/home/1850647,,,N,Y,37.7164529,-122.4597537
PAST SALE,April-6-2017,Single Family Residential,306 Victoria St,San Francisco,CA,94132,960000,3,3.0,Ingleside Heights,1719,2495,1947,299,558,,Sold,,,http://www.redfin.com/CA/San-Francisco/306-Victoria-St-94132/home/1410896,San Francisco MLS,454755,N,Y,37.716314,-122.4650787
PAST SALE,June-30-2017,Single Family Residential,1050 Capitol Ave,San Francisco,CA,94132,1050000,4,3.0,Ingleside,1469,2588,1962,214,715,,Sold,,,http://www.redfin.com/CA/San-Francisco/1050-Capitol-Ave-94112/home/1961965,San Francisco MLS,457320,N,Y,37.7209021,-122.4589658
PAST SALE,July-12-2017,Single Family Residential,289 Montana St,San Francisco,CA,94112,923000,3,2.0,Oceanview,1700,1873,1953,202,543,,Sold,,,http://www.redfin.com/CA/San-Francisco/289-Montana-St-94112/home/1776388,San Francisco MLS,456852,N,Y,37.7164381,-122.4621876
PAST SALE,April-11-2017,Single Family Residential,291 Topeka Ave,San Francisco,CA,94124,880000,5,3.0,Silver Terrace,2528,2426,1942,294,348,,Sold,,,http://www.redfin.com/CA/San-Francisco/291-Topeka-Ave-94124/home/1422988,San Francisco MLS,455083,N,Y,37.7321842,-122.3957896
PAST SALE,,Single Family Residential,10 Apollo St,San Francisco,CA,94124,378000,3,1.0,,952,2287,1945,,397,,,,,http://www.redfin.com/CA/San-Francisco/10-Apollo-St-94124/home/748422,,,N,Y,37.7326412,-122.3973474
PAST SALE,April-10-2017,Single Family Residential,116 Orsi,San Francisco,CA,94124,915000,3,2.0,Bayview,1394,1659,1998,295,656,21,Sold,,,http://www.redfin.com/CA/San-Francisco/116-Orsi-Cir-94124/home/1158310,San Francisco MLS,455119,N,Y,37.7280966,-122.3982296
PAST SALE,April-28-2017,Single Family Residential,75 Brighton Ave,San Francisco,CA,94122,1000000,3,2.0,Ingleside,1490,2809,1928,277,671,,Sold,,,http://www.redfin.com/CA/San-Francisco/75-Brighton-Ave-94112/home/1346100,San Francisco MLS,456362,N,Y,37.7195905,-122.4553397
PAST SALE,June-15-2017,Single Family Residential,78 Lee Ave,San Francisco,CA,94112,1250000,4,3.0,Ingleside,2252,2809,1961,229,555,,Sold,,,http://www.redfin.com/CA/San-Francisco/78-Lee-Ave-94112/home/821840,San Francisco MLS,457771,N,Y,37.7196557,-122.4538674
PAST SALE,,Single Family Residential,45 Broad St,San Francisco,CA,94112,815000,7,3.0,,1850,3123,1924,,441,,,,,http://www.redfin.com/CA/San-Francisco/45-Broad-St-94112/home/831134,,,N,Y,37.7130134,-122.4548236
PAST SALE,,Single Family Residential,1155 Plymouth Ave,San Francisco,CA,94112,317000,4,2.0,,2101,2809,1993,,151,,,,,http://www.redfin.com/CA/San-Francisco/1155-Plymouth-Ave-94112/home/814196,,,N,Y,37.7229992,-122.456402
PAST SALE,March-31-2017,Single Family Residential,1771 Quint St,San Francisco,CA,94124,736000,2,1.0,Silver Terrace,,,1942,305,,,Sold,,,http://www.redfin.com/CA/San-Francisco/1771-Quint-St-94124/home/936672,San Francisco MLS,454829,N,Y,37.7348145,-122.3989438
PAST SALE,April-28-2017,Condo/Co-op,4132 3rd St #6,San Francisco,CA,94124,987500,2,2.0,Bayview,1432,,2014,277,690,488,Sold,,,http://www.redfin.com/CA/San-Francisco/4132-3rd-St-94124/unit-6/home/63073264,San Francisco MLS,454809,N,Y,37.7398796,-122.3891287
PAST SALE,June-9-2017,Single Family Residential,65 Rebecca Ln,San Francisco,CA,94124,850000,3,2.0,Bayview,1383,992,1992,235,615,60,Sold,,,http://www.redfin.com/CA/San-Francisco/65-Rebecca-Ln-94124/home/743201,San Francisco MLS,457326,N,Y,37.7380778,-122.3834015
PAST SALE,June-8-2017,Single Family Residential,31 Maddux Ave,SAN FRANCISCO,CA,94124,795000,2,1.0,SAN FRANCISCO,850,2596,1943,236,935,,Sold,,,http://www.redfin.com/CA/San-Francisco/31-Maddux-Ave-94124/home/751597,MLSListings,ML81642679,N,Y,37.7347034,-122.3980967
PAST SALE,May-23-2017,Single Family Residential,232 Stratford Dr,San Francisco,CA,94132,1250000,2,1.0,Lakeside,1480,3606,1941,252,845,,Sold,,,http://www.redfin.com/CA/San-Francisco/232-Stratford-Dr-94132/home/1918737,San Francisco MLS,453426,N,Y,37.7207527,-122.4739081
PAST SALE,June-30-2017,Single Family Residential,20 Summit Way,San Francisco,CA,94132,1463977,3,3.5,Stonestown,2058,,2017,214,711,195,Sold,,,http://www.redfin.com/CA/San-Francisco/20-Summit-Way-94132/home/108991931,San Francisco MLS,454795,N,Y,37.7145642,-122.4743947
PAST SALE,,Condo/Co-op,208 N Lake Merced Hls Apt 1E,San Francisco,CA,94132,695000,,2.0,,1242,,1975,,560,,,,,http://www.redfin.com/CA/San-Francisco/208-N-Lake-Merced-Hls-94132/unit-1E/home/2025412,,,N,Y,37.713405,-122.4833831
PAST SALE,,Single Family Residential,21 Summit Way,San Francisco,CA,94132,1410000,3,2.0,,1625,1295,,,868,,,,,http://www.redfin.com/CA/San-Francisco/21-Summit-Way-94132/home/108957148,,,N,Y,37.7148334,-122.4746408
PAST SALE,,Condo/Co-op,60 Summit Way,San Francisco,CA,94132,1168000,2,2.0,,1547,,2015,,755,,,,,http://www.redfin.com/CA/San-Francisco/60-Summit-Way-94132/home/110052815,,,N,Y,37.7139691,-122.4744807
PAST SALE,March-23-2017,Condo/Co-op,62 Summit Way,San Francisco,CA,94132,1318230,3,2.5,Stonestown,1824,,2017,313,723,251,Sold,,,http://www.redfin.com/CA/San-Francisco/62-Summit-Way-94132/home/105522193,San Francisco MLS,445596,N,Y,37.7139691,-122.4744807
PAST SALE,,Single Family Residential,62 Castillo St,San Francisco,CA,94134,562000,,1.0,,1037,2495,1949,,542,,,,,http://www.redfin.com/CA/San-Francisco/62-Castillo-St-94134/home/2005584,,,N,Y,37.7084569,-122.4183351
PAST SALE,April-24-2017,Single Family Residential,126 MONTEREY Blvd,San Francisco,CA,94131,1250000,3,2.0,Sunnyside,1450,2558,1960,281,862,,Sold,,,http://www.redfin.com/CA/San-Francisco/126-Monterey-Blvd-94131/home/1410356,EBRD/CCAR/Bay East,40774693,N,Y,37.7317727,-122.4381002
PAST SALE,April-28-2017,Single Family Residential,2 Miraloma Dr,San Francisco,CA,94127,2795000,5,4.5,Monterey Heights,5919,4000,1989,277,472,,Sold,,,http://www.redfin.com/CA/San-Francisco/2-Miraloma-Dr-94127/home/690106,San Francisco MLS,455714,N,Y,37.7402378,-122.459988
PAST SALE,June-6-2017,Single Family Residential,260 Yerba Buena Ave,San Francisco,CA,94127,1750000,3,2.0,Monterey Heights,1700,4194,1927,238,1029,,Sold,,,http://www.redfin.com/CA/San-Francisco/260-Yerba-Buena-Ave-94127/home/1192001,San Francisco MLS,457652,N,Y,37.7342097,-122.45975
PAST SALE,July-13-2017,Single Family Residential,320 Guttenberg,San Francisco,CA,94112,1080000,3,2.0,Crocker Amazon,1570,17,1960,201,688,,Sold,,,http://www.redfin.com/CA/San-Francisco/320-Guttenberg-St-94112/home/1431286,San Francisco MLS,456911,N,Y,37.7088823,-122.4426259
PAST SALE,March-27-2017,Single Family Residential,745 Goettingen St,San Francisco,CA,94134,875000,4,3.0,Portola,1363,2996,1941,309,642,,Sold,,,http://www.redfin.com/CA/San-Francisco/745-Goettingen-St-94134/home/1464332,San Francisco MLS,454797,N,Y,37.7227448,-122.4046747
PAST SALE,,Single Family Residential,326 Santiago St,San Francisco,CA,94116,390000,,1.0,,1260,2840,1927,,310,,,,,http://www.redfin.com/CA/San-Francisco/326-Santiago-St-94116/home/1889398,,,N,Y,37.7453305,-122.4708783
PAST SALE,May-5-2017,Single Family Residential,2331 18th Ave,San Francisco,CA,94116,1700000,4,2.0,Inner Parkside,1796,2996,1926,270,947,,Sold,,,http://www.redfin.com/CA/San-Francisco/2331-18th-Ave-94116/home/1437087,San Francisco MLS,456745,N,Y,37.744325,-122.475038
PAST SALE,April-28-2017,Single Family Residential,64 Mercedes Way,San Francisco,CA,94127,2700000,4,3.5,Ingleside Terrace,3400,7740,1918,277,794,,Sold,,,http://www.redfin.com/CA/San-Francisco/64-Mercedes-Way-94127/home/1850411,San Francisco MLS,455942,N,Y,37.7279896,-122.4699406
PAST SALE,June-15-2017,Condo/Co-op,2790 19th Ave #2,San Francisco,CA,94132,915000,2,2.0,West Portal,1240,,1979,229,738,754,Sold,,,http://www.redfin.com/CA/San-Francisco/2790-19th-Ave-94132/unit-2/home/22088756,San Francisco MLS,459546,N,Y,37.7360463,-122.4742311
PAST SALE,,Condo/Co-op,2760 19th Ave Unit 2,San Francisco,CA,94132,915000,2,2.0,,1240,,1979,,738,,,,,http://www.redfin.com/CA/San-Francisco/2760-19th-Ave-94132/unit-2/home/666531,,,N,Y,37.7360972,-122.4751623
PAST SALE,March-24-2017,Single Family Residential,1501 Monterey Blvd,San Francisco,CA,94127,3100000,3,2.5,St. Francis Wood,3236,6000,1924,312,958,,Sold,,,http://www.redfin.com/CA/San-Francisco/1501-Monterey-Blvd-94127/home/2037006,San Francisco MLS,456038,N,Y,37.7324527,-122.4651134
PAST SALE,March-24-2017,Condo/Co-op,1 Crescent Way #1109,San Francisco,CA,94134,780000,2,2.0,San Francisco County,1063,42105,2001,312,734,475,Sold,,,http://www.redfin.com/CA/San-Francisco/1-Crescent-Way-94134/unit-1109/home/22880090,BAREIS,21701452,N,Y,37.71084,-122.390181
PAST SALE,,Vacant Land,1051 Ingerson Ave Unit V,San Francisco,CA,94124,300000,,,,,2495,1900,,,,,,,http://www.redfin.com/CA/San-Francisco/1051-Ingerson-Ave-94124/unit-V/home/110062840,,,N,Y,37.719445,-122.394147
PAST SALE,May-26-2017,Single Family Residential,1266 Fitzgerald Ave,San Francisco,CA,94124,855000,3,2.0,Bayview,1216,2500,1957,249,703,,Sold,,,http://www.redfin.com/CA/San-Francisco/1266-Fitzgerald-Ave-94124/home/1004920,San Francisco MLS,456546,N,Y,37.7218686,-122.3925008
PAST SALE,,Single Family Residential,1285 Fitzgerald Ave,San Francisco,CA,94124,700000,3,1.0,,1042,2502,1900,,672,,,,,http://www.redfin.com/CA/San-Francisco/1285-Fitzgerald-Ave-94124/home/144064407,,,N,Y,37.7217008,-122.392968
PAST SALE,May-10-2017,Single Family Residential,177 College Ave,San Francisco,CA,94112,1770000,3,2.5,Bernal Heights,1822,2474,1924,265,971,,Sold,,,http://www.redfin.com/CA/San-Francisco/177-College-Ave-94112/home/1863338,San Francisco MLS,456566,N,Y,37.7354692,-122.4255829
PAST SALE,May-8-2017,Single Family Residential,224 Miguel St,San Francisco,CA,94131,1410000,2,1.0,Glen Park,1295,2796,1900,267,1089,,Sold,,,http://www.redfin.com/CA/San-Francisco/224-Miguel-St-94131/home/808705,San Francisco MLS,456713,N,Y,37.737311,-122.428163
PAST SALE,May-30-2017,Single Family Residential,161 Crescent Ave,SAN FRANCISCO,CA,94110,1325000,3,2.5,SAN FRANCISCO,1275,2495,1909,245,1039,,Sold,,,http://www.redfin.com/CA/San-Francisco/161-Crescent-Ave-94110/home/767070,MLSListings,ML81648531,N,Y,37.735334,-122.421214
PAST SALE,June-29-2017,Single Family Residential,19 Justin Dr,San Francisco,CA,94112,2160000,4,4.0,Bernal Heights,2312,4120,1924,215,934,,Sold,,,http://www.redfin.com/CA/San-Francisco/19-Justin-Dr-94112/home/1955910,San Francisco MLS,458031,N,Y,37.7347358,-122.4233829
PAST SALE,March-16-2017,Single Family Residential,39 Naylor St,San Francisco,CA,94112,1275000,5,3.5,Crocker Amazon,3030,2774,1915,320,421,,Sold,,,http://www.redfin.com/CA/San-Francisco/39-Naylor-St-94112/home/1822006,San Francisco MLS,448724,N,Y,37.7110391,-122.433517
PAST SALE,April-28-2017,Single Family Residential,30 Canyon Dr,San Francisco,CA,94112,895000,3,2.0,Crocker Amazon,1463,4038,1947,277,612,,Sold,,,http://www.redfin.com/CA/San-Francisco/30-Canyon-Dr-94112/home/794289,San Francisco MLS,455330,N,Y,37.709041,-122.4305966
PAST SALE,May-26-2017,Single Family Residential,200 Cordova St,San Francisco,CA,94112,1081640,3,1.5,Crocker Amazon,1602,3014,1914,249,675,,Sold,,,http://www.redfin.com/CA/San-Francisco/200-Cordova-St-94112/home/1214651,San Francisco MLS,456306,N,Y,37.7114259,-122.4357169
PAST SALE,,Multi-Family (2-4 Unit),522 Paris St,San Francisco,CA,94112,1088000,5,3.0,,1900,2500,1923,,573,,,,,http://www.redfin.com/CA/San-Francisco/522-Paris-St-94112/home/1863054,,,N,Y,37.720549,-122.436132
PAST SALE,,Single Family Residential,326 Naples St,San Francisco,CA,94112,939000,,1.0,,776,2500,1900,,1210,,,,,http://www.redfin.com/CA/San-Francisco/326-Naples-St-94112/home/1149990,,,N,Y,37.7236237,-122.4293895
PAST SALE,,Single Family Residential,319 Edinburgh St,San Francisco,CA,94112,290000,2,1.0,,1250,2500,1947,,232,,,,,http://www.redfin.com/CA/San-Francisco/319-Edinburgh-St-94112/home/1016602,,,N,Y,37.7239249,-122.4297037
PAST SALE,June-27-2017,Single Family Residential,1219 Naples St,San Francisco,CA,94112,1000000,2,2.0,Crocker Amazon,1200,2626,1924,217,833,,Sold,,,http://www.redfin.com/CA/San-Francisco/1219-Naples-St-94112/home/2025206,San Francisco MLS,458515,N,Y,37.7113999,-122.437901
PAST SALE,,Single Family Residential,329 Baltimore Way,San Francisco,CA,94112,872000,,1.0,,1168,3014,1961,,747,,,,,http://www.redfin.com/CA/San-Francisco/329-Baltimore-Way-94112/home/799612,,,N,Y,37.7085717,-122.4379265
PAST SALE,May-26-2017,Single Family Residential,69 Bitting Ave,San Francisco,CA,94124,990000,5,3.5,Bayview,1901,1784,1998,249,521,250,Sold,,,http://www.redfin.com/CA/San-Francisco/69-Bitting-Ave-94124/home/1301492,San Francisco MLS,456133,N,Y,37.7268642,-122.3986841
PAST SALE,,Single Family Residential,320 Wayland St,San Francisco,CA,94134,750000,,1.0,,1000,2600,1915,,750,,,,,http://www.redfin.com/CA/San-Francisco/320-Wayland-St-94134/home/778140,,,N,Y,37.7259859,-122.4055769
PAST SALE,April-28-2017,Single Family Residential,874 Silver Ave,SAN FRANCISCO,CA,94134,1020000,2,1.0,SAN FRANCISCO,1150,2387,1947,277,887,,Sold,,,http://www.redfin.com/CA/San-Francisco/874-Silver-Ave-94134/home/1646878,MLSListings,ML81644126,N,Y,37.7287754,-122.4177949
PAST SALE,June-13-2017,Single Family Residential,364 Hale St,San Francisco,CA,94134,950000,2,1.0,Portola,783,2173,1927,231,1213,,Sold,,,http://www.redfin.com/CA/San-Francisco/364-Hale-St-94134/home/767743,San Francisco MLS,457763,N,Y,37.7311701,-122.41223
PAST SALE,July-13-2017,Single Family Residential,32 Amherst St,SAN FRANCISCO,CA,94134,770000,2,1.0,SAN FRANCISCO,920,3558,1925,201,837,,Sold,,,http://www.redfin.com/CA/San-Francisco/32-Amherst-St-94134/home/773880,MLSListings,ML81652572,N,Y,37.7283668,-122.417342
PAST SALE,April-28-2017,Single Family Residential,666 Cayuga Ave,San Francisco,CA,94112,1360666,2,2.0,Mission Terrace,,,1941,277,,,Sold,,,http://www.redfin.com/CA/San-Francisco/666-Cayuga-Ave-94112/home/820239,San Francisco MLS,455989,N,Y,37.7277827,-122.436706
PAST SALE,April-5-2017,Single Family Residential,347 Lisbon St,San Francisco,CA,94112,875000,3,1.0,Excelsior,1450,2495,1907,300,603,,Sold,,,http://www.redfin.com/CA/San-Francisco/347-Lisbon-St-94112/home/1185360,San Francisco MLS,455437,N,Y,37.7227073,-122.4327612
PAST SALE,May-12-2017,Single Family Residential,140 Ocean Ave,San Francisco,CA,94112,930000,3,2.0,Mission Terrace,1152,2056,1922,263,807,,Sold,,,http://www.redfin.com/CA/San-Francisco/140-Ocean-Ave-94112/home/1980809,San Francisco MLS,456427,N,Y,37.7236588,-122.4398122
PAST SALE,May-12-2017,Single Family Residential,250 Circular Ave,San Francisco,CA,94131,780000,2,1.0,Sunnyside,872,2051,1922,263,894,,Sold,,,http://www.redfin.com/CA/San-Francisco/250-Circular-Ave-94131/home/1481091,San Francisco MLS,453605,N,Y,37.7303769,-122.4399841
PAST SALE,July-13-2017,Single Family Residential,401 Paris St,San Francisco,CA,94112,1225000,3,1.5,Excelsior,1755,2495,1925,201,698,,Sold,,,http://www.redfin.com/CA/San-Francisco/401-Paris-St-94112/home/2032193,San Francisco MLS,459079,N,Y,37.722192,-122.4342591
PAST SALE,,Single Family Residential,249 Theresa St,San Francisco,CA,94112,500000,4,3.0,,1700,2500,1911,,294,,,,,http://www.redfin.com/CA/San-Francisco/249-Theresa-St-94112/home/976305,,,N,Y,37.7300006,-122.4362945
PAST SALE,,Condo/Co-op,49 Ocean Ave #8,San Francisco,CA,94112,159000,2,2.0,,1220,,2002,,130,,,,,http://www.redfin.com/CA/San-Francisco/49-Ocean-Ave-94112/unit-8/home/870311,,,N,Y,37.7235761,-122.4369104
PAST SALE,,Condo/Co-op,49 Ocean Ave #9,San Francisco,CA,94112,120500,2,2.0,,922,,2002,,131,,,,,http://www.redfin.com/CA/San-Francisco/49-Ocean-Ave-94112/unit-9/home/1568375,,,N,Y,37.7235761,-122.4369104
PAST SALE,September-21-2017,Single Family Residential,62 Santa Ysabel Ave,San Francisco,CA,94112,1240000,2,1.0,Mission Terrace,,3123,1921,131,,,Sold,,,http://www.redfin.com/CA/San-Francisco/62-Santa-Ysabel-Ave-94112/home/1970552,San Francisco MLS,459315,N,Y,37.7276619,-122.4391715
PAST SALE,August-11-2017,Single Family Residential,80 Santa Ysabel Ave,San Francisco,CA,94112,1120000,2,1.0,Mission Terrace,1281,3123,1921,172,874,,Sold,,,http://www.redfin.com/CA/San-Francisco/80-Santa-Ysabel-Ave-94112/home/1960571,San Francisco MLS,460024,N,Y,37.7278245,-122.4394843
PAST SALE,October-24-2017,Single Family Residential,82 Harrington St,San Francisco,CA,94112,650000,1,1.0,Mission Terrace,528,2495,1912,98,1231,,Sold,,,http://www.redfin.com/CA/San-Francisco/82-Harrington-St-94112/home/954934,San Francisco MLS,460740,N,Y,37.725975,-122.435738
PAST SALE,October-20-2017,Single Family Residential,275 London St,San Francisco,CA,94112,1415000,3,2.0,Excelsior,1795,2500,1912,102,788,,Sold,,,http://www.redfin.com/CA/San-Francisco/275-London-St-94112/home/773466,San Francisco MLS,462745,N,Y,37.7246266,-122.4335301
PAST SALE,,Single Family Residential,333 Brazil Ave,San Francisco,CA,94112,262500,,1.0,,1200,2495,1923,,219,,,,,http://www.redfin.com/CA/San-Francisco/333-Brazil-Ave-94112/home/1353571,,,N,Y,37.7234576,-122.4317872
PAST SALE,May-5-2017,Condo/Co-op,8300 Oceanview Ter #207,San Francisco,CA,94132,700000,2,2.0,Ingleside Heights,961,,2002,270,728,487,Sold,,,http://www.redfin.com/CA/San-Francisco/8300-Ocean-View-Ter-94132/unit-207/home/1729229,San Francisco MLS,456665,N,Y,37.7098446,-122.4678576
PAST SALE,June-22-2017,Single Family Residential,235 Flournoy St,San Francisco,CA,94112,1068000,4,3.0,Outer Mission,2048,2500,1988,222,521,,Sold,,,http://www.redfin.com/CA/San-Francisco/235-Flournoy-St-94112/home/2032553,San Francisco MLS,455777,N,Y,37.7088116,-122.4624492
PAST SALE,July-17-2017,Single Family Residential,282 Saint Charles Ave,SAN FRANCISCO,CA,94132,787000,1,1.0,SAN FRANCISCO,728,1067,1939,197,1081,,Sold,,,http://www.redfin.com/CA/San-Francisco/282-Saint-Charles-Ave-94132/home/1283888,MLSListings,ML81656868,N,Y,37.7089408,-122.4694153
PAST SALE,August-29-2017,Single Family Residential,140 Bepler St,Daly City,CA,94014,1280000,4,3.0,Original Daly City,1862,2500,1928,154,687,,Sold,,,http://www.redfin.com/CA/Daly-City/140-Bepler-St-94014/home/545749,San Francisco MLS,458370,N,Y,37.7080759,-122.463463
PAST SALE,May-18-2017,Single Family Residential,80 Laidley St,San Francisco,CA,94131,5400000,5,6.0,Glen Park,4410,3798,2017,257,1224,,Sold,,,http://www.redfin.com/CA/San-Francisco/80-Laidley-St-94131/home/918041,San Francisco MLS,454432,N,Y,37.7404373,-122.4313238
PAST SALE,June-28-2017,Single Family Residential,536 Laidley St,San Francisco,CA,94131,1250000,4,3.0,Glen Park,2136,3297,1906,216,585,,Sold,,,http://www.redfin.com/CA/San-Francisco/536-Laidley-St-94131/unit-A/home/809876,San Francisco MLS,456943,N,Y,37.735861,-122.431558
PAST SALE,,Single Family Residential,227 Surrey St,San Francisco,CA,94131,740000,,1.0,,866,2500,1926,,855,,,,,http://www.redfin.com/CA/San-Francisco/227-Surrey-St-94131/home/1551626,,,N,Y,37.7356767,-122.4356732
PAST SALE,October-16-2017,Single Family Residential,17-21 Van Buren St,San Francisco,CA,94131,968000,3,2.0,Glen Park,,,1913,106,,,Sold,,,http://www.redfin.com/CA/San-Francisco/17-Van-Buren-St-94131/home/1142270,San Francisco MLS,462768,N,Y,37.7365067,-122.4353543
PAST SALE,October-20-2017,Single Family Residential,1 Miguel St,San Francisco,CA,94131,2600000,3,2.5,Glen Park,2040,5724,1957,102,1275,,Sold,,,http://www.redfin.com/CA/San-Francisco/1-Miguel-St-94131/home/1133667,San Francisco MLS,463489,N,Y,37.7392924,-122.4309526
PAST SALE,January-24-2018,Single Family Residential,2430 Castro St,San Francisco,CA,94131,4715000,4,5.5,Noe Valley,4382,2622,1914,6,1076,,Sold,,,http://www.redfin.com/CA/San-Francisco/2430-Castro-St-94131/home/1640580,San Francisco MLS,465789,N,Y,37.7420196,-122.433515
PAST SALE,May-26-2017,Single Family Residential,27 Urbano St,San Francisco,CA,94127,1900000,4,2.0,Ingleside Terrace,2114,7498,1912,249,899,,Sold,,,http://www.redfin.com/CA/San-Francisco/27-Urbano-Dr-94127/home/1249266,San Francisco MLS,457290,N,Y,37.7247124,-122.4636516
PAST SALE,July-18-2017,Single Family Residential,68 Fairfield Way,San Francisco,CA,94127,1575000,2,1.5,Mount Davidson Manor,1838,3410,1929,196,857,,Sold,,,http://www.redfin.com/CA/San-Francisco/68-Fairfield-Way-94127/home/955089,San Francisco MLS,459257,N,Y,37.727509,-122.463162
PAST SALE,July-14-2017,Single Family Residential,735 Victoria St,San Francisco,CA,94127,1501000,3,1.0,Ingleside Terrace,1234,5989,1925,200,1216,,Sold,,,http://www.redfin.com/CA/San-Francisco/735-Victoria-St-94127/home/996695,San Francisco MLS,458517,N,Y,37.7238586,-122.4645823
PAST SALE,July-14-2017,Single Family Residential,51 Keystone Way,San Francisco,CA,94127,1575000,3,2.0,Mount Davidson Manor,2059,2774,1928,200,765,,Sold,,,http://www.redfin.com/CA/San-Francisco/51-Keystone-Way-94127/home/2008538,San Francisco MLS,458811,N,Y,37.7267753,-122.4627978
PAST SALE,September-12-2017,Single Family Residential,125 Pinehurst Way,San Francisco,CA,94127,1525000,2,1.0,Mount Davidson Manor,1175,2844,1931,140,1298,,Sold,,,http://www.redfin.com/CA/San-Francisco/125-Pinehurst-Way-94127/home/1993287,San Francisco MLS,461175,N,Y,37.7287631,-122.4646862
PAST SALE,August-15-2017,Single Family Residential,2061 Ocean Ave,SAN FRANCISCO,CA,94117,1200000,4,1.5,SAN FRANCISCO,1394,6246,1922,168,861,,Sold,,,http://www.redfin.com/CA/San-Francisco/2061-Ocean-Ave-94127/home/813506,MLSListings,ML81634075,N,Y,37.7261858,-122.465356
PAST SALE,October-13-2017,Single Family Residential,1155 Monterey Blvd,SAN FRANCISCO,CA,94127,2575000,5,5.0,SAN FRANCISCO,3468,4447,1926,109,743,2,Sold,,,http://www.redfin.com/CA/San-Francisco/1155-Monterey-Blvd-94127/home/701718,MLSListings,ML81670969,N,Y,37.7299066,-122.4610463
PAST SALE,,Single Family Residential,1375 Plymouth Ave,San Francisco,CA,94112,1540000,,1.0,,1460,3645,1919,,1055,,,,,http://www.redfin.com/CA/San-Francisco/1375-Plymouth-Ave-94112/home/1827935,,,N,Y,37.7272537,-122.4567573
PAST SALE,December-15-2017,Condo/Co-op,1490 Ocean Ave #305,SAN FRANCISCO,CA,94112,1184651,2,2.0,SAN FRANCISCO,1043,,2017,46,1136,657,Sold,,,http://www.redfin.com/CA/San-Francisco/1490-Ocean-Ave-94112/unit-305/home/143997339,MLSListings,ML81680594,N,Y,37.7246063,-122.4578161
PAST SALE,December-18-2017,Condo/Co-op,1490 Ocean #401,San Francisco,CA,94112,1480000,3,2.0,Ingleside,1262,,,43,1173,796,Sold,,,http://www.redfin.com/CA/San-Francisco/1490-Ocean-Ave-94112/unit-401/home/144095897,San Francisco MLS,464033,N,Y,37.7246063,-122.4578161
PAST SALE,December-26-2017,Condo/Co-op,1490 Ocean Ave #204,San Francisco,CA,94112,1140000,2,2.0,Ingleside,1099,,2017,35,1037,667,Sold,,,http://www.redfin.com/CA/San-Francisco/1490-Ocean-Ave-94112/unit-204/home/113746849,San Francisco MLS,463308,N,Y,37.7246063,-122.4578161
PAST SALE,November-30-2017,Single Family Residential,14 Fairfield Way,San Francisco,CA,94127,1350000,3,2.0,Mount Davidson Manor,1252,4835,1928,61,1078,,Sold,,,http://www.redfin.com/CA/San-Francisco/14-Fairfield-Way-94127/home/699839,San Francisco MLS,461588,N,Y,37.7261897,-122.4633835
PAST SALE,December-15-2017,Condo/Co-op,1490 Ocean Ave #402,SAN FRANCISCO,CA,94112,1538608,3,2.0,SAN FRANCISCO,1318,,2017,46,1167,708,Sold,,,http://www.redfin.com/CA/San-Francisco/1490-Ocean-Ave-94112/unit-402/home/113747133,MLSListings,ML81680590,N,Y,37.7246063,-122.4578161
PAST SALE,January-10-2018,Condo/Co-op,1490 Ocean Ave #404,San Francisco,CA,94112,1170000,2,2.0,Ingleside,1099,,2017,20,1065,757,Sold,,,http://www.redfin.com/CA/San-Francisco/1490-Ocean-Ave-94112/unit-404/home/144328333,San Francisco MLS,465091,N,Y,37.7246063,-122.4578161
PAST SALE,January-24-2018,Multi-Family (2-4 Unit),213-215 Dorado Ter,San Francisco,CA,94112,2050000,6,4.0,Mount Davidson Manor,2710,2141,1990,6,756,,Sold,,,http://www.redfin.com/CA/San-Francisco/215-Dorado-Ter-94112/home/1976105,San Francisco MLS,464560,N,Y,37.7260685,-122.461311
PAST SALE,May-12-2017,Condo/Co-op,280 28th St #1,San Francisco,CA,94131,1100000,3,2.0,Noe Valley,,,1971,263,,299,Sold,,,http://www.redfin.com/CA/San-Francisco/280-28th-St-94131/unit-1/home/40166929,San Francisco MLS,455509,N,Y,37.745442,-122.428528
PAST SALE,June-19-2017,Condo/Co-op,226 27th St #3,San Francisco,CA,94131,725000,2,1.0,Noe Valley,,,,225,,347,Sold,,,http://www.redfin.com/CA/San-Francisco/226-27th-St-94131/unit-3/home/40483217,San Francisco MLS,457736,N,Y,37.747182,-122.4258545
PAST SALE,April-12-2017,Single Family Residential,4163 26th St,San Francisco,CA,94114,1560000,1,1.0,Noe Valley,,2848,1907,293,,,Sold,,,http://www.redfin.com/CA/San-Francisco/4163-26th-St-94131/home/1372040,San Francisco MLS,455877,N,Y,37.7479576,-122.4328834
PAST SALE,July-10-2017,Condo/Co-op,180 Day St,San Francisco,CA,94131,1425000,2,2.0,Noe Valley,,,,204,,200,Sold,,,http://www.redfin.com/CA/San-Francisco/180-Day-St-94131/home/11743171,San Francisco MLS,458136,N,Y,37.743175,-122.426062
PAST SALE,July-12-2017,Multi-Family (2-4 Unit),3936-3942 26th St,San Francisco,CA,94131,2440000,,,Noe Valley,4650,3227,1908,202,525,,Sold,,,http://www.redfin.com/CA/San-Francisco/3942-26th-St-94131/home/102822594,San Francisco MLS,457166,N,Y,37.7485913,-122.4280848
PAST SALE,May-18-2017,Condo/Co-op,394 Fair Oaks St #3,San Francisco,CA,94110,1575000,2,1.0,Noe Valley,1727,,1900,257,912,336,Sold,,,http://www.redfin.com/CA/San-Francisco/394-Fair-Oaks-St-94110/unit-3/home/1400378,San Francisco MLS,457605,N,Y,37.7504342,-122.4241505
PAST SALE,June-2-2017,Condo/Co-op,471 29th St Unit A,San Francisco,CA,94131,950000,1,1.0,Noe Valley,695,,1900,242,1367,,Sold,,,http://www.redfin.com/CA/San-Francisco/471-29th-St-94131/unit-A/home/22044080,San Francisco MLS,458154,N,Y,37.7432299,-122.430355
PAST SALE,April-10-2017,Single Family Residential,1164 Noe St,San Francisco,CA,94114,1635000,2,1.0,Noe Valley,1200,2000,1923,295,1363,,Sold,,,http://www.redfin.com/CA/San-Francisco/1164-Noe-St-94114/home/1363399,San Francisco MLS,455313,N,Y,37.7503315,-122.4320329
PAST SALE,September-18-2017,Condo/Co-op,1404 Noe St,San Francisco,CA,94131,1407000,2,1.5,Noe Valley,1185,,1969,134,1187,283,Sold,,,http://www.redfin.com/CA/San-Francisco/1404-Noe-St-94131/home/802503,San Francisco MLS,461235,N,Y,37.746438,-122.431692
PAST SALE,May-31-2017,Condo/Co-op,3861 25th St Unit A,San Francisco,CA,94114,535000,0,1.0,Noe Valley,,,1900,244,,168,Sold,,,http://www.redfin.com/CA/San-Francisco/3861A-25th-St-94114/home/1721012,San Francisco MLS,457143,N,Y,37.749907,-122.426374
PAST SALE,September-25-2017,Single Family Residential,4177 Cesar Chavez St,San Francisco,CA,94131,2301000,3,2.0,Noe Valley,1795,2848,1900,127,1282,,Sold,,,http://www.redfin.com/CA/San-Francisco/4177-Cesar-Chavez-St-94131/home/1843071,San Francisco MLS,461481,N,Y,37.7471867,-122.4331167
PAST SALE,September-26-2017,Single Family Residential,409 27th St,San Francisco,CA,94131,1600000,2,1.0,Noe Valley,1000,2848,1900,126,1600,,Sold,,,http://www.redfin.com/CA/San-Francisco/409-27th-St-94131/home/1912579,San Francisco MLS,463339,N,Y,37.7465388,-122.4296411
PAST SALE,November-3-2017,Single Family Residential,1615 Church St,San Francisco,CA,94131,1875000,2,1.0,Noe Valley,1225,2500,1905,88,1531,,Sold,,,http://www.redfin.com/CA/San-Francisco/1615-Church-St-94131/home/1142152,San Francisco MLS,463335,N,Y,37.744779,-122.426456
PAST SALE,June-7-2017,Single Family Residential,2090 CASTRO St,San Francisco,CA,94131,2315500,5,3.0,Noe Valley,2345,3528,1978,237,987,,Sold,,,http://www.redfin.com/CA/San-Francisco/2090-Castro-St-94131/home/1409642,EBRD/CCAR/Bay East,40779395,N,Y,37.7450723,-122.433696
PAST SALE,,Single Family Residential,314 Duncan St,San Francisco,CA,94131,1600000,,1.0,,1242,2465,1900,,1288,,,,,http://www.redfin.com/CA/San-Francisco/314-Duncan-St-94131/home/801156,,,N,Y,37.746283,-122.4276474
PAST SALE,December-13-2017,Multi-Family (2-4 Unit),1408-1410 Noe St,San Francisco,CA,94131,1675000,5,3.5,Noe Valley,2508,2162,1969,48,668,,Sold,,,http://www.redfin.com/CA/San-Francisco/1408-Noe-St-94131/home/1233045,San Francisco MLS,463887,N,Y,37.746374,-122.431686
PAST SALE,November-27-2017,Multi-Family (2-4 Unit),3877 Cesar Chavez St,San Francisco,CA,94114,1835000,3,3.0,Noe Valley,2127,2848,1900,64,863,,Sold,,,http://www.redfin.com/CA/San-Francisco/3877-Cesar-Chavez-St-94131/home/1046112,San Francisco MLS,464035,N,Y,37.747546,-122.4264728
PAST SALE,January-23-2018,Multi-Family (2-4 Unit),370 370A 27th St,San Francisco,CA,94131,2060000,4,2.0,Noe Valley,2000,,,7,1030,,Sold,,,http://www.redfin.com/CA/San-Francisco/370-27th-St-94131/unit-370A/home/1696717,San Francisco MLS,466572,N,Y,37.7469632,-122.4285834
PAST SALE,December-29-2017,Single Family Residential,468 Valley St,San Francisco,CA,94131,1299000,1,1.0,Noe Valley,1175,2848,1910,32,1106,,Sold,,,http://www.redfin.com/CA/San-Francisco/468-Valley-St-94131/home/1105055,San Francisco MLS,463345,N,Y,37.744382,-122.432695
PAST SALE,March-27-2017,Condo/Co-op,150 Lombard St #504,San Francisco,CA,94111,820000,1,1.0,North Waterfront,804,,1975,309,1020,646,Sold,,,http://www.redfin.com/CA/San-Francisco/150-Lombard-St-94111/unit-504/home/112968117,San Francisco MLS,453174,N,Y,37.8042225,-122.4042321
PAST SALE,April-3-2017,Condo/Co-op,152 Lombard St #304,San Francisco,CA,94111,1100000,2,2.0,North Waterfront,1395,,1975,302,789,1044,Sold,,,http://www.redfin.com/CA/San-Francisco/152-Lombard-St-94111/unit-304/home/102814707,San Francisco MLS,454042,N,Y,37.80445,-122.404178
PAST SALE,April-4-2017,Condo/Co-op,240 Lombard St #635,San Francisco,CA,94111,535000,0,1.0,North Waterfront,477,,1993,301,1122,826,Sold,,,http://www.redfin.com/CA/San-Francisco/240-Lombard-St-94111/unit-635/home/2032964,San Francisco MLS,454741,N,Y,37.8040152,-122.4052531
PAST SALE,,Condo/Co-op,1360 Montgomery St Apt 11,San Francisco,CA,94133,3350000,0,1.0,,1138,,1936,,2944,,,,,http://www.redfin.com/CA/San-Francisco/1360-Montgomery-St-94133/unit-11/home/1466173,,,N,Y,37.8017724,-122.4043841
PAST SALE,,Multi-Family (2-4 Unit),526 Vallejo St,San Francisco,CA,94133,4750000,,4.0,,2420,1925,1907,,1963,,,,,http://www.redfin.com/CA/San-Francisco/526-Vallejo-St-94133/home/978499,,,N,Y,37.7990845,-122.406156
PAST SALE,September-12-2017,Multi-Family (5+ Unit),662-668 Clay St,San Francisco,CA,94111,12250000,,,Financial District,23200,8748,1912,140,528,,Sold,,,http://www.redfin.com/CA/San-Francisco/668-Clay-St-94111/home/113055184,San Francisco MLS,454296,N,Y,37.79466,-122.4043261
PAST SALE,September-13-2017,Townhouse,101 Lombard St Unit 23W,San Francisco,CA,94111,875000,1,1.0,North Waterfront,804,,1983,139,1088,734,Sold,,,http://www.redfin.com/CA/San-Francisco/101-Lombard-St-94111/unit-23W/home/124085717,San Francisco MLS,459322,N,Y,37.8035204,-122.4043894
PAST SALE,December-15-2017,Townhouse,170 Pacific Ave #35,San Francisco,CA,94111,2198000,3,3.0,Financial District,1865,,1986,46,1179,925,Sold,,,http://www.redfin.com/CA/San-Francisco/170-Pacific-Ave-94111/unit-35/home/143077026,San Francisco MLS,460784,N,Y,37.798253,-122.399172
PAST SALE,September-21-2017,Condo/Co-op,733 Front St #701,San Francisco,CA,94111,3400000,2,2.5,Financial District,1578,,,131,2155,891,Sold,,,http://www.redfin.com/CA/San-Francisco/733-Front-St-94111/unit-701/home/21967056,San Francisco MLS,462992,N,Y,37.7980568,-122.40012
PAST SALE,,Condo/Co-op,640 Davis St Unit 6,San Francisco,CA,94111,2000000,3,4.0,,2098,,1983,,953,,,,,http://www.redfin.com/CA/San-Francisco/640-Davis-St-94111/unit-6/home/545569,,,N,Y,37.7984405,-122.3983781
PAST SALE,December-13-2017,Townhouse,550 Davis St #27,San Francisco,CA,94111,2075000,3,2.5,Financial District,2020,,1981,48,1027,1154,Sold,,,http://www.redfin.com/CA/San-Francisco/550-Davis-St-94111/unit-27/home/547533,San Francisco MLS,461194,N,Y,37.7974207,-122.3981644
PAST SALE,,Condo/Co-op,101 Lombard St #101,San Francisco,CA,94111,1450000,,2.0,,1238,,1983,,1171,,,,,http://www.redfin.com/CA/San-Francisco/101-Lombard-St-94111/unit-101/home/1458996,,,N,Y,37.8035204,-122.4043894
PAST SALE,December-20-2017,Townhouse,550 Davis St #14,San Francisco,CA,94111,2250000,3,2.5,Financial District,2020,,1981,41,1114,1242,Sold,,,http://www.redfin.com/CA/San-Francisco/550-Davis-St-94111/unit-14/home/1887588,San Francisco MLS,464890,N,Y,37.7974207,-122.3981644
PAST SALE,April-5-2017,Condo/Co-op,1230 Mason St #5,San Francisco,CA,94108,1270000,3,2.0,Nob Hill,,,1908,300,,450,Sold,,,http://www.redfin.com/CA/San-Francisco/1230-Mason-St-94108/unit-5/home/21671712,San Francisco MLS,454015,N,Y,37.7949465,-122.411267
PAST SALE,March-29-2017,Multi-Family (5+ Unit),1135-1143 Pacific Ave,San Francisco,CA,94133,3850000,10,,Nob Hill,6696,3781,1973,307,575,,Sold,,,http://www.redfin.com/CA/San-Francisco/1143-Pacific-Ave-94133/home/100810671,San Francisco MLS,449689,N,Y,37.7959307,-122.4140376
PAST SALE,April-24-2017,Condo/Co-op,8 Russian Hill Pl #3,San Francisco,CA,94133,2500000,2,2.0,Russian Hill,1800,,1957,281,1389,,Sold,,,http://www.redfin.com/CA/San-Francisco/8-Russian-Hill-Pl-94133/unit-3/home/113537475,San Francisco MLS,456073,N,Y,37.7984763,-122.414997
PAST SALE,April-25-2017,Condo/Co-op,1333 Jones St #1102,San Francisco,CA,94109,1775000,1,2.0,Nob Hill,,,1961,280,,1440,Sold,,,http://www.redfin.com/CA/San-Francisco/1333-Jones-St-94109/unit-001102/home/22884866,San Francisco MLS,455639,N,Y,37.7936511,-122.4148841
PAST SALE,May-4-2017,Condo/Co-op,1001 Pine St #1107,San Francisco,CA,94109,588000,0,1.0,Downtown,,,1964,271,,412,Sold,,,http://www.redfin.com/CA/San-Francisco/1001-Pine-St-94109/unit-1107/home/553678,San Francisco MLS,456345,N,Y,37.790348,-122.412568
PAST SALE,May-12-2017,Condo/Co-op,1250 Jones St #1103,San Francisco,CA,94109,1570000,1,1.0,Nob Hill,1250,,1929,263,1256,684,Sold,,,http://www.redfin.com/CA/San-Francisco/1250-Jones-St-94109/unit-1103/home/1770304,San Francisco MLS,453347,N,Y,37.7931426,-122.4142372
PAST SALE,March-15-2017,Single Family Residential,880 Ashbury St,San Francisco,CA,94117,4580000,5,4.5,Buena Vista Park,4535,3188,1908,321,1010,,Sold,,,http://www.redfin.com/CA/San-Francisco/880-Ashbury-St-94117/home/601211,San Francisco MLS,435521,N,Y,37.7659363,-122.4458345
