SALE TYPE,SOLD DATE,PROPERTY TYPE,ADDRESS,CITY,STATE,ZIP,PRICE,BEDS,BATHS,LOCATION,SQUARE FEET,LOT SIZE,YEAR BUILT,DAYS ON MARKET,$/SQUARE FEET,HOA/MONTH,STATUS,NEXT OPEN HOUSE START TIME,NEXT OPEN HOUSE END TIME,URL (SEE http://www.redfin.com/buy-a-home/comparative-market-analysis FOR INFO ON PRICING),SOURCE,MLS#,FAVORITE,INTERESTED,LATITUDE,LONGITUDE
PAST SALE,May-17-2017,Single Family Residential,3066 Hillside Dr,BURLINGAME,CA,94010,2400000,4,4.0,BURLINGAME,3645,10640,1951,258,658,,Sold,,,http://www.redfin.com/CA/Burlingame/3066-Hillside-Dr-94010/home/677769,MLSListings,ML81642406,Y,Y,37.575106,-122.3930528
PAST SALE,March-24-2017,Multi-Family (5+ Unit),752 Masson Ave,San Bruno,CA,94066,1500000,5,,San Bruno,4272,4700,1962,312,351,,Sold,,,http://www.redfin.com/CA/San-Bruno/752-Masson-Ave-94066/home/637854,San Francisco MLS,452788,N,Y,37.6290875,-122.4128149
PAST SALE,,Single Family Residential,724 2nd Ave,San Bruno,CA,94066,120000,3,2.0,,1000,3700,1913,,120,,,,,http://www.redfin.com/CA/San-Bruno/724-2nd-Ave-94066/home/637681,,,N,Y,37.6292959,-122.409515
PAST SALE,April-20-2017,Single Family Residential,625 Easton Ave,SAN BRUNO,CA,94066,1450000,5,3.5,SAN BRUNO,3945,6994,1911,285,368,,Sold,,,http://www.redfin.com/CA/San-Bruno/625-Easton-Ave-94066/home/1672778,MLSListings,ML81643514,N,Y,37.6264689,-122.4128182
PAST SALE,,Single Family Residential,621 Elm Ave,San Bruno,CA,94066,353000,2,1.0,,1140,5000,1941,,310,,,,,http://www.redfin.com/CA/San-Bruno/621-Elm-Ave-94066/home/1049684,,,N,Y,37.6249401,-122.4173236
PAST SALE,February-17-2017,Condo/Co-op,417 Piccadilly Pl #4,SAN BRUNO,CA,94066,320000,0,1.0,SAN BRUNO,450,,1971,347,711,291,Sold,,,http://www.redfin.com/CA/San-Bruno/417-Piccadilly-Pl-94066/unit-4/home/1186600,MLSListings,ML81633769,N,Y,37.631451,-122.431109
PAST SALE,February-21-2017,Single Family Residential,320 Seaside Dr,PACIFICA,CA,94044,840000,3,2.0,PACIFICA,1050,5800,1955,343,800,,Sold,,,http://www.redfin.com/CA/Pacifica/320-Seaside-Dr-94044/home/1605791,MLSListings,ML81635042,N,Y,37.6196853,-122.488596
PAST SALE,February-27-2017,Townhouse,805 Cortez Ln,FOSTER CITY,CA,94404,1235000,3,2.5,FOSTER CITY,1640,1474,1975,337,753,195,Sold,,,http://www.redfin.com/CA/Foster-City/805-Cortez-Ln-94404/home/935361,MLSListings,ML81635370,Y,Y,37.5526158,-122.2666665
PAST SALE,February-22-2017,Single Family Residential,1013 Cardiff Ln,REDWOOD CITY,CA,94061,1425000,3,2.5,REDWOOD CITY,1570,4508,1986,342,908,195,Sold,,,http://www.redfin.com/CA/Redwood-City/1013-Cardiff-Ln-94061/home/1857177,MLSListings,ML81630707,N,Y,37.4600931,-122.2207533
PAST SALE,,Single Family Residential,19 Kentfield Ct,Redwood City,CA,94061,1649000,4,2.0,,2183,3557,2016,,755,,,,,http://www.redfin.com/CA/Redwood-City/19-Kentfield-Ct-94061/home/109581821,,,N,Y,37.4641993,-122.2258955
PAST SALE,,Single Family Residential,1102 Vera Ave,Redwood City,CA,94061,437500,3,1.0,,1012,12000,1951,,432,,,,,http://www.redfin.com/CA/Redwood-City/1102-Vera-Ave-94061/home/1903830,,,N,Y,37.4738836,-122.2363265
PAST SALE,,Single Family Residential,1178 Ebener St,Redwood City,CA,94061,597000,2,1.0,,870,5358,1927,,686,,,,,http://www.redfin.com/CA/Redwood-City/1178-Ebener-St-94061/home/813696,,,N,Y,37.4736047,-122.2294017
PAST SALE,,Single Family Residential,1434 Oak Ave,Redwood City,CA,94061,1200000,3,1.0,,1050,6250,1952,,1143,,,,,http://www.redfin.com/CA/Redwood-City/1434-Oak-Ave-94061/home/1341881,,,N,Y,37.4687576,-122.2349747
PAST SALE,February-1-2017,Single Family Residential,1646 Pecan Ct,Redwood City,CA,94061,1450000,3,2.0,Redwood City,1530,6700,1957,363,948,,Sold,,,http://www.redfin.com/CA/Redwood-City/1646-Pecan-Ct-94061/home/839591,San Francisco MLS,453175,N,Y,37.4632277,-122.2289391
PAST SALE,February-22-2017,Single Family Residential,1736 Alameda De Las Pulgas,REDWOOD CITY,CA,94061,1415000,4,2.5,REDWOOD CITY,2094,7860,1952,342,676,,Sold,,,http://www.redfin.com/CA/Redwood-City/1736-Alameda-de-las-Pulgas-94061/home/2058187,MLSListings,ML81636250,Y,Y,37.4529507,-122.2366942
PAST SALE,February-10-2017,Single Family Residential,431 Vera Ave,REDWOOD CITY,CA,94061,1162000,3,2.0,REDWOOD CITY,1248,7800,1942,354,931,,Sold,,,http://www.redfin.com/CA/Redwood-City/431-Vera-Ave-94061/home/1567103,MLSListings,ML81634398,N,Y,37.4780876,-122.2302555
PAST SALE,March-20-2017,Condo/Co-op,1235 Mills St,MENLO PARK,CA,94025,950000,2,1.5,MENLO PARK,1070,,1971,316,888,460,Sold,,,http://www.redfin.com/CA/Menlo-Park/1235-Mills-St-94025/unit-5/home/985019,MLSListings,ML81638745,N,Y,37.456324,-122.184047
PAST SALE,March-21-2017,Single Family Residential,526 Nottingham Ln,FOSTER CITY,CA,94404,1800000,4,2.5,FOSTER CITY,1970,5450,1980,315,914,156,Sold,,,http://www.redfin.com/CA/Foster-City/526-Nottingham-Ln-94404/home/2020598,MLSListings,ML81638537,N,Y,37.5396205,-122.2642955
PAST SALE,,Single Family Residential,2803 Fordham St,East Palo Alto,CA,94303,212500,3,1.0,,1070,5000,1953,,199,,,,,http://www.redfin.com/CA/East-Palo-Alto/2803-Fordham-St-94303/home/1250122,,,N,Y,37.4805728,-122.1357713
PAST SALE,March-27-2017,Single Family Residential,420 Durham St,MENLO PARK,CA,94025,2080000,3,2.0,MENLO PARK,2080,7000,1948,309,1000,,Sold,,,http://www.redfin.com/CA/Menlo-Park/420-Durham-St-94025/home/1898372,MLSListings,ML81626686,N,Y,37.4651242,-122.1561934
PAST SALE,March-24-2017,Single Family Residential,2238 Lincoln St,EAST PALO ALTO,CA,94303,935888,4,2.0,EAST PALO ALTO,2000,10579,1939,312,468,,Sold,,,http://www.redfin.com/CA/East-Palo-Alto/2238-Lincoln-St-94303/home/861771,MLSListings,ML81635826,N,Y,37.4667292,-122.1454203
PAST SALE,March-18-2017,Single Family Residential,2815 Arguello Dr,BURLINGAME,CA,94010,2700000,4,3.0,BURLINGAME,2460,13500,1957,318,1098,,Sold,,,http://www.redfin.com/CA/Burlingame/2815-Arguello-Dr-94010/home/1494556,MLSListings,ML81578940,N,Y,37.5817585,-122.3912066
PAST SALE,April-1-2017,Condo/Co-op,151 El Camino Real #327,MILLBRAE,CA,94030,980000,2,2.0,MILLBRAE,1196,87644,2010,304,819,454,Sold,,,http://www.redfin.com/CA/Millbrae/151-El-Camino-Real-94030/unit-327/home/44621168,MLSListings,ML81644961,N,Y,37.5999329,-122.3894439
PAST SALE,March-24-2017,Condo/Co-op,151 El Camino Real #225,MILLBRAE,CA,94030,955000,2,2.0,MILLBRAE,1073,,2010,312,890,341,Sold,,,http://www.redfin.com/CA/Millbrae/151-El-Camino-Real-94030/unit-225/home/44621304,MLSListings,ML81637419,N,Y,37.5999329,-122.3894439
PAST SALE,,Single Family Residential,1456 Vancouver Ave,Burlingame,CA,94010,1850000,3,2.0,,2080,6000,1925,,889,,,,,http://www.redfin.com/CA/Burlingame/1456-Vancouver-Ave-94010/home/1896338,,,N,Y,37.5847302,-122.3775699
PAST SALE,April-24-2017,Condo/Co-op,1550 Frontera Way #114,MILLBRAE,CA,94030,500000,1,1.0,MILLBRAE,764,,1973,281,654,415,Sold,,,http://www.redfin.com/CA/Millbrae/1550-Frontera-Way-94030/unit-114/home/105499563,MLSListings,ML81644701,N,Y,37.5827529,-122.402997
PAST SALE,April-10-2017,Condo/Co-op,88 S Broadway #1203,MILLBRAE,CA,94030,1020000,2,2.0,MILLBRAE,1245,13631,2007,295,819,591,Sold,,,http://www.redfin.com/CA/Millbrae/88-S-Broadway-94030/unit-1203/home/17307386,MLSListings,ML81638710,N,Y,37.5972985,-122.3879682
PAST SALE,April-11-2017,Condo/Co-op,300 Murchison Dr #306,MILLBRAE,CA,94030,900000,2,2.0,MILLBRAE,1060,,1989,294,849,476,Sold,,,http://www.redfin.com/CA/Millbrae/300-Murchison-Dr-94030/unit-306/home/1989336,MLSListings,ML81633485,N,Y,37.5948231,-122.3882851
PAST SALE,,Single Family Residential,341 Hazel Ave,Millbrae,CA,94030,2375000,3,2.0,,2420,5520,1932,,981,,,,,http://www.redfin.com/CA/Millbrae/341-Hazel-Ave-94030/home/668935,,,N,Y,37.5979504,-122.3975246
PAST SALE,,Single Family Residential,1255 Murchison Dr,Millbrae,CA,94030,1810000,4,2.0,,2680,15198,1963,,675,,,,,http://www.redfin.com/CA/Millbrae/1255-Murchison-Dr-94030/home/1773226,,,N,Y,37.5903214,-122.4007451
PAST SALE,May-12-2017,Single Family Residential,2930 Adeline,BURLINGAME,CA,94010,3100000,6,6.5,BURLINGAME,4775,51750,1954,263,649,,Sold,,,http://www.redfin.com/CA/Burlingame/2930-Adeline-Dr-94010/home/2042491,MLSListings,ML81648773,N,Y,37.579114,-122.3897846
PAST SALE,April-28-2017,Single Family Residential,1541 Columbus Ave,BURLINGAME,CA,94010,2500000,5,2.5,BURLINGAME,2187,6000,1941,277,1143,,Sold,,,http://www.redfin.com/CA/Burlingame/1541-Columbus-Ave-94010/home/1956024,MLSListings,ML81645804,Y,Y,37.5853442,-122.3814468
PAST SALE,April-24-2017,Single Family Residential,2105 Poppy Dr,BURLINGAME,CA,94010,2615000,4,3.5,BURLINGAME,2230,4840,1929,281,1173,,Sold,,,http://www.redfin.com/CA/Burlingame/2105-Poppy-Dr-94010/home/1875193,MLSListings,ML81643801,Y,Y,37.584278,-122.3777741
PAST SALE,May-2-2017,Condo/Co-op,88 S Broadway #3306,MILLBRAE,CA,94030,980000,2,2.0,MILLBRAE,1262,20981,2007,273,777,467,Sold,,,http://www.redfin.com/CA/Millbrae/88-S-Broadway-94030/unit-3306/home/17307129,MLSListings,ML81642630,N,Y,37.5972985,-122.3879682
PAST SALE,March-31-2017,Single Family Residential,1901 Devereux Dr,BURLINGAME,CA,94010,2015000,3,2.5,BURLINGAME,2070,9000,1948,305,973,,Sold,,,http://www.redfin.com/CA/Burlingame/1901-Devereux-Dr-94010/home/2019235,MLSListings,ML81639854,N,Y,37.5878134,-122.3797394
PAST SALE,May-8-2017,Single Family Residential,1628 Lassen Way,BURLINGAME,CA,94010,2220000,3,2.0,BURLINGAME,1900,6000,1949,267,1168,,Sold,,,http://www.redfin.com/CA/Burlingame/1628-Lassen-Way-94010/home/2056091,MLSListings,ML81650560,N,Y,37.5896607,-122.3809529
PAST SALE,May-5-2017,Single Family Residential,2615 Summit Dr,HILLSBOROUGH,CA,94010,3250000,3,2.5,HILLSBOROUGH,2410,25265,1973,270,1349,,Sold,,,http://www.redfin.com/CA/Hillsborough/2615-Summit-Dr-94010/home/2053127,MLSListings,ML81643905,Y,Y,37.5742045,-122.3833701
PAST SALE,May-9-2017,Single Family Residential,1516 Vancouver Ave,BURLINGAME,CA,94010,3400000,4,3.0,BURLINGAME,3000,6000,2012,266,1133,,Sold,,,http://www.redfin.com/CA/Burlingame/1516-Vancouver-Ave-94010/home/1118250,MLSListings,ML81644611,Y,Y,37.5855992,-122.3791178
PAST SALE,May-31-2017,Single Family Residential,1364 Vancouver Ave,BURLINGAME,CA,94010,3350000,4,3.5,BURLINGAME,3000,6000,1924,244,1117,,Sold,,,http://www.redfin.com/CA/Burlingame/1364-Vancouver-Ave-94010/home/1896342,MLSListings,ML81647664,Y,Y,37.5828537,-122.3742656
PAST SALE,June-2-2017,Vacant Land,950 Macadamia Dr,HILLSBOROUGH,CA,94010,3350000,,,HILLSBOROUGH,,54450,,242,,,Sold,,,http://www.redfin.com/CA/Hillsborough/950-Macadamia-Dr-94010/home/94553043,MLSListings,ML81597135,N,Y,37.56838,-122.374685
PAST SALE,June-30-2017,Single Family Residential,234 Cuardo Ave,MILLBRAE,CA,94030,1100000,3,2.0,MILLBRAE,1303,5000,1945,214,844,,Sold,,,http://www.redfin.com/CA/Millbrae/234-Cuardo-Ave-94030/home/1494477,MLSListings,ML81651906,N,Y,37.6036992,-122.3871392
PAST SALE,July-14-2017,Single Family Residential,6 Blackhawk Ln,BURLINGAME,CA,94010,3588000,5,4.5,BURLINGAME,4700,32400,1994,200,763,50,Sold,,,http://www.redfin.com/CA/Burlingame/6-Blackhawk-Ln-94010/home/63847650,MLSListings,ML81655246,N,Y,37.5823887,-122.3867446
PAST SALE,May-24-2017,Single Family Residential,2723 Martinez Dr,BURLINGAME,CA,94010,2450000,3,2.5,BURLINGAME,2160,9408,1958,251,1134,,Sold,,,http://www.redfin.com/CA/Burlingame/2723-Martinez-Dr-94010/home/1321337,MLSListings,ML81647859,Y,Y,37.5824026,-122.3899387
PAST SALE,July-12-2017,Condo/Co-op,15 Mateo Ave Unit 7,MILLBRAE,CA,94030,790000,2,2.0,MILLBRAE,950,10016,1978,202,832,445,Sold,,,http://www.redfin.com/CA/Millbrae/15-Mateo-Ave-94030/unit-7/home/1696916,MLSListings,ML81651199,N,Y,37.6052329,-122.3946711
PAST SALE,June-23-2017,Single Family Residential,1637 Westmoor Rd,BURLINGAME,CA,94010,2330000,4,3.0,BURLINGAME,2560,5250,1942,221,910,,Sold,,,http://www.redfin.com/CA/Burlingame/1637-Westmoor-Rd-94010/home/1772477,MLSListings,ML81652137,Y,Y,37.5920038,-122.3790212
PAST SALE,June-23-2017,Single Family Residential,942 Baileyana Rd,HILLSBOROUGH,CA,94010,4250000,5,3.5,HILLSBOROUGH,3420,17500,1929,221,1243,,Sold,,,http://www.redfin.com/CA/Hillsborough/942-Baileyana-Rd-94010/home/687142,MLSListings,ML81653269,N,Y,37.5759813,-122.3763327
PAST SALE,June-6-2017,Single Family Residential,236 S Ashton Ave,MILLBRAE,CA,94030,1980000,3,2.0,MILLBRAE,1910,7700,1956,238,1037,,Sold,,,http://www.redfin.com/CA/Millbrae/236-S-Ashton-Ave-94030/home/1012122,MLSListings,ML81650129,N,Y,37.5906744,-122.3935382
PAST SALE,June-6-2017,Single Family Residential,1118 Eastmoor Rd,BURLINGAME,CA,94010,1825000,3,1.0,BURLINGAME,1300,5300,1945,238,1404,,Sold,,,http://www.redfin.com/CA/Burlingame/1118-Eastmoor-Rd-94010/home/2057062,MLSListings,ML81650742,Y,Y,37.5911488,-122.3748989
PAST SALE,May-23-2017,Single Family Residential,2200 Hillside Dr,BURLINGAME,CA,94010,2025000,3,1.5,BURLINGAME,1500,6000,1927,252,1350,,Sold,,,http://www.redfin.com/CA/Burlingame/2200-Hillside-Dr-94010/home/1946096,MLSListings,ML81646981,Y,Y,37.5827191,-122.3765208
PAST SALE,May-18-2017,Single Family Residential,275 Aviador Ave,MILLBRAE,CA,94030,1025100,3,2.0,MILLBRAE,1380,5000,1944,257,743,,Sold,,,http://www.redfin.com/CA/Millbrae/275-Aviador-Ave-94030/home/1674917,MLSListings,ML81646580,N,Y,37.6025131,-122.38872
PAST SALE,June-15-2017,Single Family Residential,1436 Drake Ave,BURLINGAME,CA,94010,3400000,5,3.0,BURLINGAME,2950,6000,2005,229,1153,,Sold,,,http://www.redfin.com/CA/Burlingame/1436-Drake-Ave-94010/home/1057447,MLSListings,ML81645945,N,Y,37.585688,-122.375667
PAST SALE,,Single Family Residential,1468 Bernal Ave,Burlingame,CA,94010,1650000,3,1.0,,1690,6000,1926,,976,,,,,http://www.redfin.com/CA/Burlingame/1468-Bernal-Ave-94010/home/1908077,,,N,Y,37.585621,-122.3773934
PAST SALE,June-14-2017,Condo/Co-op,88 S Broadway #3315,MILLBRAE,CA,94030,1190000,2,2.0,MILLBRAE,1367,20981,2007,230,871,480,Sold,,,http://www.redfin.com/CA/Millbrae/88-S-Broadway-94030/unit-3315/home/17307375,MLSListings,ML81646111,N,Y,37.5972985,-122.3879682
PAST SALE,May-22-2017,Condo/Co-op,1838 Ogden Dr #315,BURLINGAME,CA,94010,1278000,3,2.0,BURLINGAME,1430,,2012,253,894,599,Sold,,,http://www.redfin.com/CA/Burlingame/1838-Ogden-Dr-94010/unit-315/home/40397688,MLSListings,ML81649983,N,Y,37.5928822,-122.3869866
PAST SALE,,Single Family Residential,7 La Mesa Ct,Burlingame,CA,94010,2015000,3,2.0,,2120,13300,1979,,950,,,,,http://www.redfin.com/CA/Burlingame/7-La-Mesa-Ct-94010/home/1548120,,,N,Y,37.5775071,-122.3949879
PAST SALE,June-29-2017,Single Family Residential,25 Woodgate Ct,HILLSBOROUGH,CA,94010,3888000,4,3.5,HILLSBOROUGH,3220,29185,1949,215,1207,,Sold,,,http://www.redfin.com/CA/Hillsborough/25-Woodgate-Ct-94010/home/1358230,MLSListings,ML81651244,N,Y,37.5693073,-122.3861018
PAST SALE,May-22-2017,Single Family Residential,26 Orange Ct,HILLSBOROUGH,CA,94010,8650000,5,6.0,HILLSBOROUGH,7760,55080,1990,253,1115,,Sold,,,http://www.redfin.com/CA/Hillsborough/26-Orange-Ct-94010/home/1476144,MLSListings,ML81646022,N,Y,37.5636407,-122.3678502
PAST SALE,July-17-2017,Condo/Co-op,15 Mateo Ave #2,MILLBRAE,CA,94030,738000,2,2.0,MILLBRAE,10016,,1978,197,74,442,Sold,,,http://www.redfin.com/CA/Millbrae/15-Mateo-Ave-94030/unit-2/home/2054581,MLSListings,ML81653149,N,Y,37.6052329,-122.3946711
PAST SALE,June-15-2017,Condo/Co-op,88 S Broadway #1103,MILLBRAE,CA,94030,1000000,2,2.0,MILLBRAE,1245,13631,2007,229,803,591,Sold,,,http://www.redfin.com/CA/Millbrae/88-S-Broadway-94030/unit-1103/home/17307598,MLSListings,ML81643008,N,Y,37.5972985,-122.3879682
PAST SALE,May-12-2017,Single Family Residential,850 Almenar St,MILLBRAE,CA,94030,1780000,4,2.0,MILLBRAE,1710,7344,1953,263,1041,,Sold,,,http://www.redfin.com/CA/Millbrae/850-Almenar-St-94030/home/1564807,MLSListings,ML81645629,N,Y,37.5969506,-122.4004724
PAST SALE,June-20-2017,Single Family Residential,1810 Forest View Ave,HILLSBOROUGH,CA,94010,3560000,3,3.0,HILLSBOROUGH,2000,17820,1949,224,1780,,Sold,,,http://www.redfin.com/CA/Hillsborough/1810-Forest-View-Ave-94010/home/2045986,MLSListings,ML81652542,N,Y,37.5783778,-122.3646814
PAST SALE,,Single Family Residential,290 Poplar Ave,Millbrae,CA,94030,1550000,3,3.0,,2010,8178,1938,,771,,,,,http://www.redfin.com/CA/Millbrae/290-Poplar-Ave-94030/home/667663,,,Y,Y,37.5994075,-122.394631
PAST SALE,,Single Family Residential,1637 Albemarle Way,Burlingame,CA,94010,1100000,3,2.0,,1520,5000,1948,,724,,,,,http://www.redfin.com/CA/Burlingame/1637-Albemarle-Way-94010/home/1106639,,,N,Y,37.5911533,-122.3799516
PAST SALE,August-3-2017,Single Family Residential,1950 Willow Rd,HILLSBOROUGH,CA,94010,4650000,3,3.5,HILLSBOROUGH,3360,21280,1956,180,1384,,Sold,,,http://www.redfin.com/CA/Hillsborough/1950-Willow-Rd-94010/home/1141891,MLSListings,ML81667438,N,Y,37.5746984,-122.3646753
PAST SALE,,Single Family Residential,1431 Montero Ave,Burlingame,CA,94010,2050000,3,2.0,,1900,6100,1929,,1079,,,,,http://www.redfin.com/CA/Burlingame/1431-Montero-Ave-94010/home/1759503,,,N,Y,37.5805984,-122.3800821
PAST SALE,,Single Family Residential,265 Elder Ave,Millbrae,CA,94030,250000,4,2.0,,1630,5400,1935,,153,,,,,http://www.redfin.com/CA/Millbrae/265-Elder-Ave-94030/home/2033526,,,N,Y,37.5980592,-122.3952001
PAST SALE,August-8-2017,Single Family Residential,1010 Sequoia Ave,MILLBRAE,CA,94030,1950000,3,2.0,MILLBRAE,1830,10632,1956,175,1066,,Sold,,,http://www.redfin.com/CA/Millbrae/1010-Sequoia-Ave-94030/home/669372,MLSListings,ML81668574,N,Y,37.5928552,-122.3966711
PAST SALE,August-8-2017,Condo/Co-op,300 Murchison Dr #223,MILLBRAE,CA,94030,685000,1,1.0,MILLBRAE,734,72970,1989,175,933,431,Sold,,,http://www.redfin.com/CA/Millbrae/300-Murchison-Dr-94030/unit-223/home/1720676,MLSListings,ML81668953,N,Y,37.5948231,-122.3882851
PAST SALE,August-8-2017,Townhouse,1137 Paloma Ave Unit H,BURLINGAME,CA,94010,945000,1,1.5,BURLINGAME,1045,17250,2007,175,904,350,Sold,,,http://www.redfin.com/CA/Burlingame/1137-Paloma-Ave-94010/unit-H/home/17307287,MLSListings,ML81670025,N,Y,37.5851002,-122.3647734
PAST SALE,August-18-2017,Single Family Residential,82 Loma Vista Dr,BURLINGAME,CA,94010,2500000,4,3.5,BURLINGAME,2526,6175,1952,165,990,,Sold,,,http://www.redfin.com/CA/Burlingame/82-Loma-Vista-Dr-94010/home/2045967,MLSListings,ML81654291,N,Y,37.572489,-122.3965943
PAST SALE,,Condo/Co-op,1838 Ogden Dr Apt 306,Burlingame,CA,94010,840000,2,2.0,,1190,,2012,,706,,,,,http://www.redfin.com/CA/Burlingame/1838-Ogden-Dr-94010/unit-306/home/51671575,,,N,Y,37.5928822,-122.3869866
PAST SALE,August-25-2017,Single Family Residential,2298 Forest View Ave,HILLSBOROUGH,CA,94010,3225000,4,4.0,HILLSBOROUGH,3700,22216,1978,158,872,,Sold,,,http://www.redfin.com/CA/Hillsborough/2298-Forest-View-Ave-94010/home/1087049,MLSListings,ML81648864,N,Y,37.5731701,-122.3775481
PAST SALE,August-28-2017,Condo/Co-op,88 S Broadway #1201,MILLBRAE,CA,94030,1498625,2,2.0,MILLBRAE,1890,13631,2007,155,793,623,Sold,,,http://www.redfin.com/CA/Millbrae/88-S-Broadway-94030/unit-1201/home/17307384,MLSListings,ML81670090,N,Y,37.5972985,-122.3879682
PAST SALE,August-29-2017,Condo/Co-op,1273 El Camino Real #1,BURLINGAME,CA,94010,940000,2,2.0,BURLINGAME,1150,6826,1996,154,817,280,Sold,,,http://www.redfin.com/CA/Burlingame/1273-El-Camino-Real-94010/unit-1/home/967874,MLSListings,ML81669554,N,Y,37.585458,-122.36906
PAST SALE,June-12-2017,Single Family Residential,1447 Capuchino Ave,BURLINGAME,CA,94010,2050000,4,2.5,BURLINGAME,2740,6000,1924,232,748,,Sold,,,http://www.redfin.com/CA/Burlingame/1447-Capuchino-Ave-94010/home/678966,MLSListings,ML81644740,N,Y,37.5886031,-122.3723035
PAST SALE,September-5-2017,Condo/Co-op,300 Murchison Dr #321,MILLBRAE,CA,94030,937000,2,2.0,MILLBRAE,1052,72970,1989,147,891,503,Sold,,,http://www.redfin.com/CA/Millbrae/300-Murchison-Dr-94030/unit-321/home/2054608,MLSListings,ML81671625,N,Y,37.5948231,-122.3882851
PAST SALE,June-6-2017,Single Family Residential,1657 Lassen Way,BURLINGAME,CA,94010,2750000,4,3.0,BURLINGAME,2080,5500,1950,238,1322,,Sold,,,http://www.redfin.com/CA/Burlingame/1657-Lassen-Way-94010/home/1733242,MLSListings,ML81644009,N,Y,37.5899442,-122.3823574
PAST SALE,September-29-2017,Townhouse,1137 Paloma Ave Unit K,BURLINGAME,CA,94010,910000,1,1.5,BURLINGAME,950,17250,2007,123,958,350,Sold,,,http://www.redfin.com/CA/Burlingame/1137-Paloma-Ave-94010/unit-00000K/home/682545,MLSListings,ML81674861,N,Y,37.5851002,-122.3647734
PAST SALE,September-5-2017,Single Family Residential,1457 Benito Ave,BURLINGAME,CA,94010,2065000,3,2.0,BURLINGAME,2310,5734,1952,147,894,,Sold,,,http://www.redfin.com/CA/Burlingame/1457-Benito-Ave-94010/home/1880509,MLSListings,ML81671693,Y,Y,37.5803313,-122.3814688
PAST SALE,September-8-2017,Single Family Residential,15 Woodgate Ct,HILLSBOROUGH,CA,94010,9250000,6,9.5,HILLSBOROUGH,12616,148104,2007,144,733,,Sold,,,http://www.redfin.com/CA/Hillsborough/15-Woodgate-Ct-94010/home/685113,MLSListings,ML81533776,N,Y,37.5697214,-122.3850831
PAST SALE,April-4-2017,Multi-Family (5+ Unit),290 Richmond Dr,MILLBRAE,CA,94030,3800000,8,,MILLBRAE,9389,9963,1969,301,405,,Sold,,,http://www.redfin.com/CA/Millbrae/290-Richmond-Dr-94030/home/1394822,MLSListings,ML81635117,N,Y,37.6030727,-122.3987036
PAST SALE,,Multi-Family (2-4 Unit),160 Laurel Ave,Millbrae,CA,94030,1650000,4,3.0,,2900,6000,1972,,569,,,,,http://www.redfin.com/CA/Millbrae/160-Laurel-Ave-94030/home/1580397,,,N,Y,37.595994,-122.3963008
PAST SALE,,Single Family Residential,2800 Tiburon Way,Burlingame,CA,94010,600000,4,2.5,,2340,12600,1959,,256,,,,,http://www.redfin.com/CA/Burlingame/2800-Tiburon-Way-94010/home/1724184,,,N,Y,37.5824118,-122.391848
PAST SALE,April-24-2017,Single Family Residential,815 Pinon Ave,MILLBRAE,CA,94030,1860000,3,2.0,MILLBRAE,1730,8732,1955,281,1075,,Sold,,,http://www.redfin.com/CA/Millbrae/815-Pinon-Ave-94030/home/2053095,MLSListings,ML81642360,Y,Y,37.590681,-122.3890697
PAST SALE,March-30-2017,Single Family Residential,2814 Summit Dr,BURLINGAME,CA,94010,5100000,6,6.5,BURLINGAME,6387,17424,2015,306,798,,Sold,,,http://www.redfin.com/CA/Hillsborough/2814-Summit-Dr-94010/home/685085,MLSListings,ML81637746,N,Y,37.5711051,-122.3866572
PAST SALE,July-10-2017,Single Family Residential,945 Baileyana Rd,HILLSBOROUGH,CA,94010,2685000,5,3.5,HILLSBOROUGH,3230,11040,1963,204,831,,Sold,,,http://www.redfin.com/CA/Hillsborough/945-Baileyana-Rd-94010/home/687118,MLSListings,ML81652284,N,Y,37.5760431,-122.3768693
PAST SALE,April-7-2017,Single Family Residential,2280 Skyfarm Dr,HILLSBOROUGH,CA,94010,3150000,4,3.5,HILLSBOROUGH,3470,31845,1974,298,908,,Sold,,,http://www.redfin.com/CA/Hillsborough/2280-Skyfarm-Dr-94010/home/686078,MLSListings,ML81640213,N,Y,37.5702775,-122.37106
PAST SALE,April-13-2017,Single Family Residential,170 NEW PLACE Rd,Hillsborough,CA,94010,6888000,6,6.5,Hillsborough,6436,46368,1979,292,1070,,Sold,,,http://www.redfin.com/CA/Hillsborough/170-New-Place-Rd-94010/home/1987335,MLSListings,ML81439843,N,Y,37.5636994,-122.3672616
PAST SALE,September-22-2017,Single Family Residential,1915 Broadway,BURLINGAME,CA,94010,2895000,6,3.5,BURLINGAME,3750,6000,1993,130,772,,Sold,,,http://www.redfin.com/CA/Burlingame/1915-Broadway-94010/home/1869605,MLSListings,ML81672193,Y,Y,37.5808904,-122.3689384
PAST SALE,September-18-2017,Single Family Residential,1422 Capuchino Ave,BURLINGAME,CA,94010,1875000,3,1.5,BURLINGAME,1280,6000,1923,134,1465,,Sold,,,http://www.redfin.com/CA/Burlingame/1422-Capuchino-Ave-94010/home/1791203,MLSListings,ML81674600,Y,Y,37.5884127,-122.3712101
PAST SALE,September-22-2017,Single Family Residential,1216 Cortez Ave,BURLINGAME,CA,94010,3000000,3,2.5,BURLINGAME,1870,6000,1910,130,1604,,Sold,,,http://www.redfin.com/CA/Burlingame/1216-Cortez-Ave-94010/home/2031466,MLSListings,ML81673029,Y,Y,37.5833518,-122.368028
PAST SALE,September-19-2017,Condo/Co-op,1838 Ogden Dr #210,BURLINGAME,CA,94010,1200000,2,2.0,BURLINGAME,1190,38904,2012,133,1008,564,Sold,,,http://www.redfin.com/CA/Burlingame/1838-Ogden-Dr-94010/unit-210/home/40366670,MLSListings,ML81674356,N,Y,37.5928822,-122.3869866
PAST SALE,September-22-2017,Single Family Residential,1316 Laguna Ave,Burlingame,CA,94010,1610000,2,1.0,Burlingame,1490,5400,1924,130,1081,,Sold,,,http://www.redfin.com/CA/Burlingame/1316-Laguna-Ave-94010/home/679034,EBRD/CCAR/Bay East,40793102,N,Y,37.5881132,-122.3674552
PAST SALE,September-19-2017,Single Family Residential,1521 California Dr,BURLINGAME,CA,94010,1275000,2,1.0,BURLINGAME,970,4148,1940,133,1314,,Sold,,,http://www.redfin.com/CA/Burlingame/1521-California-Dr-94010/home/1078417,MLSListings,ML81674205,N,Y,37.5914817,-122.3733223
PAST SALE,June-15-2017,Single Family Residential,1108 Cortez Ave,BURLINGAME,CA,94010,3725000,5,5.5,BURLINGAME,2930,6000,2003,229,1271,,Sold,,,http://www.redfin.com/CA/Burlingame/1108-Cortez-Ave-94010/home/1675290,MLSListings,ML81650123,Y,Y,37.5820031,-122.3656069
PAST SALE,September-25-2017,Single Family Residential,1260 Manzanita Dr,MILLBRAE,CA,94030,2380000,3,2.0,MILLBRAE,2020,8466,1961,127,1178,,Sold,,,http://www.redfin.com/CA/Millbrae/1260-Manzanita-Dr-94030/home/1218230,MLSListings,ML81673903,N,Y,37.5889855,-122.3992373
PAST SALE,,Townhouse,1137 Paloma Ave Apt K,Burlingame,CA,94010,910000,1,1.0,,950,17250,2007,,958,,,,,http://www.redfin.com/CA/Burlingame/1137-Paloma-Ave-94010/unit-K/home/17307070,,,N,Y,37.5851002,-122.3647734
PAST SALE,,Single Family Residential,241 Lewis Ave,Millbrae,CA,94030,1600000,2,1.0,,1690,4950,1937,,947,,,,,http://www.redfin.com/CA/Millbrae/241-Lewis-Ave-94030/home/667739,,,N,Y,37.5990585,-122.3924153
PAST SALE,,Single Family Residential,12 Corte Dorado,Millbrae,CA,94030,1548000,2,2.0,,1530,9734,1959,,1012,,,,,http://www.redfin.com/CA/Millbrae/12-Corte-Dorado-94030/home/1998491,,,N,Y,37.5952438,-122.4014457
PAST SALE,October-12-2017,Single Family Residential,757 Morningside Dr,MILLBRAE,CA,94030,1688000,4,3.0,MILLBRAE,2250,5520,1974,110,750,,Sold,,,http://www.redfin.com/CA/Millbrae/757-Morningside-Dr-94030/home/1924940,MLSListings,ML81676521,N,Y,37.5966012,-122.4073605
PAST SALE,May-11-2017,Condo/Co-op,360 Vallejo Dr #112,MILLBRAE,CA,94030,840000,2,2.0,MILLBRAE,1249,,1972,264,673,579,Sold,,,http://www.redfin.com/CA/Millbrae/360-Vallejo-Dr-94030/unit-112/home/104061890,MLSListings,ML81644559,N,Y,37.5835581,-122.4039613
PAST SALE,October-25-2017,Single Family Residential,1520 Vancouver Ave,BURLINGAME,CA,94010,2050000,2,1.5,BURLINGAME,1590,6000,1927,97,1289,,Sold,,,http://www.redfin.com/CA/Burlingame/1520-Vancouver-Ave-94010/home/1247061,MLSListings,ML81680099,Y,Y,37.5856746,-122.3792739
PAST SALE,August-31-2017,Condo/Co-op,1500 Broadway #306,BURLINGAME,CA,94010,860000,2,2.0,BURLINGAME,1222,17670,1973,152,704,455,Sold,,,http://www.redfin.com/CA/Burlingame/1500-Broadway-94010/unit-306/home/1508796,MLSListings,ML81668746,N,Y,37.5841049,-122.3667227
PAST SALE,,Single Family Residential,3111 Canyon Rd,Burlingame,CA,94010,1890000,3,2.0,,1870,13200,1965,,1011,,,,,http://www.redfin.com/CA/Burlingame/3111-Canyon-Rd-94010/home/2016545,,,Y,Y,37.5718293,-122.392526
PAST SALE,October-23-2017,Single Family Residential,390 El Paseo,MILLBRAE,CA,94030,1865000,4,2.0,MILLBRAE,2300,6500,1942,99,811,,Sold,,,http://www.redfin.com/CA/Millbrae/390-El-Paseo-94030/home/1994628,MLSListings,ML81678374,N,Y,37.596876,-122.399622
PAST SALE,,Single Family Residential,1601 Davis Dr,Burlingame,CA,94010,1513091,3,2.0,,1640,5000,1953,,923,,,,,http://www.redfin.com/CA/Burlingame/1601-Davis-Dr-94010/home/1998511,,,N,Y,37.5911457,-122.3815152
PAST SALE,November-17-2017,Single Family Residential,640 Clearfield Dr,MILLBRAE,CA,94030,2340000,5,3.0,MILLBRAE,2770,7800,1966,74,845,,Sold,,,http://www.redfin.com/CA/Millbrae/640-Clearfield-Dr-94030/home/1758982,MLSListings,ML81677993,N,Y,37.5970782,-122.405569
PAST SALE,November-16-2017,Single Family Residential,1504 Highway Rd,BURLINGAME,CA,94010,1869000,3,3.0,BURLINGAME,1662,7020,1924,75,1125,,Sold,,,http://www.redfin.com/CA/Burlingame/1504-Highway-Rd-94010/home/2033616,MLSListings,ML81680800,Y,Y,37.5895926,-122.3746325
PAST SALE,November-7-2017,Single Family Residential,1460 Balboa Ave,BURLINGAME,CA,94010,2135000,3,1.0,BURLINGAME,1850,7000,1936,84,1154,,Sold,,,http://www.redfin.com/CA/Burlingame/1460-Balboa-Ave-94010/home/678003,MLSListings,ML81679659,Y,Y,37.5881595,-122.3747271
PAST SALE,November-17-2017,Single Family Residential,1448 Drake Ave,BURLINGAME,CA,94010,2125000,2,2.0,BURLINGAME,1630,6000,1914,74,1304,,Sold,,,http://www.redfin.com/CA/Burlingame/1448-Drake-Ave-94010/home/1683490,MLSListings,ML81679204,Y,Y,37.585921,-122.3760827
PAST SALE,November-2-2017,Single Family Residential,943 Hillcrest Blvd,MILLBRAE,CA,94030,1800000,2,1.0,MILLBRAE,1730,5650,1938,89,1040,,Sold,,,http://www.redfin.com/CA/Millbrae/943-Hillcrest-Blvd-94030/home/2004768,MLSListings,ML81678782,N,Y,37.59414,-122.4001314
PAST SALE,October-16-2017,Single Family Residential,2721 Martinez Dr,BURLINGAME,CA,94010,2800000,3,2.0,BURLINGAME,2770,9639,1963,106,1011,,Sold,,,http://www.redfin.com/CA/Burlingame/2721-Martinez-Dr-94010/home/1503696,MLSListings,ML81677328,N,Y,37.582597,-122.3897611
PAST SALE,,Single Family Residential,1612 Mcdonald Way,Burlingame,CA,94010,2200000,3,2.0,,1840,5500,1948,,1196,,,,,http://www.redfin.com/CA/Burlingame/1612-Mcdonald-Way-94010/home/673116,,,N,Y,37.5883575,-122.3816132
PAST SALE,October-27-2017,Single Family Residential,1553 Columbus Ave,BURLINGAME,CA,94010,2100000,3,2.0,BURLINGAME,1992,4680,1928,95,1054,,Sold,,,http://www.redfin.com/CA/Burlingame/1553-Columbus-Ave-94010/home/680506,MLSListings,ML81677886,Y,Y,37.5857257,-122.3818844
PAST SALE,November-14-2017,Single Family Residential,2217 Adeline Dr,BURLINGAME,CA,94010,2400000,4,3.0,BURLINGAME,2347,4950,1929,77,1023,,Sold,,,http://www.redfin.com/CA/Burlingame/2217-Adeline-Dr-94010/home/1476041,MLSListings,ML81684873,Y,Y,37.5840419,-122.3800241
PAST SALE,November-7-2017,Single Family Residential,1331 Carlos Ave,BURLINGAME,CA,94010,2900000,4,3.5,BURLINGAME,2776,6000,1951,84,1045,,Sold,,,http://www.redfin.com/CA/Burlingame/1331-Carlos-Ave-94010/home/2050272,MLSListings,ML81679203,Y,Y,37.5807032,-122.3766607
PAST SALE,October-31-2017,Single Family Residential,737 Jacaranda Cir,HILLSBOROUGH,CA,94010,4850000,4,3.5,HILLSBOROUGH,4000,32100,1978,91,1213,,Sold,,,http://www.redfin.com/CA/Hillsborough/737-Jacaranda-Cir-94010/home/688219,MLSListings,ML81680443,N,Y,37.5628755,-122.3721121
PAST SALE,November-28-2017,Single Family Residential,4 Christine Ln,MILLBRAE,CA,94030,1505000,2,1.0,MILLBRAE,1160,5100,1950,63,1297,,Sold,,,http://www.redfin.com/CA/Millbrae/4-Christine-Ln-94030/home/652278,MLSListings,ML81683135,N,Y,37.6013172,-122.4057753
PAST SALE,November-22-2017,Multi-Family (5+ Unit),487 Lincoln Cir,MILLBRAE,CA,94030,3260000,8,,MILLBRAE,6733,7040,1968,69,484,,Sold,,,http://www.redfin.com/CA/Millbrae/487-Lincoln-Cir-94030/home/652420,MLSListings,ML81669925,N,Y,37.6002261,-122.4023078
PAST SALE,March-17-2017,Single Family Residential,1548 Albemarle Way,BURLINGAME,CA,94010,1938000,4,4.0,BURLINGAME,3332,7800,1948,319,582,,Sold,,,http://www.redfin.com/CA/Burlingame/1548-Albemarle-Way-94010/home/1368792,MLSListings,ML81637705,N,Y,37.5902597,-122.3772911
PAST SALE,December-4-2017,Single Family Residential,1132 Millbrae Ave,MILLBRAE,CA,94030,1825000,3,2.5,MILLBRAE,3470,7350,1967,57,526,,Sold,,,http://www.redfin.com/CA/Millbrae/1132-Millbrae-Ave-94030/home/1991015,MLSListings,ML81686256,N,Y,37.5929691,-122.4003296
PAST SALE,December-1-2017,Single Family Residential,110 Willow Ave,MILLBRAE,CA,94030,1498880,4,1.0,MILLBRAE,1480,6000,1941,60,1013,,Sold,,,http://www.redfin.com/CA/Millbrae/110-Willow-Ave-94030/home/671437,MLSListings,ML81680613,N,Y,37.5977299,-122.3918294
PAST SALE,,Single Family Residential,736 Jacaranda Cir,Hillsborough,CA,94010,3200000,4,3.0,,3200,40090,1977,,1000,,,,,http://www.redfin.com/CA/Hillsborough/736-Jacaranda-Cir-94010/home/1012515,,,N,Y,37.5629914,-122.3732251
PAST SALE,November-28-2017,Single Family Residential,24 Henry Pl,MILLBRAE,CA,94030,1471000,3,1.0,MILLBRAE,1290,6570,1947,63,1140,,Sold,,,http://www.redfin.com/CA/Millbrae/24-Henry-Pl-94030/home/2016383,MLSListings,ML81680874,N,Y,37.6023374,-122.4034841
PAST SALE,December-6-2017,Single Family Residential,710 Clearfield Dr,MILLBRAE,CA,94030,1755000,4,2.5,MILLBRAE,2020,5000,1966,55,869,,Sold,,,http://www.redfin.com/CA/Millbrae/710-Clearfield-Dr-94030/home/1431401,MLSListings,ML81681703,N,Y,37.5965548,-122.4066699
PAST SALE,December-5-2017,Single Family Residential,1432 Balboa Ave,BURLINGAME,CA,94010,3270000,5,4.5,BURLINGAME,3280,7000,1997,56,997,,Sold,,,http://www.redfin.com/CA/Burlingame/1432-Balboa-Ave-94010/home/1141708,MLSListings,ML81683219,Y,Y,37.5876214,-122.3737075
PAST SALE,April-26-2017,Condo/Co-op,360 Vallejo Dr #98,MILLBRAE,CA,94030,685000,2,2.0,MILLBRAE,995,,1972,279,688,453,Sold,,,http://www.redfin.com/CA/Millbrae/360-Vallejo-Dr-94030/unit-98/home/105499791,MLSListings,ML81637617,N,Y,37.5835581,-122.4039613
PAST SALE,December-8-2017,Condo/Co-op,151 El Camino Real #318,MILLBRAE,CA,94030,1030000,2,2.0,MILLBRAE,1092,87644,2010,53,943,349,Sold,,,http://www.redfin.com/CA/Millbrae/151-El-Camino-Real-94030/unit-318/home/44621159,MLSListings,ML81681713,N,Y,37.5999329,-122.3894439
PAST SALE,,Single Family Residential,1338 Drake Ave,Burlingame,CA,94010,3585000,3,2.0,,1550,6000,1924,,2313,,,,,http://www.redfin.com/CA/Burlingame/1338-Drake-Ave-94010/home/2053103,,,Y,Y,37.5840644,-122.372763
PAST SALE,December-4-2017,Single Family Residential,2535 Summit Dr,HILLSBOROUGH,CA,94010,3150000,3,2.5,HILLSBOROUGH,3130,27600,1973,57,1006,,Sold,,,http://www.redfin.com/CA/Burlingame/2535-Summit-Dr-94010/home/685608,MLSListings,ML81683704,N,Y,37.5740179,-122.380836
PAST SALE,September-29-2017,Condo/Co-op,1500 Sherman Ave Unit 2F,BURLINGAME,CA,94010,995000,2,2.0,BURLINGAME,1400,18908,1984,123,711,589,Sold,,,http://www.redfin.com/CA/Burlingame/1500-Sherman-Ave-94010/unit-2F/home/1577846,MLSListings,ML81675691,N,Y,37.5851436,-122.3685715
PAST SALE,December-28-2017,Single Family Residential,1 Lewis Ave,MILLBRAE,CA,94030,1550000,4,1.5,MILLBRAE,2900,6000,1865,33,534,,Sold,,,http://www.redfin.com/CA/Millbrae/1-Lewis-Ave-94030/home/1368757,MLSListings,ML81681975,N,Y,37.5970931,-122.3906068
PAST SALE,January-9-2018,Single Family Residential,141 Glen Aulin Ln,BURLINGAME,CA,94010,2098000,3,2.5,BURLINGAME,1840,20037,1960,21,1140,,Sold,,,http://www.redfin.com/CA/Burlingame/141-Glen-Aulin-Ln-94010/home/1707975,MLSListings,ML81685027,N,Y,37.5705469,-122.3888595
PAST SALE,January-10-2018,Single Family Residential,250 Elder Ave,MILLBRAE,CA,94030,1600000,3,1.5,MILLBRAE,1620,5520,1930,20,988,,Sold,,,http://www.redfin.com/CA/Millbrae/250-Elder-Ave-94030/home/665172,MLSListings,ML81685877,N,Y,37.5980142,-122.39454
PAST SALE,January-16-2018,Single Family Residential,134 Loma Vista Dr,BURLINGAME,CA,94010,1740000,3,2.0,BURLINGAME,1610,6175,1950,14,1081,,Sold,,,http://www.redfin.com/CA/Burlingame/134-Loma-Vista-Dr-94010/home/1304443,MLSListings,ML81686215,N,Y,37.5710035,-122.3953717
PAST SALE,December-19-2017,Single Family Residential,2856 Adeline Dr,BURLINGAME,CA,94010,2137000,4,3.0,BURLINGAME,3420,36850,1950,42,625,,Sold,,,http://www.redfin.com/CA/Burlingame/2856-Adeline-Dr-94010/home/1994670,MLSListings,ML81677485,Y,Y,37.5815938,-122.3864576
PAST SALE,,Single Family Residential,1750 Crockett Ln,Hillsborough,CA,94010,4725000,4,3.0,,2980,30492,1950,,1586,,,,,http://www.redfin.com/CA/Hillsborough/1750-Crockett-Ln-94010/home/1941193,,,N,Y,37.5790926,-122.3656618
PAST SALE,December-20-2017,Single Family Residential,2300 Skyfarm Dr,Hillsborough,CA,94010,3850000,5,3.5,San Mateo County,5120,26389,1976,41,752,,Sold,,,http://www.redfin.com/CA/Hillsborough/2300-Skyfarm-Dr-94010/home/686571,BAREIS,21721461,N,Y,37.5696108,-122.3716388
PAST SALE,December-12-2017,Single Family Residential,1216 Vancouver Ave,BURLINGAME,CA,94010,3285000,4,3.5,BURLINGAME,2908,6000,1926,49,1130,,Sold,,,http://www.redfin.com/CA/Burlingame/1216-Vancouver-Ave-94010/home/1386175,MLSListings,ML81677593,Y,Y,37.580684,-122.370329
PAST SALE,,Single Family Residential,1660 Westmoor Rd,Burlingame,CA,94010,1500000,2,1.0,,1000,5500,1942,,1500,,,,,http://www.redfin.com/CA/Burlingame/1660-Westmoor-Rd-94010/home/675034,,,N,Y,37.5928846,-122.3799037
PAST SALE,December-27-2017,Single Family Residential,1140 Balboa Ave,BURLINGAME,CA,94010,3458000,5,4.0,BURLINGAME,2989,6000,2017,34,1157,,Sold,,,http://www.redfin.com/CA/Burlingame/1140-Balboa-Ave-94010/home/2047374,MLSListings,ML81681682,N,Y,37.5833224,-122.3661202
PAST SALE,,Single Family Residential,50 Chestnut St,San Carlos,CA,94070,1400000,2,2.0,,1680,7772,1955,,833,,,,,http://www.redfin.com/CA/San-Carlos/50-Chestnut-St-94070/home/1522997,,,N,Y,37.5110604,-122.2697604
PAST SALE,March-29-2017,Townhouse,718 Zumwalt Ln,FOSTER CITY,CA,94404,1550000,3,2.5,FOSTER CITY,1700,2700,1975,307,912,375,Sold,,,http://www.redfin.com/CA/Foster-City/718-Zumwalt-Ln-94404/home/1251624,MLSListings,ML81638717,N,Y,37.542977,-122.264047
PAST SALE,April-7-2017,Townhouse,336 Treasure Island Dr,BELMONT,CA,94002,980000,2,1.5,BELMONT,1230,1612,1990,298,797,400,Sold,,,http://www.redfin.com/CA/Belmont/336-Treasure-Island-Dr-94002/home/2046252,MLSListings,ML81638287,N,Y,37.533855,-122.269169
PAST SALE,April-20-2017,Single Family Residential,614 Greenwich Ln,FOSTER CITY,CA,94404,1850000,3,2.5,FOSTER CITY,1800,6032,1977,285,1028,219,Sold,,,http://www.redfin.com/CA/Foster-City/614-Greenwich-Ln-94404/home/1362364,MLSListings,ML81637636,N,Y,37.5433474,-122.2665738
PAST SALE,April-28-2017,Townhouse,302 Treasure Island Dr,BELMONT,CA,94002,980000,2,1.5,BELMONT,1220,1001,1990,277,803,399,Sold,,,http://www.redfin.com/CA/Belmont/302-Treasure-Island-Dr-94002/home/1607785,MLSListings,ML81649058,N,Y,37.533865,-122.268384
PAST SALE,May-5-2017,Single Family Residential,516 Hanbury Ln,FOSTER CITY,CA,94404,2068500,4,2.5,FOSTER CITY,2700,5550,1981,270,766,156,Sold,,,http://www.redfin.com/CA/Foster-City/516-Hanbury-Ln-94404/home/2041504,MLSListings,ML81644321,N,Y,37.5386041,-122.2649022
PAST SALE,May-8-2017,Single Family Residential,600 Chesterton Ave,BELMONT,CA,94002,1380000,3,1.0,BELMONT,1010,5000,1953,267,1366,,Sold,,,http://www.redfin.com/CA/Belmont/600-Chesterton-Ave-94002/home/1551024,MLSListings,ML81646893,N,Y,37.5275864,-122.2742024
PAST SALE,May-10-2017,Single Family Residential,1121 Judson St,BELMONT,CA,94002,1167888,3,1.0,BELMONT,1190,4968,1947,265,981,,Sold,,,http://www.redfin.com/CA/Belmont/1121-Judson-St-94002/home/744189,MLSListings,ML81646782,N,Y,37.523566,-122.2703104
PAST SALE,,Single Family Residential,38 Williams Ln,Foster City,CA,94404,1265000,3,2.5,,1550,3087,1986,,816,,,,,http://www.redfin.com/CA/Foster-City/38-Williams-Ln-94404/home/1943836,,,N,Y,37.5346155,-122.2680634
PAST SALE,May-17-2017,Vacant Land,0 0 Ralston Ave,BELMONT,CA,94002,550000,,,BELMONT,,24913,,258,,,Sold,,,http://www.redfin.com/CA/Belmont/0-Ralston-Ave-94002/home/112743348,MLSListings,ML81641762,Y,Y,37.5264702,-122.2700079
PAST SALE,,Single Family Residential,910 E St,Belmont,CA,94002,1595000,2,3.0,,1517,6450,1912,,1051,,,,,http://www.redfin.com/CA/Belmont/910-E-St-94002/home/1143496,,,N,Y,37.5146463,-122.2700203
PAST SALE,May-31-2017,Single Family Residential,416 Thatcher Ln,FOSTER CITY,CA,94404,1920000,3,2.5,FOSTER CITY,2390,5880,1985,244,803,100,Sold,,,http://www.redfin.com/CA/Foster-City/416-Thatcher-Ln-94404/home/1687339,MLSListings,ML81653851,N,Y,37.5376783,-122.2674721
PAST SALE,May-26-2017,Single Family Residential,1250 Martinique Ln,FOSTER CITY,CA,94404,2000000,4,3.0,FOSTER CITY,2180,4692,1976,249,917,175,Sold,,,http://www.redfin.com/CA/Foster-City/1250-Martinique-Ln-94404/home/1380394,MLSListings,ML81648778,N,Y,37.5395922,-122.2681119
PAST SALE,May-16-2017,Single Family Residential,403 Cornish Way,BELMONT,CA,94002,1310000,3,1.0,BELMONT,1010,5752,1952,259,1297,,Sold,,,http://www.redfin.com/CA/Belmont/403-Cornish-Way-94002/home/1765969,MLSListings,ML81647897,N,Y,37.5267997,-122.2733312
PAST SALE,July-7-2017,Multi-Family (5+ Unit),1160 Elmer St,BELMONT,CA,94002,3600000,1,,BELMONT,4800,9088,1953,207,750,,Sold,,,http://www.redfin.com/CA/Belmont/1160-Elmer-St-94002/home/743578,MLSListings,ML81656111,N,Y,37.520651,-122.2731868
PAST SALE,,Multi-Family (2-4 Unit),525 Walnut St,San Carlos,CA,94070,6600000,16,1.0,,10468,7750,1964,,630,,,,,http://www.redfin.com/CA/San-Carlos/525-Walnut-St-94070/home/1616343,,,N,Y,37.5069447,-122.2629244
PAST SALE,June-9-2017,Single Family Residential,297 Port Royal Ave,FOSTER CITY,CA,94404,1743300,4,3.0,FOSTER CITY,2430,6380,1980,235,717,,Sold,,,http://www.redfin.com/CA/Foster-City/297-Port-Royal-Ave-94404/home/2027801,MLSListings,ML81649763,N,Y,37.5401538,-122.2762073
PAST SALE,July-31-2017,Single Family Residential,507 Nottingham Ln,FOSTER CITY,CA,94404,1888000,4,2.5,FOSTER CITY,2350,5130,1980,183,803,156,Sold,,,http://www.redfin.com/CA/Foster-City/507-Nottingham-Ln-94404/home/1679414,MLSListings,ML81614227,N,Y,37.5396455,-122.2652302
PAST SALE,August-2-2017,Condo/Co-op,935 Old County Rd #41,BELMONT,CA,94002,1100000,3,2.0,BELMONT,1585,94173,1992,181,694,425,Sold,,,http://www.redfin.com/CA/Belmont/935-Old-County-Rd-94002/unit-41/home/1888126,MLSListings,ML81656521,N,Y,37.522282,-122.276064
PAST SALE,July-14-2017,Single Family Residential,33 Cedar St,SAN CARLOS,CA,94070,1575000,3,1.0,SAN CARLOS,1290,5500,1951,200,1221,,Sold,,,http://www.redfin.com/CA/San-Carlos/33-Cedar-St-94070/home/1891857,MLSListings,ML81651777,N,Y,37.5110954,-122.2703125
PAST SALE,May-31-2017,Single Family Residential,222 Sycamore St,SAN CARLOS,CA,94070,1233000,2,2.0,SAN CARLOS,1150,7000,1947,244,1072,,Sold,,,http://www.redfin.com/CA/San-Carlos/222-Sycamore-St-94070/home/1294673,MLSListings,ML81652318,N,Y,37.5063597,-122.2697866
PAST SALE,July-28-2017,Single Family Residential,96 Cedar St,SAN CARLOS,CA,94070,1662000,3,2.0,SAN CARLOS,1480,8700,1948,186,1123,,Sold,,,http://www.redfin.com/CA/San-Carlos/96-Cedar-St-94070/home/1734704,MLSListings,ML81667549,N,Y,37.5095833,-122.2700638
PAST SALE,August-14-2017,Single Family Residential,610 Greenwich Ln,FOSTER CITY,CA,94404,1920000,3,2.5,FOSTER CITY,1800,6254,1977,169,1067,224,Sold,,,http://www.redfin.com/CA/Foster-City/610-Greenwich-Ln-94404/home/2034901,MLSListings,ML81671697,N,Y,37.5432706,-122.2662412
PAST SALE,August-15-2017,Single Family Residential,552 Trinidad Ln,FOSTER CITY,CA,94404,1340000,3,2.0,FOSTER CITY,1620,4900,1976,168,827,95,Sold,,,http://www.redfin.com/CA/Foster-City/Undisclosed-address-94404/home/1092381,MLSListings,ML81672225,N,Y,37.5403145,-122.2668369
PAST SALE,August-18-2017,Single Family Residential,1451 Magnolia Ave,SAN CARLOS,CA,94070,1710000,4,3.0,SAN CARLOS,1930,5550,1948,165,886,,Sold,,,http://www.redfin.com/CA/San-Carlos/1451-Magnolia-Ave-94070/home/790504,MLSListings,ML81669906,N,Y,37.50577,-122.2651615
PAST SALE,,Townhouse,537 Elm St,San Carlos,CA,94070,705000,4,3.0,,3075,7750,1956,,229,,,,,http://www.redfin.com/CA/San-Carlos/537-Elm-St-94070/home/788240,,,N,Y,37.5061577,-122.2637316
PAST SALE,August-21-2017,Single Family Residential,420 Beach Park Blvd,FOSTER CITY,CA,94404,1933000,4,3.0,FOSTER CITY,2240,5225,1973,162,863,,Sold,,,http://www.redfin.com/CA/Foster-City/420-Beach-Park-Blvd-94404/home/936001,MLSListings,ML81670907,N,Y,37.5449039,-122.273822
PAST SALE,September-14-2017,Single Family Residential,1200 Judson St,BELMONT,CA,94002,1200000,3,1.0,BELMONT,1090,4968,1947,138,1101,,Sold,,,http://www.redfin.com/CA/Belmont/1200-Judson-St-94002/home/743985,MLSListings,ML81674558,N,Y,37.522864,-122.2700767
PAST SALE,August-21-2017,Single Family Residential,248 Thatcher Ln,FOSTER CITY,CA,94404,2450000,4,2.5,FOSTER CITY,2730,5880,1985,162,897,180,Sold,,,http://www.redfin.com/CA/Foster-City/248-Thatcher-Ln-94404/home/1968550,MLSListings,ML81672836,N,Y,37.5374034,-122.2691457
PAST SALE,,Single Family Residential,380 Beach Park Blvd,Foster City,CA,94404,875000,4,2.0,,1970,8075,1969,,444,,,,,http://www.redfin.com/CA/Foster-City/380-Beach-Park-Blvd-94404/home/1499401,,,N,Y,37.5445314,-122.2746947
PAST SALE,March-20-2017,Single Family Residential,1671 Hull Dr,SAN CARLOS,CA,94070,1525000,3,2.0,SAN CARLOS,1690,5800,1951,316,902,,Sold,,,http://www.redfin.com/CA/San-Carlos/1671-Hull-Dr-94070/home/1891849,MLSListings,ML81639159,Y,Y,37.5078703,-122.2708839
PAST SALE,April-21-2017,Single Family Residential,611 Santa Catalina Ln,FOSTER CITY,CA,94404,2115000,4,3.0,FOSTER CITY,2620,7137,1977,284,807,292,Sold,,,http://www.redfin.com/CA/Foster-City/611-Santa-Catalina-Ln-94404/home/1126243,MLSListings,ML81641893,N,Y,37.5409365,-122.2639085
PAST SALE,May-24-2017,Single Family Residential,34 Williams Ln,FOSTER CITY,CA,94404,1480000,3,2.5,FOSTER CITY,1670,3328,1986,251,886,491,Sold,,,http://www.redfin.com/CA/Foster-City/34-Williams-Ln-94404/home/1526048,MLSListings,ML81645887,N,Y,37.5346423,-122.2685617
PAST SALE,August-23-2017,Single Family Residential,16 Williams Ln,FOSTER CITY,CA,94404,1503000,3,2.5,FOSTER CITY,1550,3510,1986,160,970,491,Sold,,,http://www.redfin.com/CA/Foster-City/16-Williams-Ln-94404/home/944360,MLSListings,ML81671460,N,Y,37.5351128,-122.2701155
PAST SALE,September-25-2017,Single Family Residential,529 Chesterton Ave,BELMONT,CA,94002,1399999,3,1.0,BELMONT,1010,5450,1953,127,1386,,Sold,,,http://www.redfin.com/CA/Belmont/529-Chesterton-Ave-94002/home/1935550,MLSListings,ML81675464,N,Y,37.5276478,-122.2760208
PAST SALE,June-9-2017,Single Family Residential,41 Williams Ln,FOSTER CITY,CA,94404,1400000,3,2.5,FOSTER CITY,1670,3245,1986,235,838,491,Sold,,,http://www.redfin.com/CA/Foster-City/41-Williams-Ln-94404/home/2027874,MLSListings,ML81647850,N,Y,37.5344487,-122.267654
PAST SALE,September-18-2017,Single Family Residential,410 Oxford Way,BELMONT,CA,94002,1490000,3,1.0,BELMONT,1080,6900,1952,134,1380,,Sold,,,http://www.redfin.com/CA/Belmont/410-Oxford-Way-94002/home/1734403,MLSListings,ML81675961,N,Y,37.5264464,-122.2732261
PAST SALE,September-22-2017,Single Family Residential,1528 Fifth Ave,BELMONT,CA,94002,1200000,3,1.5,BELMONT,1482,5600,1953,130,810,,Sold,,,http://www.redfin.com/CA/Belmont/1528-5th-Ave-94002/home/768162,MLSListings,ML81675726,N,Y,37.5152142,-122.2714993
PAST SALE,,Single Family Residential,97 Vine St,San Carlos,CA,94070,157000,3,2.0,,1720,7200,1948,,91,,,,,http://www.redfin.com/CA/San-Carlos/97-Vine-St-94070/home/770801,,,N,Y,37.5091907,-122.2705909
PAST SALE,November-13-2017,Multi-Family (2-4 Unit),144 - 150 Elm St,SAN CARLOS,CA,94070,1900000,,,SAN CARLOS,3750,7150,1947,78,507,,Sold,,,http://www.redfin.com/CA/San-Carlos/150-Elm-St-94070/home/113789439,MLSListings,ML81679074,N,Y,37.510412,-122.2669705
PAST SALE,November-20-2017,Multi-Family (2-4 Unit),66 - 68 ELM St,SAN CARLOS,CA,94070,1800000,4,,SAN CARLOS,2955,11340,1948,71,609,,Sold,,,http://www.redfin.com/CA/San-Carlos/68-Elm-St-94070/home/113751143,MLSListings,ML81650215,N,Y,37.5114638,-122.2684375
PAST SALE,November-3-2017,Single Family Residential,1536 Fifth Ave,BELMONT,CA,94002,1150000,2,2.0,BELMONT,1340,5104,1957,88,858,,Sold,,,http://www.redfin.com/CA/Belmont/1536-5th-Ave-94002/home/1533872,MLSListings,ML81679327,N,Y,37.5151105,-122.2713398
PAST SALE,,Single Family Residential,1180 Nimitz Ln,Foster City,CA,94404,1196000,3,2.0,,1350,2772,1975,,886,,,,,http://www.redfin.com/CA/Foster-City/1180-Nimitz-Ln-94404/home/2044980,,,N,Y,37.5433189,-122.263686
PAST SALE,November-9-2017,Single Family Residential,1320 Hull Dr,SAN CARLOS,CA,94070,1785000,4,2.0,SAN CARLOS,1700,6050,1948,82,1050,,Sold,,,http://www.redfin.com/CA/San-Carlos/1320-Hull-Dr-94070/home/2054237,MLSListings,ML81681392,N,Y,37.510862,-122.268202
PAST SALE,November-8-2017,Townhouse,713 Zumwalt Ln,FOSTER CITY,CA,94404,1370000,3,2.0,FOSTER CITY,1530,2464,1975,83,895,375,Sold,,,http://www.redfin.com/CA/Foster-City/713-Zumwalt-Ln-94404/home/937461,MLSListings,ML81681449,N,Y,37.543483,-122.263841
PAST SALE,,Multi-Family (2-4 Unit),144 Elm St,San Carlos,CA,94070,1900000,4,3.0,,3750,7150,1947,,507,,,,,http://www.redfin.com/CA/San-Carlos/144-Elm-St-94070/home/1829973,,,N,Y,37.510379,-122.267011
PAST SALE,,Single Family Residential,1 Williams Ln,Foster City,CA,94404,720000,3,2.0,,1670,3245,1986,,431,,,,,http://www.redfin.com/CA/Foster-City/1-Williams-Ln-94404/home/946972,,,N,Y,37.535763,-122.2690246
PAST SALE,December-1-2017,Single Family Residential,1380 Hull Dr,SAN CARLOS,CA,94070,1850000,3,1.5,SAN CARLOS,1560,8800,1951,60,1186,,Sold,,,http://www.redfin.com/CA/San-Carlos/1380-Hull-Dr-94070/home/769140,MLSListings,ML81683562,N,Y,37.5102443,-122.2690411
PAST SALE,January-12-2018,Single Family Residential,1241 Granada St,BELMONT,CA,94002,1550000,3,2.0,BELMONT,1776,4968,1947,18,873,,Sold,,,http://www.redfin.com/CA/Belmont/1241-Granada-St-94002/home/1505009,MLSListings,ML81687254,N,Y,37.5215166,-122.2711411
PAST SALE,April-25-2017,Single Family Residential,380 Winchester Ct,FOSTER CITY,CA,94404,1700000,4,2.0,FOSTER CITY,1470,10248,1971,280,1156,,Sold,,,http://www.redfin.com/CA/Foster-City/380-Winchester-Ct-94404/home/2046957,MLSListings,ML81644370,N,Y,37.5399221,-122.2746781
PAST SALE,January-3-2018,Single Family Residential,1633 King St,BELMONT,CA,94002,1502000,3,2.5,BELMONT,1880,5800,1960,27,799,,Sold,,,http://www.redfin.com/CA/Belmont/1633-King-St-94002/home/768422,MLSListings,ML81685559,N,Y,37.5128659,-122.2696948
PAST SALE,December-17-2017,Single Family Residential,1241 Hiller St,BELMONT,CA,94002,1418000,3,1.0,BELMONT,1090,4968,1947,44,1301,,Sold,,,http://www.redfin.com/CA/Belmont/1241-Hiller-St-94002/home/1607763,MLSListings,ML81684545,N,Y,37.5219786,-122.270604
PAST SALE,April-6-2017,Single Family Residential,107 Alta Vista Way,Daly City,CA,94014,869000,3,2.0,Southern Hills,1450,3030,1973,299,599,,Sold,,,http://www.redfin.com/CA/Daly-City/107-Alta-Vista-Way-94014/home/1195279,San Francisco MLS,453018,N,Y,37.7045996,-122.4344768
PAST SALE,,Single Family Residential,29 Forest Grove Dr,Daly City,CA,94015,920000,3,1.0,,1080,3300,1951,,852,,,,,http://www.redfin.com/CA/Daly-City/29-Forest-Grove-Dr-94015/home/1586949,,,N,Y,37.7014559,-122.4800838
PAST SALE,April-5-2017,Single Family Residential,370 Peoria St,DALY CITY,CA,94014,920000,3,2.0,DALY CITY,2050,2400,1962,300,449,,Sold,,,http://www.redfin.com/CA/Daly-City/370-Peoria-St-94014/home/1094880,MLSListings,ML81639246,N,Y,37.7032054,-122.4586117
PAST SALE,July-20-2017,Townhouse,1504 Foxhollow Ln,DALY CITY,CA,94014,810000,2,2.5,DALY CITY,1225,1412719,1985,194,661,345,Sold,,,http://www.redfin.com/CA/Daly-City/1504-Foxhollow-Ln-94014/home/1456480,MLSListings,ML81654005,N,Y,37.703488,-122.4466236
PAST SALE,July-6-2017,Single Family Residential,217 Wilshire Ave,DALY CITY,CA,94015,961500,2,1.0,DALY CITY,1080,3300,1949,208,890,,Sold,,,http://www.redfin.com/CA/Daly-City/217-Wilshire-Ave-94015/home/1977609,MLSListings,ML81652601,N,Y,37.7069888,-122.4802378
PAST SALE,June-27-2017,Condo/Co-op,1021 San Luis Cir #615,Daly City,CA,94014,630000,2,2.0,San Mateo County,1004,1004,1986,217,627,355,Sold,,,http://www.redfin.com/CA/Daly-City/1021-San-Luis-Cir-94014/unit-615/home/2020816,BAREIS,21711694,N,Y,37.70614,-122.441186
PAST SALE,June-28-2017,Condo/Co-op,551 Pointe Pacific Dr #1,DALY CITY,CA,94014,775000,2,2.0,DALY CITY,1394,444228,1986,216,556,455,Sold,,,http://www.redfin.com/CA/Daly-City/551-Pointe-Pacific-Dr-94014/unit-1/home/1147114,MLSListings,ML81650087,N,Y,37.7013465,-122.4560272
PAST SALE,June-27-2017,Condo/Co-op,1004 San Antonio Cir #109,Daly City,CA,94014,380000,1,1.0,Southern Hills,445,,1986,217,854,325,Sold,,,http://www.redfin.com/CA/Daly-City/1004-San-Antonio-Cir-94014/unit-109/home/1252323,San Francisco MLS,458091,N,Y,37.70614,-122.441186
PAST SALE,June-9-2017,Condo/Co-op,551 Pointe Pacific Dr #3,DALY CITY,CA,94014,878000,3,2.5,DALY CITY,1630,444228,1986,235,539,455,Sold,,,http://www.redfin.com/CA/Daly-City/551-Pointe-Pacific-Dr-94014/unit-3/home/959639,MLSListings,ML81647591,N,Y,37.7013465,-122.4560272
PAST SALE,June-12-2017,Condo/Co-op,1015 San Gabriel Cir #525,DALY CITY,CA,94014,640000,2,1.5,DALY CITY,1055,696789,1986,232,607,389,Sold,,,http://www.redfin.com/CA/Daly-City/1015-San-Gabriel-Cir-94014/unit-525/home/1288475,MLSListings,ML81651357,N,Y,37.705977,-122.440888
PAST SALE,June-9-2017,Condo/Co-op,1021 San Luis Cir #614,DALY CITY,CA,94014,485000,1,1.0,DALY CITY,655,696789,1986,235,740,355,Sold,,,http://www.redfin.com/CA/Daly-City/1021-San-Luis-Cir-94014/unit-614/home/1427299,MLSListings,ML81649183,N,Y,37.70614,-122.441186
PAST SALE,June-22-2017,Single Family Residential,1143 Brunswick St,DALY CITY,CA,94014,810000,3,3.0,DALY CITY,1350,2500,1917,222,600,,Sold,,,http://www.redfin.com/CA/Daly-City/1143-Brunswick-St-94014/home/551285,MLSListings,ML81644040,N,Y,37.7056512,-122.456876
PAST SALE,August-4-2017,Multi-Family (2-4 Unit),70 Lausanne Ave,DALY CITY,CA,94014,1140000,5,,DALY CITY,4348,2500,1965,179,262,,Sold,,,http://www.redfin.com/CA/Daly-City/70-Lausanne-Ave-94014/home/1178947,MLSListings,ML81654273,N,Y,37.6999368,-122.4596481
PAST SALE,May-19-2017,Condo/Co-op,383 Green Ridge Dr #7,Daly City,CA,94014,755000,2,2.0,Original Daly City,1443,,1986,256,523,455,Sold,,,http://www.redfin.com/CA/Daly-City/383-Green-Ridge-Dr-94014/unit-7/home/960353,San Francisco MLS,458482,N,Y,37.700971,-122.45847
PAST SALE,August-15-2017,Single Family Residential,87 Westdale Ave,DALY CITY,CA,94015,1060000,4,2.5,DALY CITY,1760,3400,1950,168,602,,Sold,,,http://www.redfin.com/CA/Daly-City/87-Westdale-Ave-94015/home/1327927,MLSListings,ML81669916,N,Y,37.7062633,-122.4795656
PAST SALE,August-18-2017,Single Family Residential,419 Oriente St,DALY CITY,CA,94014,810000,3,2.0,DALY CITY,1069,2500,1943,165,758,,Sold,,,http://www.redfin.com/CA/Daly-City/419-Oriente-St-94014/home/1748963,MLSListings,ML81669991,N,Y,37.7009722,-122.4163764
PAST SALE,,Single Family Residential,82 N Mayfair Ave,Daly City,CA,94015,1020000,4,2.0,,1580,3630,1950,,646,,,,,http://www.redfin.com/CA/Daly-City/82-N-Mayfair-Ave-94015/home/542700,,,N,Y,37.7047682,-122.4750221
PAST SALE,,Single Family Residential,222 Peoria St,Daly City,CA,94014,450000,4,3.0,,2150,2500,1988,,209,,,,,http://www.redfin.com/CA/Daly-City/222-Peoria-St-94014/home/1300057,,,N,Y,37.7041313,-122.4556761
PAST SALE,August-22-2017,Single Family Residential,957 Farrier Pl,DALY CITY,CA,94014,1115000,4,3.5,DALY CITY,2180,2700,2003,161,511,90,Sold,,,http://www.redfin.com/CA/Daly-City/957-Farrier-Pl-94014/home/1033824,MLSListings,ML81669683,N,Y,37.7034262,-122.425007
PAST SALE,,Single Family Residential,398 Guttenberg St,Daly City,CA,94014,650000,2,1.0,,710,3399,1926,,915,,,,,http://www.redfin.com/CA/Daly-City/398-Guttenberg-St-94014/home/1512012,,,N,Y,37.7081372,-122.4422709
PAST SALE,August-25-2017,Single Family Residential,32 Westmont Dr,Daly City,CA,94015,1068000,3,2.0,San Mateo County,1920,3402,1953,158,556,,Sold,,,http://www.redfin.com/CA/Daly-City/32-Westmont-Dr-94015/home/1439318,BAREIS,21713767,N,Y,37.7012883,-122.4909044
PAST SALE,,Single Family Residential,28 Peoria St,Daly City,CA,94014,950000,3,2.0,,1590,2375,1924,,597,,,,,http://www.redfin.com/CA/Daly-City/28-Peoria-St-94014/home/553951,,,N,Y,37.7053013,-122.4525154
PAST SALE,August-13-2017,Single Family Residential,131 Hillcrest Dr,DALY CITY,CA,94014,795000,3,2.0,DALY CITY,1400,2500,1907,170,568,,Sold,,,http://www.redfin.com/CA/Daly-City/131-Hillcrest-Dr-94014/home/548682,MLSListings,ML81650353,N,Y,37.7062215,-122.4646701
PAST SALE,,Single Family Residential,17 Accacia St,Daly City,CA,,905000,,,,,,,,,,,,,http://www.redfin.com/CA/Daly-City/17-Accacia-St-Unknown/home/86011016,,,N,Y,37.707954,-122.414488
PAST SALE,,Single Family Residential,113 Westdale Ave,Daly City,CA,94015,1282000,4,3.0,,2025,3400,1949,,633,,,,,http://www.redfin.com/CA/Daly-City/113-Westdale-Ave-94015/home/1689740,,,N,Y,37.7062711,-122.4804899
PAST SALE,September-25-2017,Condo/Co-op,1028 San Luis Cir #630,DALY CITY,CA,94014,500000,1,1.0,DALY CITY,655,696789,1986,127,763,355,Sold,,,http://www.redfin.com/CA/Daly-City/1028-San-Luis-Cir-94014/unit-630/home/1446959,MLSListings,ML81674469,N,Y,37.7067427,-122.4415937
PAST SALE,September-20-2017,Condo/Co-op,1009 San Antonio Cir,DALY CITY,CA,94014,548000,2,2.0,DALY CITY,1004,,1986,132,546,343,Sold,,,http://www.redfin.com/CA/Daly-City/1009-San-Antonio-Cir-94014/unit-321/home/1866486,MLSListings,ML81626656,N,Y,37.70614,-122.441186
PAST SALE,September-21-2017,Single Family Residential,281 Westlake Ave,DALY CITY,CA,94014,738000,2,1.0,DALY CITY,850,2500,1927,131,868,,Sold,,,http://www.redfin.com/CA/Daly-City/281-Westlake-Ave-94014/home/2055644,MLSListings,ML81669596,N,Y,37.6993117,-122.4667231
PAST SALE,September-14-2017,Single Family Residential,151 Evergreen Ave,Daly City,CA,94014,989000,6,2.5,Daly City,1810,2500,1912,138,546,,Sold,,,http://www.redfin.com/CA/Daly-City/151-Evergreen-Ave-94014/home/1621366,EBRD/CCAR/Bay East,40791051,N,Y,37.7065099,-122.455958
PAST SALE,,Single Family Residential,53 Accacia St,Daly City,CA,94014,1150000,,,,,,,,,,,,,http://www.redfin.com/CA/Daly-City/53-Accacia-St-94014/home/144108486,,,N,Y,37.707723,-122.4145862
PAST SALE,October-10-2017,Multi-Family (2-4 Unit),329 Winchester St,DALY CITY,CA,94014,860000,,,DALY CITY,2092,3168,1902,112,411,,Sold,,,http://www.redfin.com/CA/Daly-City/329-Winchester-St-94014/home/1065396,MLSListings,ML81681009,N,Y,37.7059607,-122.4538131
PAST SALE,October-19-2017,Single Family Residential,953 Farrier Pl,DALY CITY,CA,94014,1070000,3,2.5,DALY CITY,2060,2580,2003,103,519,90,Sold,,,http://www.redfin.com/CA/Daly-City/953-Farrier-Pl-94014/home/1918409,MLSListings,ML81675976,N,Y,37.703526,-122.4250263
PAST SALE,November-15-2017,Single Family Residential,338 Bay Ridge Dr,DALY CITY,CA,94014,1240000,4,2.5,DALY CITY,2595,4750,2001,76,478,74,Sold,,,http://www.redfin.com/CA/Daly-City/338-Bay-Ridge-Dr-94014/home/1003199,MLSListings,ML81681589,N,Y,37.700789,-122.42097
PAST SALE,December-13-2017,Condo/Co-op,730 Pointe Pacific #4,DALY CITY,CA,94014,820000,2,2.5,DALY CITY,1458,225837,1986,48,562,455,Sold,,,http://www.redfin.com/CA/Daly-City/730-Pointe-Pacific-Dr-94014/home/962450,MLSListings,ML81684021,N,Y,37.7011529,-122.4530744
PAST SALE,November-20-2017,Single Family Residential,144 Bellevue Ave,DALY CITY,CA,94014,900000,3,2.5,DALY CITY,1250,2225,1952,71,720,,Sold,,,http://www.redfin.com/CA/Daly-City/144-Bellevue-Ave-94014/home/555303,MLSListings,ML81678885,N,Y,37.7078701,-122.4430765
PAST SALE,April-18-2017,Single Family Residential,392 Northgate Ave,Daly City,CA,94015,1200000,2,2.0,Westlake #1/Olympic,1720,3996,1952,287,698,,Sold,,,http://www.redfin.com/CA/Daly-City/392-Northgate-Ave-94015/home/547469,San Francisco MLS,455527,N,Y,37.702497,-122.4961969
PAST SALE,,Single Family Residential,113 E Vista Ave,Daly City,CA,94014,800000,3,1.0,,1060,3510,1945,,755,,,,,http://www.redfin.com/CA/Daly-City/113-E-Vista-Ave-94014/home/549944,,,N,Y,37.7032732,-122.4611879
PAST SALE,,Condo/Co-op,170 Treeview Dr #179,Daly City,CA,94014,650000,3,2.0,,1562,,1985,,416,,,,,http://www.redfin.com/CA/Daly-City/170-Treeview-Dr-94014/unit-179/home/1911080,,,N,Y,37.7043037,-122.445691
PAST SALE,July-11-2017,Other,3001 Geneva Ave,DALY CITY,CA,94014,809000,,,DALY CITY,,6144,,203,,,Sold,,,http://www.redfin.com/CA/Daly-City/3001-Geneva-Ave-94014/home/112851731,MLSListings,ML81634667,N,Y,37.7065103,-122.4128105
PAST SALE,October-21-2017,Single Family Residential,126 Alta Vista Way,DALY CITY,CA,94014,981000,3,2.0,DALY CITY,1326,9207,1964,101,740,,Sold,,,http://www.redfin.com/CA/Daly-City/126-Alta-Vista-Way-94014/home/1887291,MLSListings,ML81676834,N,Y,37.7048324,-122.4356381
PAST SALE,October-5-2017,Single Family Residential,563 Delong St,DALY CITY,CA,94014,720000,3,1.0,DALY CITY,1070,2625,1917,117,673,,Sold,,,http://www.redfin.com/CA/Daly-City/563-De-Long-St-94014/home/1977210,MLSListings,ML81672857,N,Y,37.7073795,-122.4673424
PAST SALE,December-29-2017,Single Family Residential,89 Fieldcrest Dr,DALY CITY,CA,94015,1220000,3,2.0,DALY CITY,1830,3400,1950,32,667,,Sold,,,http://www.redfin.com/CA/Daly-City/Fieldcrest-Dr-94015/home/2059479,MLSListings,ML81685086,N,Y,37.7052591,-122.4802451
PAST SALE,January-7-2018,Single Family Residential,1025 Ocean View Ave #1000,Daly City,CA,94014,1370000,4,3.5,Original Daly City,2781,,2017,23,493,,Sold,,,http://www.redfin.com/CA/Daly-City/1025-Ocean-View-Ave-94014/unit-1000/home/143936941,San Francisco MLS,463301,N,Y,37.7026804,-122.4594009
PAST SALE,,Single Family Residential,18 Accacia St,Daly City,CA,94014,900000,,,,,,,,,,,,,http://www.redfin.com/CA/Daly-City/18-Accacia-St-94014/home/55574879,,,N,Y,37.7077164,-122.4145891
PAST SALE,December-13-2017,Townhouse,730 Pointe Pacific #4,Daly City,CA,94014,820000,2,2.5,Original Daly City,1458,,1986,48,562,455,Sold,,,http://www.redfin.com/CA/Daly-City/730-Pointe-Pacific-Dr-94014/unit-4/home/1872475,San Francisco MLS,462422,N,Y,37.7011529,-122.4530744
PAST SALE,March-3-2017,Single Family Residential,1233 Lerida Way Unit A,PACIFICA,CA,94044,1154000,6,5.0,PACIFICA,2170,25479,1964,333,532,,Sold,,,http://www.redfin.com/CA/Pacifica/1233-Lerida-Way-94044/unit-A/home/112978746,MLSListings,ML81636900,N,Y,37.594382,-122.478826
PAST SALE,March-16-2017,Single Family Residential,1255 Alvarado Ave,Pacifica,CA,94044,1162000,3,3.0,Pacifica,1671,7550,1964,320,695,,Sold,,,http://www.redfin.com/CA/Pacifica/1255-Alvarado-Ave-94044/home/1385794,San Francisco MLS,454327,N,Y,37.585885,-122.486071
PAST SALE,March-29-2017,Single Family Residential,4 Duran Ct,PACIFICA,CA,94044,890000,3,2.0,PACIFICA,2030,7200,1956,307,438,,Sold,,,http://www.redfin.com/CA/Pacifica/4-Duran-Ct-94044/home/661301,MLSListings,ML81639304,N,Y,37.5847992,-122.4850298
PAST SALE,March-31-2017,Single Family Residential,1425 De Solo Dr,PACIFICA,CA,94044,921000,4,2.0,PACIFICA,1420,5000,1954,305,649,,Sold,,,http://www.redfin.com/CA/Pacifica/1425-De-Solo-Dr-94044/home/2013918,MLSListings,ML81639852,N,Y,37.592014,-122.5021785
PAST SALE,,Single Family Residential,15 Pio Pico Way,Pacifica,CA,94044,300000,4,2.0,,2020,5700,1973,,149,,,,,http://www.redfin.com/CA/Pacifica/15-Pio-Pico-Way-94044/home/1011810,,,N,Y,37.5900273,-122.4638924
PAST SALE,,Single Family Residential,864 Cape Breton Dr,Pacifica,CA,94044,1050000,3,2.0,,1355,6300,1973,,775,,,,,http://www.redfin.com/CA/Pacifica/864-Cape-Breton-Dr-94044/home/1874867,,,N,Y,37.5952068,-122.462951
PAST SALE,April-18-2017,Single Family Residential,1071 Yosemite Dr,PACIFICA,CA,94044,1205000,4,2.0,PACIFICA,1990,9440,1969,287,606,,Sold,,,http://www.redfin.com/CA/Pacifica/1071-Yosemite-Dr-94044/home/1421962,MLSListings,ML81643069,N,Y,37.5865919,-122.4720386
PAST SALE,May-9-2017,Single Family Residential,270 Sterling Ave,PACIFICA,CA,94044,598000,3,2.0,PACIFICA,880,2675,1930,266,680,,Sold,,,http://www.redfin.com/CA/Pacifica/270-Sterling-Ave-94044/home/657027,MLSListings,ML81643488,N,Y,37.593786,-122.510619
PAST SALE,April-21-2017,Townhouse,1205 Terra Nova Blvd,PACIFICA,CA,94044,589000,2,1.5,PACIFICA,950,720,1970,284,620,365,Sold,,,http://www.redfin.com/CA/Pacifica/1205-Terra-Nova-Blvd-94044/home/664667,MLSListings,ML81642462,N,Y,37.5860399,-122.477124
PAST SALE,April-21-2017,Townhouse,1293 Rosita Rd,PACIFICA,CA,94044,725000,2,1.5,PACIFICA,1150,1020,1973,284,630,424,Sold,,,http://www.redfin.com/CA/Pacifica/1293-Rosita-Rd-94044/home/2016468,MLSListings,ML81642931,N,Y,37.581461,-122.485624
PAST SALE,July-11-2017,Single Family Residential,15 Picardo Ct,PACIFICA,CA,94044,1200000,3,2.5,PACIFICA,2190,9300,1969,203,548,,Sold,,,http://www.redfin.com/CA/Pacifica/15-Picardo-Ct-94044/home/1330590,MLSListings,ML81655317,N,Y,37.5929748,-122.4712169
PAST SALE,June-15-2017,Townhouse,1232 Terra Nova Blvd,PACIFICA,CA,94044,630000,2,1.5,PACIFICA,960,765,1970,229,656,325,Sold,,,http://www.redfin.com/CA/Pacifica/1232-Terra-Nova-Blvd-94044/home/2052052,MLSListings,ML81651279,N,Y,37.5870007,-122.4770539
PAST SALE,May-5-2017,Single Family Residential,1101 Fassler Ave,PACIFICA,CA,94044,950000,3,2.0,PACIFICA,2190,5150,1962,270,434,,Sold,,,http://www.redfin.com/CA/Pacifica/1101-Fassler-Ave-94044/home/1597651,MLSListings,ML81641887,N,Y,37.599213,-122.481492
PAST SALE,July-7-2017,Single Family Residential,828 Dell Rd,PACIFICA,CA,94044,1036000,4,2.0,PACIFICA,1600,6450,1960,207,648,,Sold,,,http://www.redfin.com/CA/Pacifica/828-Dell-Rd-94044/home/1023322,MLSListings,ML81656071,N,Y,37.5883539,-122.4980614
PAST SALE,,Single Family Residential,851 Dell Rd,Pacifica,CA,94044,474000,3,2.0,,1270,5040,1960,,373,,,,,http://www.redfin.com/CA/Pacifica/851-Dell-Rd-94044/home/2056061,,,N,Y,37.5884745,-122.496785
PAST SALE,July-3-2017,Single Family Residential,840 Linda Mar Blvd,PACIFICA,CA,94044,730000,3,1.0,PACIFICA,1040,5500,1954,211,702,,Sold,,,http://www.redfin.com/CA/Pacifica/840-Linda-Mar-Blvd-94044/home/1869243,MLSListings,ML81654534,N,Y,37.5905143,-122.4958674
PAST SALE,June-23-2017,Townhouse,1391 Terra Nova Blvd,PACIFICA,CA,94044,678000,2,2.0,PACIFICA,1400,930,1972,221,484,345,Sold,,,http://www.redfin.com/CA/Pacifica/1391-Terra-Nova-Blvd-94044/home/1923841,MLSListings,ML81650914,N,Y,37.59032,-122.476407
PAST SALE,June-30-2017,Single Family Residential,20 Ortega Ct,PACIFICA,CA,94044,865000,3,2.0,PACIFICA,1040,7098,1955,214,832,,Sold,,,http://www.redfin.com/CA/Pacifica/20-Ortega-Ct-94044/home/655761,MLSListings,ML81654371,N,Y,37.5972024,-122.4951186
PAST SALE,July-25-2017,Townhouse,1234 Rosita Rd,PACIFICA,CA,94044,700000,2,1.5,PACIFICA,1150,1020,1973,189,609,427,Sold,,,http://www.redfin.com/CA/Pacifica/1234-Rosita-Rd-94044/home/1843341,MLSListings,ML81653255,N,Y,37.581627,-122.487725
PAST SALE,June-27-2017,Townhouse,1099 Oddstad Blvd,PACIFICA,CA,94044,695000,2,2.0,PACIFICA,1150,1020,1973,217,604,320,Sold,,,http://www.redfin.com/CA/Pacifica/1099-Oddstad-Blvd-94044/home/654090,MLSListings,ML81653251,N,Y,37.591986,-122.464743
PAST SALE,,Townhouse,449 Roberts Rd,Pacifica,CA,94044,925000,2,2.0,,1480,427771,1981,,625,,,,,http://www.redfin.com/CA/Pacifica/449-Roberts-Rd-94044/home/1788619,,,N,Y,37.602224,-122.4974
PAST SALE,June-27-2017,Single Family Residential,1168 Fernandez Way,PACIFICA,CA,94044,1045000,4,2.0,PACIFICA,1680,5000,1954,217,622,,Sold,,,http://www.redfin.com/CA/Pacifica/1168-Fernandez-Way-94044/home/1962389,MLSListings,ML81652650,N,Y,37.5943483,-122.4990837
PAST SALE,June-7-2017,Single Family Residential,1064 Glacier Ave,PACIFICA,CA,94044,979000,4,2.0,PACIFICA,1360,6000,1971,237,720,,Sold,,,http://www.redfin.com/CA/Pacifica/1064-Glacier-Ave-94044/home/2056046,MLSListings,ML81651527,N,Y,37.5909732,-122.4623428
PAST SALE,June-22-2017,Single Family Residential,1144 Seville Dr,PACIFICA,CA,94044,854000,3,2.0,PACIFICA,1210,5000,1960,222,706,,Sold,,,http://www.redfin.com/CA/Pacifica/1144-Seville-Dr-94044/home/2031371,MLSListings,ML81648119,N,Y,37.5925037,-122.4923877
PAST SALE,June-6-2017,Single Family Residential,1068 Crespi Dr,PACIFICA,CA,94044,1205000,3,3.0,PACIFICA,1560,8064,1960,238,772,,Sold,,,http://www.redfin.com/CA/Pacifica/1068-Crespi-Dr-94044/home/658858,MLSListings,ML81644746,N,Y,37.5922627,-122.4898601
PAST SALE,August-15-2017,Single Family Residential,1080 Crespi Dr,PACIFICA,CA,94044,975000,3,2.0,PACIFICA,1100,7440,1960,168,886,,Sold,,,http://www.redfin.com/CA/Pacifica/1080-Crespi-Dr-94044/home/1282283,MLSListings,ML81668949,N,Y,37.5918013,-122.4901538
PAST SALE,August-3-2017,Condo/Co-op,1083 Oddstad Blvd,PACIFICA,CA,94044,600000,2,1.5,PACIFICA,940,735,1973,180,638,320,Sold,,,http://www.redfin.com/CA/Pacifica/1083-Oddstad-Blvd-94044/home/2036382,MLSListings,ML81668512,N,Y,37.592965,-122.465136
PAST SALE,August-16-2017,Single Family Residential,762 Prairie Creek Dr,PACIFICA,CA,94044,985000,4,2.0,PACIFICA,1360,5400,1972,167,724,,Sold,,,http://www.redfin.com/CA/Pacifica/762-Prairie-Creek-Dr-94044/home/1998395,MLSListings,ML81670106,N,Y,37.5891961,-122.4610967
PAST SALE,August-25-2017,Single Family Residential,1155 Grand Teton Dr,PACIFICA,CA,94044,1100000,3,3.0,PACIFICA,1520,6500,1969,158,724,,Sold,,,http://www.redfin.com/CA/Pacifica/1155-Grand-Teton-Dr-94044/home/1998440,MLSListings,ML81671086,N,Y,37.5915863,-122.4681163
PAST SALE,August-29-2017,Single Family Residential,95 Kathleen Ct,PACIFICA,CA,94044,1300000,5,3.0,PACIFICA,2070,6200,1969,154,628,,Sold,,,http://www.redfin.com/CA/Pacifica/95-Kathleen-Ct-94044/home/1441743,MLSListings,ML81670848,N,Y,37.5912578,-122.4703189
PAST SALE,August-31-2017,Single Family Residential,1154 Grand Teton Dr,PACIFICA,CA,94044,1090000,3,2.0,PACIFICA,1190,9168,1969,152,916,,Sold,,,http://www.redfin.com/CA/Pacifica/1154-Grand-Teton-Dr-94044/home/1606284,MLSListings,ML81670188,N,Y,37.5912364,-122.4674799
PAST SALE,October-2-2017,Single Family Residential,647 Big Bend Dr,PACIFICA,CA,94044,942000,4,2.0,PACIFICA,1360,6000,1971,120,693,,Sold,,,http://www.redfin.com/CA/Pacifica/647-Big-Bend-Dr-94044/home/1987030,MLSListings,ML81675128,N,Y,37.5878174,-122.4596563
PAST SALE,September-6-2017,Single Family Residential,1276 Alvarado Ave,PACIFICA,CA,94044,975000,3,2.0,PACIFICA,1170,6000,1956,146,833,,Sold,,,http://www.redfin.com/CA/Pacifica/1276-Alvarado-Ave-94044/home/1237547,MLSListings,ML81673637,N,Y,37.5847914,-122.4854925
PAST SALE,August-28-2017,Single Family Residential,1468 Crespi Dr,PACIFICA,CA,94044,1190000,3,2.0,PACIFICA,1510,6816,1961,155,788,,Sold,,,http://www.redfin.com/CA/Pacifica/1468-Crespi-Dr-94044/home/657816,MLSListings,ML81670554,N,Y,37.5965724,-122.4821692
PAST SALE,,Single Family Residential,1147 De Solo Dr,Pacifica,CA,94044,720000,3,1.0,,1040,5000,1954,,692,,,,,http://www.redfin.com/CA/Pacifica/1147-De-Solo-Dr-94044/home/1485367,,,N,Y,37.5953746,-122.4995808
PAST SALE,July-25-2017,Single Family Residential,17 Driftwood Ct,PACIFICA,CA,94044,1049000,3,2.0,PACIFICA,1720,6802,1994,189,610,44,Sold,,,http://www.redfin.com/CA/Pacifica/17-Driftwood-Ct-94044/home/654355,MLSListings,ML81655334,N,Y,37.5985752,-122.4852985
PAST SALE,April-23-2017,Single Family Residential,51 Desvio Ct,PACIFICA,CA,94044,1725000,4,3.0,PACIFICA,2850,41800,2006,282,605,,Sold,,,http://www.redfin.com/CA/Pacifica/51-Desvio-Ct-94044/home/2099399,MLSListings,ML81640182,N,Y,37.5856898,-122.482926
PAST SALE,,Single Family Residential,1241 Alicante Dr,Pacifica,CA,94044,892500,3,2.0,,1080,7250,1960,,826,,,,,http://www.redfin.com/CA/Pacifica/1241-Alicante-Dr-94044/home/661423,,,N,Y,37.5829884,-122.480708
PAST SALE,September-20-2017,Single Family Residential,1150 Mason Dr,PACIFICA,CA,94044,1110000,4,2.0,PACIFICA,1921,5160,1964,132,578,,Sold,,,http://www.redfin.com/CA/Pacifica/1150-Mason-Dr-94044/home/2008455,MLSListings,ML81674553,N,Y,37.5971888,-122.4781829
PAST SALE,September-26-2017,Townhouse,1280 Rosita Rd,PACIFICA,CA,94044,750000,2,1.5,PACIFICA,1150,1020,1973,126,652,429,Sold,,,http://www.redfin.com/CA/Pacifica/1280-Rosita-Rd-94044/home/1521244,MLSListings,ML81673545,N,Y,37.581687,-122.486725
PAST SALE,October-20-2017,Single Family Residential,1343 Livingston Ave,PACIFICA,CA,94044,1415000,3,2.0,PACIFICA,1700,7500,1961,102,832,,Sold,,,http://www.redfin.com/CA/Pacifica/1343-Livingston-Ave-94044/home/1723966,MLSListings,ML81671960,N,Y,37.5938907,-122.5092001
PAST SALE,October-10-2017,Single Family Residential,1066 View Way,PACIFICA,CA,94044,1069000,3,2.0,PACIFICA,1190,10000,1960,112,898,,Sold,,,http://www.redfin.com/CA/Pacifica/1066-View-Way-94044/home/662473,MLSListings,ML81677969,N,Y,37.5882433,-122.4840849
PAST SALE,October-10-2017,Single Family Residential,1114 Sheila Ln,PACIFICA,CA,94044,1010000,4,2.5,PACIFICA,1680,7980,1963,112,601,,Sold,,,http://www.redfin.com/CA/Pacifica/1114-Sheila-Ln-94044/home/661918,MLSListings,ML81677045,N,Y,37.587281,-122.4842153
PAST SALE,,Single Family Residential,1094 View Way,Pacifica,CA,94044,1190000,4,3.0,,1480,5250,1960,,804,,,,,http://www.redfin.com/CA/Pacifica/1094-View-Way-94044/home/1330650,,,N,Y,37.586955,-122.4827653
PAST SALE,October-6-2017,Single Family Residential,1538 Grand Ave,PACIFICA,CA,94044,1150000,3,2.0,PACIFICA,1273,7500,1961,116,903,,Sold,,,http://www.redfin.com/CA/Pacifica/1538-Grand-Ave-94044/home/657064,MLSListings,ML81677069,N,Y,37.591264,-122.5109851
PAST SALE,September-28-2017,Single Family Residential,1020 Rio Vista Dr,PACIFICA,CA,94044,965000,3,1.0,PACIFICA,1040,5460,1953,124,928,,Sold,,,http://www.redfin.com/CA/Pacifica/1020-Rio-Vista-Dr-94044/home/2029129,MLSListings,ML81676930,N,Y,37.5852742,-122.494739
PAST SALE,October-13-2017,Single Family Residential,1132 Banyan Way,PACIFICA,CA,94044,1000000,3,2.0,PACIFICA,1600,9516,1962,109,625,,Sold,,,http://www.redfin.com/CA/Pacifica/1132-Banyan-Way-94044/home/1957397,MLSListings,ML81670004,N,Y,37.5869157,-122.4804859
PAST SALE,October-18-2017,Single Family Residential,823 Big Bend Dr,PACIFICA,CA,94044,1050000,4,3.0,PACIFICA,2190,6344,1970,104,479,,Sold,,,http://www.redfin.com/CA/Pacifica/823-Big-Bend-Dr-94044/home/1313061,MLSListings,ML81676393,N,Y,37.5886403,-122.4635908
PAST SALE,October-30-2017,Single Family Residential,940 Corona Dr,PACIFICA,CA,94044,1030000,3,2.0,PACIFICA,1045,8850,1955,92,986,,Sold,,,http://www.redfin.com/CA/Pacifica/940-Corona-Dr-94044/home/655727,MLSListings,ML81679112,N,Y,37.5957249,-122.4907808
PAST SALE,November-3-2017,Single Family Residential,956 Park Pacifica Ave,PACIFICA,CA,94044,1246000,3,3.0,PACIFICA,1840,8870,1972,88,677,,Sold,,,http://www.redfin.com/CA/Pacifica/956-Park-Pacifica-Ave-94044/home/2047341,MLSListings,ML81680540,N,Y,37.5819135,-122.4733737
PAST SALE,,Multi-Family (2-4 Unit),1336 Adobe Dr,Pacifica,CA,94044,3950000,20,1.0,,9944,15000,1962,,397,,,,,http://www.redfin.com/CA/Pacifica/1336-Adobe-Dr-94044/home/661572,,,N,Y,37.5881964,-122.4949048
PAST SALE,October-17-2017,Single Family Residential,1459 Flores Dr,PACIFICA,CA,94044,915000,3,1.0,PACIFICA,1040,5600,1954,105,880,,Sold,,,http://www.redfin.com/CA/Pacifica/1459-Flores-Dr-94044/home/1033995,MLSListings,ML81678665,N,Y,37.5898572,-122.4999154
PAST SALE,November-10-2017,Townhouse,1277 Rosita Rd,PACIFICA,CA,94044,750000,3,2.5,PACIFICA,1380,1020,1973,81,543,429,Sold,,,http://www.redfin.com/CA/Pacifica/1277-Rosita-Rd-94044/home/1781939,MLSListings,ML81677088,N,Y,37.581466,-122.486806
PAST SALE,November-13-2017,Townhouse,1262 Rosita Rd,PACIFICA,CA,94044,715000,2,1.5,PACIFICA,1150,1020,1973,78,622,429,Sold,,,http://www.redfin.com/CA/Pacifica/1262-Rosita-Rd-94044/home/666349,MLSListings,ML81681363,N,Y,37.580839,-122.486153
PAST SALE,October-31-2017,Condo/Co-op,465 Roberts Rd,PACIFICA,CA,94044,1025000,3,2.0,PACIFICA,1780,1786,1981,91,576,495,Sold,,,http://www.redfin.com/CA/Pacifica/465-Roberts-Rd-94044/unit-E-3/home/996715,MLSListings,ML81683405,N,Y,37.602224,-122.4974
PAST SALE,November-10-2017,Townhouse,1369 Terra Nova Blvd,PACIFICA,CA,94044,630000,2,1.5,PACIFICA,900,705,1972,81,700,325,Sold,,,http://www.redfin.com/CA/Pacifica/1369-Terra-Nova-Blvd-94044/home/1077915,MLSListings,ML81680451,N,Y,37.590023,-122.477032
PAST SALE,November-17-2017,Single Family Residential,8 Vega Ct,PACIFICA,CA,94044,885000,3,2.5,PACIFICA,1500,5300,1964,74,590,,Sold,,,http://www.redfin.com/CA/Pacifica/Vega-Ct-94044/home/1790884,MLSListings,ML81678033,N,Y,37.5980531,-122.4770732
PAST SALE,November-17-2017,Single Family Residential,1269 Glacier Ave,PACIFICA,CA,94044,1200000,4,3.0,PACIFICA,1740,5100,1973,74,690,,Sold,,,http://www.redfin.com/CA/Pacifica/1269-Glacier-Ave-94044/home/1641209,MLSListings,ML81682409,N,Y,37.5949304,-122.4604311
PAST SALE,October-27-2017,Townhouse,1367 Terra Nova Blvd,PACIFICA,CA,94044,630000,2,1.5,PACIFICA,960,815,1972,95,656,325,Sold,,,http://www.redfin.com/CA/Pacifica/1367-Terra-Nova-Blvd-94044/home/656481,MLSListings,ML81674477,N,Y,37.5900691,-122.4770286
PAST SALE,November-17-2017,Single Family Residential,9 Humboldt Ct,PACIFICA,CA,94044,1400000,3,2.5,PACIFICA,2452,35150,1978,74,571,,Sold,,,http://www.redfin.com/CA/Pacifica/9-Humboldt-Ct-94044/home/2050233,MLSListings,ML81674741,N,Y,37.5847538,-122.4678371
PAST SALE,December-11-2017,Vacant Land,1 San Pedro Ave,Pacifica,CA,94044,550000,,,Pacifica,,12585,,50,,,Sold,,,http://www.redfin.com/CA/Pacifica/1-San-Pedro-Ave-94044/home/40051103,San Francisco MLS,447402,N,Y,37.5942538,-122.5081143
PAST SALE,May-31-2017,Single Family Residential,888 Rockaway Beach Ave,PACIFICA,CA,94044,865000,2,1.0,PACIFICA,1050,8700,1920,244,824,,Sold,,,http://www.redfin.com/CA/Pacifica/888-Rockaway-Beach-Ave-94044/home/1914279,MLSListings,ML81649713,N,Y,37.6022725,-122.4851339
PAST SALE,November-27-2017,Single Family Residential,1281 Lerida Way,PACIFICA,CA,94044,1005000,3,2.0,PACIFICA,1670,6160,1965,64,602,,Sold,,,http://www.redfin.com/CA/Pacifica/1281-Lerida-Way-94044/home/1531539,MLSListings,ML81682679,N,Y,37.5919473,-122.4805015
PAST SALE,January-4-2018,Vacant Land,0 Off 0 Everglades,PACIFICA,CA,94044,20000,,,PACIFICA,,15246,,26,,,Sold,,,http://www.redfin.com/CA/Pacifica/Everglades-Dr-94044/home/142955030,MLSListings,ML81670760,N,Y,37.5932553,-122.4698386
PAST SALE,January-3-2018,Townhouse,209 Roberts Rd,PACIFICA,CA,94044,1165000,2,2.5,PACIFICA,1620,1887,1984,27,719,425,Sold,,,http://www.redfin.com/CA/Pacifica/209-Roberts-Rd-94044/home/1630992,MLSListings,ML81681531,N,Y,37.60515,-122.49763
PAST SALE,December-27-2017,Townhouse,1271 Rosita Rd,PACIFICA,CA,94044,720000,3,2.5,PACIFICA,1410,1100,1973,34,511,429,Sold,,,http://www.redfin.com/CA/Pacifica/1271-Rosita-Rd-94044/home/1971437,MLSListings,ML81685373,N,Y,37.581322,-122.486249
PAST SALE,March-30-2017,Single Family Residential,283 Bay Ridge Dr,Daly City,CA,94014,1100000,5,4.0,Bayridge/Linda Vista,2570,8040,2001,306,428,,Sold,,,http://www.redfin.com/CA/Daly-City/283-Bay-Ridge-Dr-94014/home/1971717,San Francisco MLS,454293,N,Y,37.7004585,-122.4192773
PAST SALE,May-30-2017,Single Family Residential,92 Robinson Dr,San Francisco,CA,94112,1035288,3,2.0,Crocker Amazon,1651,3532,1951,245,627,,Sold,,,http://www.redfin.com/CA/San-Francisco/92-Robinson-Dr-94112/home/1576905,San Francisco MLS,456921,N,Y,37.708564,-122.427921
PAST SALE,June-30-2017,Single Family Residential,359 Accacia St,DALY CITY,CA,94014,800000,3,1.5,DALY CITY,930,2400,1961,214,860,,Sold,,,http://www.redfin.com/CA/Daly-City/359-Accacia-St-94014/home/556786,MLSListings,ML81652657,N,Y,37.7022757,-122.4167688
PAST SALE,May-31-2017,Condo/Co-op,123 Crescent Ct,BRISBANE,CA,94005,665000,2,2.0,BRISBANE,1070,69107,1997,244,621,475,Sold,,,http://www.redfin.com/CA/Brisbane/123-Crescent-Ct-94005/unit-U-1723/home/1585869,MLSListings,ML81645621,N,Y,37.692679,-122.416258
PAST SALE,July-12-2017,Vacant Land,0 Adrian Dr,Magalia,CA,95954,170000,,,Magalia,,3681256,,202,,,Sold,,,http://www.redfin.com/CA/Brisbane/55-San-Francisco-Ave-94005/home/45579504,CRMLS,PA17058443,N,Y,37.6846089,-122.3991147
PAST SALE,July-28-2017,Single Family Residential,111 Butterweed Ln,Brisbane,CA,94005,1630000,5,3.0,Brisbane,2995,8516,2014,186,544,231,Sold,,,http://www.redfin.com/CA/Brisbane/111-Butterweed-Ln-94005/home/104014361,San Francisco MLS,453896,N,Y,37.6966696,-122.418626
PAST SALE,June-30-2017,Condo/Co-op,123 Elfin Ct,BRISBANE,CA,94005,705000,2,2.0,BRISBANE,1070,39677,1999,214,659,475,Sold,,,http://www.redfin.com/CA/Brisbane/123-Elfin-Ct-94005/unit-U-623/home/2047949,MLSListings,ML81650096,N,Y,37.693688,-122.420109
PAST SALE,September-1-2017,Townhouse,114 Tanager Ct,Brisbane,CA,94005,888000,2,2.0,Brisbane,1413,,1997,151,628,525,Sold,,,http://www.redfin.com/CA/Brisbane/114-Tanager-Ct-94005/home/2018049,San Francisco MLS,460237,N,Y,37.691885,-122.411006
PAST SALE,,Single Family Residential,23 Accacia St,Daly City,CA,94014,910000,,,,,,,,,,,,,http://www.redfin.com/CA/Daly-City/23-Accacia-St-94014/home/143833611,,,N,Y,37.7078739,-122.414187
PAST SALE,,Single Family Residential,32 Accacia St,Daly City,CA,94014,1150000,,,,,,,,,,,,,http://www.redfin.com/CA/Daly-City/32-Accacia-St-94014/home/143944508,,,N,Y,37.7077242,-122.4148128
PAST SALE,,Single Family Residential,60 Accacia St,Daly City,CA,94014,905000,4,3.0,,1320,2500,1986,,686,,,,,http://www.redfin.com/CA/Daly-City/60-Accacia-St-94014/home/2048064,,,N,Y,37.7077548,-122.4147993
PAST SALE,,Single Family Residential,28 Accacia St,Daly City,CA,94014,1150000,,,,,,,,,,,,,http://www.redfin.com/CA/Daly-City/28-Accacia-St-94014/home/143861590,,,N,Y,37.7077314,-122.4148097
PAST SALE,April-11-2017,Single Family Residential,1032 Schwerin St,DALY CITY,CA,94014,845000,3,2.0,DALY CITY,1495,2500,1951,294,565,,Sold,,,http://www.redfin.com/CA/Daly-City/1032-Schwerin-St-94014/home/1859944,MLSListings,ML81638134,N,Y,37.7005108,-122.4161396
PAST SALE,June-12-2017,Single Family Residential,433 Accacia St,DALY CITY,CA,94014,1175000,4,2.5,DALY CITY,2390,4200,2001,232,492,74,Sold,,,http://www.redfin.com/CA/Daly-City/433-Accacia-St-94014/home/2007779,MLSListings,ML81650502,N,Y,37.7006006,-122.4174895
PAST SALE,,Single Family Residential,139 Oakridge Dr,Daly City,CA,94014,860000,3,2.0,,1270,6106,1963,,677,,,,,http://www.redfin.com/CA/Daly-City/139-Oakridge-Dr-94014/home/1943350,,,N,Y,37.7065283,-122.4281747
PAST SALE,November-9-2017,Single Family Residential,60 Golden Aster Ct,BRISBANE,CA,94005,1465000,3,2.0,BRISBANE,2098,6906,2007,82,698,232,Sold,,,http://www.redfin.com/CA/Brisbane/60-Golden-Aster-Ct-94005/home/21967955,MLSListings,ML81674720,N,Y,37.6965225,-122.4202518
PAST SALE,,Single Family Residential,202 Rio Verde St,Daly City,CA,94014,920000,3,2.0,,1350,3500,1958,,681,,,,,http://www.redfin.com/CA/Daly-City/202-Rio-Verde-St-94014/home/1578677,,,N,Y,37.7052694,-122.4168571
PAST SALE,November-11-2017,Condo/Co-op,602 Cedar Ct,DALY CITY,CA,94014,720000,3,2.0,DALY CITY,1200,237822,1990,80,600,318,Sold,,,http://www.redfin.com/CA/Daly-City/602-Cedar-Ct-94014/home/1702980,MLSListings,ML81680741,N,Y,37.7076673,-122.4271268
PAST SALE,,Single Family Residential,97 Southridge Way,Daly City,CA,94014,840000,3,2.0,,1270,4260,1963,,661,,,,,http://www.redfin.com/CA/Daly-City/97-Southridge-Way-94014/home/1686917,,,N,Y,37.706072,-122.428518
PAST SALE,December-8-2017,Condo/Co-op,712 Swallowtail Ct,BRISBANE,CA,94005,725000,2,2.0,BRISBANE,1070,21080,2000,53,678,475,Sold,,,http://www.redfin.com/CA/Brisbane/712-Swallowtail-Ct-94005/unit-U-813/home/1003763,MLSListings,ML81681399,N,Y,37.693439,-122.419721
PAST SALE,,Condo/Co-op,1 San Bruno Ave,Brisbane,CA,94005,625000,1,1.0,,774,,2008,,807,,,,,http://www.redfin.com/CA/Brisbane/1-San-Bruno-Ave-94005/home/21967866,,,N,Y,37.6846092,-122.4017414
PAST SALE,January-16-2018,Condo/Co-op,314 Swallowtail Ct,BRISBANE,CA,94005,811001,2,2.0,BRISBANE,1242,22446,2000,14,653,475,Sold,,,http://www.redfin.com/CA/Brisbane/314-Swallowtail-Ct-94005/unit-U-1212/home/2021154,MLSListings,ML81685552,N,Y,37.692614,-122.418089
PAST SALE,December-21-2017,Condo/Co-op,623 Swallowtail Ct,BRISBANE,CA,94005,850000,3,2.0,BRISBANE,1550,17403,2000,40,548,465,Sold,,,http://www.redfin.com/CA/Brisbane/623-Swallowtail-Ct-94005/unit-U922/home/1383611,MLSListings,ML81684992,N,Y,37.693169,-122.419366
PAST SALE,March-22-2017,Single Family Residential,436 D St,COLMA,CA,94014,950000,3,1.0,COLMA,1030,5000,1940,314,922,,Sold,,,http://www.redfin.com/CA/Colma/436-D-St-94014/home/1612993,MLSListings,ML81640430,N,Y,37.6838327,-122.4627728
PAST SALE,,Single Family Residential,653 Lisbon St,Daly City,CA,94014,898000,4,3.0,,2140,2500,1991,,420,,,,,http://www.redfin.com/CA/Daly-City/653-Lisbon-St-94014/home/1149253,,,N,Y,37.6876834,-122.4572274
PAST SALE,July-6-2017,Mobile/Manufactured Home,38 Seashore Dr,DALY CITY,CA,94014,265000,3,2.0,DALY CITY,1456,2287857,2000,208,182,,Sold,,,http://www.redfin.com/CA/Daly-City/38-Seashore-Dr-94014/home/1118465,MLSListings,ML81642078,N,Y,37.687662,-122.4490996
PAST SALE,June-28-2017,Single Family Residential,9 Village Ln,DALY CITY,CA,94015,835000,2,1.0,DALY CITY,1060,4680,1947,216,788,,Sold,,,http://www.redfin.com/CA/Daly-City/9-Village-Ln-94015/home/1065044,MLSListings,ML81653529,N,Y,37.6939095,-122.4731647
PAST SALE,July-21-2017,Single Family Residential,152 W Moltke St,DALY CITY,CA,94014,920000,3,2.0,DALY CITY,1740,2700,1938,193,529,,Sold,,,http://www.redfin.com/CA/Daly-City/152-W-Moltke-St-94014/home/1879025,MLSListings,ML81651016,N,Y,37.694329,-122.467533
PAST SALE,July-28-2017,Single Family Residential,73 Bruno Ave,DALY CITY,CA,94014,870000,2,1.0,DALY CITY,1140,2500,1932,186,763,,Sold,,,http://www.redfin.com/CA/Daly-City/73-Bruno-Ave-94014/home/2025826,MLSListings,ML81655305,N,Y,37.6939641,-122.4657018
PAST SALE,August-18-2017,Single Family Residential,168 W Moltke St,DALY CITY,CA,94014,900000,4,2.0,DALY CITY,1260,2700,1938,165,714,,Sold,,,http://www.redfin.com/CA/Daly-City/168-W-Moltke-St-94014/home/1570957,MLSListings,ML81656776,N,Y,37.694328,-122.467965
PAST SALE,,Single Family Residential,473 Castle St,Daly City,CA,94014,725000,3,1.0,,1350,2125,1956,,537,,,,,http://www.redfin.com/CA/Daly-City/473-Castle-St-94014/home/1621647,,,N,Y,37.6919545,-122.4604289
PAST SALE,,Single Family Residential,1135 Hillside Blvd,Daly City,CA,94014,255000,,,,,6722,,,,,,,,http://www.redfin.com/CA/Daly-City/1135-Hillside-Blvd-94014/home/566830,,,N,Y,37.687645,-122.460251
PAST SALE,,Single Family Residential,677 Orange St,Daly City,CA,94014,780000,3,2.0,,1170,2500,1955,,667,,,,,http://www.redfin.com/CA/Daly-City/677-Orange-St-94014/home/1993539,,,N,Y,37.6904724,-122.4544795
PAST SALE,September-19-2017,Single Family Residential,424 Chester St,DALY CITY,CA,94014,790000,2,1.0,DALY CITY,1070,2125,1954,133,738,,Sold,,,http://www.redfin.com/CA/Daly-City/424-Chester-St-94014/home/1492346,MLSListings,ML81674381,N,Y,37.6911012,-122.455309
PAST SALE,August-1-2017,Single Family Residential,127 Werner Ave,Daly City,CA,94014,1150000,4,2.0,Original Daly City,1940,6000,1906,182,593,,Sold,,,http://www.redfin.com/CA/Daly-City/127-Werner-Ave-94014/home/1104264,San Francisco MLS,457920,N,Y,37.6910809,-122.467655
PAST SALE,October-13-2017,Single Family Residential,523 D St,COLMA,CA,94014,815000,3,1.0,COLMA,930,3100,1950,109,876,,Sold,,,http://www.redfin.com/CA/Colma/523-D-St-94014/home/1020664,MLSListings,ML81673015,N,Y,37.684159,-122.4601089
PAST SALE,October-13-2017,Single Family Residential,169 Mateo Ave,DALY CITY,CA,94014,938000,4,3.0,DALY CITY,1180,2500,1968,109,795,,Sold,,,http://www.redfin.com/CA/Daly-City/169-Mateo-Ave-94014/home/562584,MLSListings,ML81675214,N,Y,37.690258,-122.466649
PAST SALE,September-8-2017,Single Family Residential,230 Abbot Ave,Daly City,CA,94014,900000,5,2.0,Original Daly City,1840,2500,1950,144,489,,Sold,,,http://www.redfin.com/CA/Daly-City/230-Abbot-Ave-94014/home/1690799,San Francisco MLS,459258,N,Y,37.6954725,-122.4612367
PAST SALE,November-27-2017,Single Family Residential,430 B St,COLMA,CA,94014,1253000,4,4.0,COLMA,2361,3354,2001,64,531,,Sold,,,http://www.redfin.com/CA/Colma/430-B-St-94014/home/1961365,MLSListings,ML81682989,N,Y,37.6851568,-122.4629419
PAST SALE,,Single Family Residential,19 PLUMERIA CT,DALY CITY,CA,94014,876500,,,,,653,,,,,,,,http://www.redfin.com/CA/DALY-CITY/19-PLUMERIA-CT-94014/home/113752501,,,N,Y,37.687029,-122.462144
PAST SALE,December-12-2017,Multi-Family (2-4 Unit),37 2nd Ave,DALY CITY,CA,94014,1055000,4,,DALY CITY,2750,2500,1976,49,384,,Sold,,,http://www.redfin.com/CA/Daly-City/37-2nd-Ave-94014/home/2025920,MLSListings,ML81682920,N,Y,37.6924663,-122.4632089
PAST SALE,,Townhouse,22 Lavender Ct,Daly City,CA,94014,998000,,,,,828,,,,,,,,http://www.redfin.com/CA/Daly-City/22-Lavender-Ct-94014/home/113102543,,,N,Y,37.6874727,-122.4628672
PAST SALE,January-23-2018,Condo/Co-op,485 A St #23,DALY CITY,CA,94014,550000,2,1.0,DALY CITY,788,31596,1964,7,698,373,Sold,,,http://www.redfin.com/CA/Daly-City/485-A-St-94014/unit-23/home/2056679,MLSListings,ML81687439,N,Y,37.6864645,-122.461208
PAST SALE,,Single Family Residential,20 Lavender Ct,Daly City,CA,94014,361500,,,,,653,,,,,,,,http://www.redfin.com/CA/Daly-City/20-Lavender-Ct-94014/home/144108488,,,N,Y,37.6874705,-122.4629253
PAST SALE,April-14-2017,Mobile/Manufactured Home,50 Seascape Dr,HALF MOON BAY,CA,94019,200000,2,1.0,HALF MOON BAY,840,,1985,291,238,,Sold,,,http://www.redfin.com/CA/Half-Moon-Bay/50-Seascape-Dr-94019/home/1853429,MLSListings,ML81631806,N,Y,37.4283996,-122.4272196
PAST SALE,May-4-2017,Single Family Residential,3037 Rivera Dr,BURLINGAME,CA,94010,2050000,3,2.5,BURLINGAME,2520,7930,1962,271,813,,Sold,,,http://www.redfin.com/CA/Burlingame/3037-Rivera-Dr-94010/home/1548038,MLSListings,ML81643884,Y,Y,37.5792252,-122.395284
