SALE TYPE,SOLD DATE,PROPERTY TYPE,ADDRESS,CITY,STATE,ZIP,PRICE,BEDS,BATHS,LOCATION,SQUARE FEET,LOT SIZE,YEAR BUILT,DAYS ON MARKET,$/SQUARE FEET,HOA/MONTH,STATUS,NEXT OPEN HOUSE START TIME,NEXT OPEN HOUSE END TIME,URL (SEE http://www.redfin.com/buy-a-home/comparative-market-analysis FOR INFO ON PRICING),SOURCE,MLS#,FAVORITE,INTERESTED,LATITUDE,LONGITUDE
PAST SALE,September-30-2016,Single Family Residential,228 Catalina Ave,PACIFICA,CA,94044,775000,3,1.0,PACIFICA,1060,4251,1963,487,731,29,Sold,,,http://www.redfin.com/CA/Pacifica/228-Catalina-Ave-94044/home/587421,MLSListings,ML81599292,N,Y,37.6560961,-122.4818164
PAST SALE,September-8-2017,Condo/Co-op,3550 Carter Dr #134,SOUTH SAN FRANCISCO,CA,94080,711000,3,2.5,SOUTH SAN FRANCISCO,1644,301820,1979,144,432,442,Sold,,,http://www.redfin.com/CA/South-San-Francisco/3550-Carter-Dr-94080/unit-134/home/1917192,MLSListings,ML81672657,N,Y,37.642108,-122.464802
PAST SALE,October-9-2015,Single Family Residential,290 Winwood Ave,Pacifica,CA,94044,950000,3,2.5,Pacifica,1790,4667,1988,844,531,21,Sold,,,http://www.redfin.com/CA/Pacifica/290-Winwood-Ave-94044/home/1300733,San Francisco MLS,436870,N,Y,37.6543707,-122.487508
PAST SALE,October-9-2017,Single Family Residential,213 Outlook Heights Ct,PACIFICA,CA,94044,1330000,4,2.5,PACIFICA,2320,4932,2001,113,573,120,Sold,,,http://www.redfin.com/CA/Pacifica/213-Outlook-Heights-Ct-94044/home/1003060,MLSListings,ML81676199,N,Y,37.6331147,-122.4735997
PAST SALE,January-31-2017,Single Family Residential,1248 Lerida Way,PACIFICA,CA,94044,1135000,4,3.0,PACIFICA,1910,8432,1965,364,594,,Sold,,,http://www.redfin.com/CA/Pacifica/1248-Lerida-Way-94044/home/1957402,MLSListings,ML81634807,N,Y,37.5926335,-122.4792331
PAST SALE,December-8-2015,Single Family Residential,961 Park Pacifica Ave,Pacifica,CA,94044,988000,3,2.5,Pacifica,1940,6000,1968,784,509,,Sold,,,http://www.redfin.com/CA/Pacifica/961-Park-Pacifica-Ave-94044/home/2054031,San Francisco MLS,439298,N,Y,37.5824278,-122.4736941
PAST SALE,November-15-2016,Condo/Co-op,5009 Palmetto Ave #27,PACIFICA,CA,94044,720000,2,2.0,PACIFICA,1200,,1973,441,600,647,Sold,,,http://www.redfin.com/CA/Pacifica/5009-Palmetto-Ave-94044/unit-27/home/1041862,MLSListings,ML81613387,N,Y,37.65977,-122.490525
PAST SALE,June-20-2017,Single Family Residential,544 Heathcliff Dr,PACIFICA,CA,94044,1210000,4,2.0,PACIFICA,1840,8476,1958,224,658,,Sold,,,http://www.redfin.com/CA/Pacifica/544-Heathcliff-Dr-94044/home/586874,MLSListings,ML81649946,N,Y,37.646466,-122.4752127
PAST SALE,April-21-2017,Single Family Residential,5030 Palmetto Ave,PACIFICA,CA,94044,1000000,4,3.0,PACIFICA,1750,4000,1966,284,571,,Sold,,,http://www.redfin.com/CA/Pacifica/5030-Palmetto-Ave-94044/home/2003917,MLSListings,ML81641491,N,Y,37.6607801,-122.4893629
PAST SALE,October-19-2016,Single Family Residential,417 Coral Ridge Dr,PACIFICA,CA,94044,1165000,4,3.5,PACIFICA,3050,3898,1966,468,382,29,Sold,,,http://www.redfin.com/CA/Pacifica/417-Coral-Ridge-Dr-94044/home/1512452,MLSListings,ML81614539,N,Y,37.6572901,-122.4868223
PAST SALE,September-22-2015,Single Family Residential,559 Manor Dr,Pacifica,CA,94044,740000,3,1.0,Pacifica,930,6468,1954,861,796,,Sold,,,http://www.redfin.com/CA/Pacifica/559-Manor-Dr-94044/home/1901752,San Francisco MLS,436214,N,Y,37.6462848,-122.4766891
PAST SALE,May-2-2016,Single Family Residential,309 Genevieve Ave,Pacifica,CA,94044,1120000,3,3.0,Pacifica,1600,4500,1958,638,700,,Sold,,,http://www.redfin.com/CA/Pacifica/309-Genevieve-Ave-94044/home/1338911,San Francisco MLS,443382,N,Y,37.6101667,-122.4784071
PAST SALE,April-28-2015,Condo/Co-op,5007 Palmetto Ave #42,Pacifica,CA,94044,545000,2,1.0,Pacifica,1000,,1973,1008,545,545,Sold,,,http://www.redfin.com/CA/Pacifica/5007-Palmetto-Ave-94044/unit-42/home/1243509,San Francisco MLS,430552,N,Y,37.659868,-122.490982
PAST SALE,February-24-2017,Single Family Residential,259 Arroyo Dr,PACIFICA,CA,94044,930000,3,2.0,PACIFICA,1500,6000,1949,340,620,,Sold,,,http://www.redfin.com/CA/Pacifica/259-Arroyo-Dr-94044/home/2038529,MLSListings,ML81636633,N,Y,37.6462931,-122.4868109
PAST SALE,November-2-2016,Single Family Residential,532 Johnson Ave,PACIFICA,CA,94044,850000,3,1.5,PACIFICA,1270,5270,1947,454,669,,Sold,,,http://www.redfin.com/CA/Pacifica/532-Johnson-Ave-94044/home/1813468,MLSListings,ML81614339,N,Y,37.6477064,-122.4891433
PAST SALE,October-10-2017,Single Family Residential,1066 View Way,PACIFICA,CA,94044,1069000,3,2.0,PACIFICA,1190,10000,1960,112,898,,Sold,,,http://www.redfin.com/CA/Pacifica/1066-View-Way-94044/home/662473,MLSListings,ML81677969,N,Y,37.5882433,-122.4840849
PAST SALE,June-3-2015,Single Family Residential,20 Melrose Ct,PACIFICA,CA,94044,786000,4,3.0,PACIFICA,2000,7400,1963,972,393,24,Sold,,,http://www.redfin.com/CA/Pacifica/20-Melrose-Ct-94044/home/1561095,MLSListings,ML81459603,N,Y,37.6555905,-122.479681
PAST SALE,August-31-2015,Single Family Residential,5088 Palmetto Ave,Pacifica,CA,94044,730000,3,1.0,Pacifica,1100,4000,1967,883,664,,Sold,,,http://www.redfin.com/CA/Pacifica/5088-Palmetto-Ave-94044/home/2003804,San Francisco MLS,435768,N,Y,37.6586158,-122.4863373
PAST SALE,September-6-2016,Single Family Residential,7 Yellowstone Way,PACIFICA,CA,94044,1070000,3,3.0,PACIFICA,2370,10267,1965,511,451,,Sold,,,http://www.redfin.com/CA/Pacifica/7-Yellowstone-Way-94044/home/1330692,MLSListings,ML81594148,N,Y,37.5845876,-122.4741195
PAST SALE,November-1-2016,Single Family Residential,538 Sea Spray Ct,Pacifica,CA,94044,1100000,4,3.0,Pacifica,2520,3600,1999,455,437,130,Sold,,,http://www.redfin.com/CA/Pacifica/538-Sea-Spray-Ct-94044/home/1613274,San Francisco MLS,448689,N,Y,37.6383475,-122.4674819
PAST SALE,May-25-2015,Single Family Residential,1165 Fassler Ave,PACIFICA,CA,94044,900000,3,2.0,PACIFICA,1988,5000,1972,981,453,,Sold,,,http://www.redfin.com/CA/Pacifica/1165-Fassler-Ave-94044/home/657708,MLSListings,ML81459265,N,Y,37.59939,-122.4793143
PAST SALE,November-28-2016,Condo/Co-op,69 Outlook Cir,PACIFICA,CA,94044,985000,2,2.0,PACIFICA,1257,,1995,428,784,420,Sold,,,http://www.redfin.com/CA/Pacifica/69-Outlook-Cir-94044/unit-33/home/1365119,MLSListings,ML81629186,N,Y,37.63181,-122.47541
PAST SALE,August-3-2016,Townhouse,1346 Terra Nova Blvd,PACIFICA,CA,94044,635000,2,1.5,PACIFICA,960,814,1972,545,661,365,Sold,,,http://www.redfin.com/CA/Pacifica/1346-Terra-Nova-Blvd-94044/home/1923849,MLSListings,ML81591982,N,Y,37.5893145,-122.4763573
PAST SALE,January-21-2016,Single Family Residential,1344 Peralta Rd,Pacifica,CA,94044,820000,3,1.0,Pacifica,1040,5000,1954,740,788,,Sold,,,http://www.redfin.com/CA/Pacifica/1344-Peralta-Rd-94044/home/660061,San Francisco MLS,440476,N,Y,37.5893087,-122.4989483
PAST SALE,March-6-2017,Single Family Residential,1144 Peralta Rd,PACIFICA,CA,94044,1255000,4,3.0,PACIFICA,1840,5000,2011,330,682,,Sold,,,http://www.redfin.com/CA/Pacifica/1144-Peralta-Rd-94044/home/39605503,MLSListings,ML81636226,N,Y,37.5928873,-122.4964499
PAST SALE,June-6-2015,Single Family Residential,884 Montezuma Dr,Pacifica,CA,94044,801000,3,1.0,Pacifica,1040,5712,1954,969,770,,Sold,,,http://www.redfin.com/CA/Pacifica/884-Montezuma-Dr-94044/home/2031374,San Francisco MLS,432235,N,Y,37.5894696,-122.4954717
PAST SALE,,Single Family Residential,836 Arguello Blvd,Pacifica,CA,94044,490000,4,2.0,,1600,4950,1954,,306,,,,,http://www.redfin.com/CA/Pacifica/836-Arguello-Blvd-94044/home/2043991,,,N,Y,37.5911502,-122.4954129
PAST SALE,,Multi-Family (2-4 Unit),555 Crespi Dr,Pacifica,CA,94044,625000,100,1.0,,83760,65776,1973,,7,,,,,http://www.redfin.com/CA/Pacifica/555-Crespi-Dr-94044/home/1451052,,,N,Y,37.5991629,-122.4989268
PAST SALE,July-31-2015,Single Family Residential,1043 Aragon Ct,PACIFICA,CA,94044,855000,3,2.0,PACIFICA,1090,6464,1953,914,784,,Sold,,,http://www.redfin.com/CA/Pacifica/1043-Aragon-Ct-94044/home/661654,MLSListings,ML81472381,N,Y,37.5845999,-122.4942743
PAST SALE,June-26-2015,Single Family Residential,424 Ebken St,PACIFICA,CA,94044,700000,3,2.0,PACIFICA,1170,4500,1964,949,598,,Sold,,,http://www.redfin.com/CA/Pacifica/424-Ebken-St-94044/home/652600,MLSListings,ML81464720,N,Y,37.607126,-122.494134
PAST SALE,November-25-2015,Single Family Residential,1147 Fernandez Way,PACIFICA,CA,94044,690000,3,1.0,PACIFICA,1040,5000,1954,797,663,,Sold,,,http://www.redfin.com/CA/Pacifica/1147-Fernandez-Way-94044/home/1841225,MLSListings,ML81517634,N,Y,37.5945546,-122.4982032
PAST SALE,,Townhouse,1360 Terra Nova Blvd,Pacifica,CA,94044,420000,2,1.0,,900,705,1972,,467,,,,,http://www.redfin.com/CA/Pacifica/1360-Terra-Nova-Blvd-94044/home/1451104,,,N,Y,37.589516,-122.476047
PAST SALE,August-8-2016,Single Family Residential,220 Greenway Dr,PACIFICA,CA,94044,845000,3,2.0,PACIFICA,1050,5000,1955,540,805,,Sold,,,http://www.redfin.com/CA/Pacifica/220-Greenway-Dr-94044/home/2019005,MLSListings,ML81591420,N,Y,37.6210639,-122.4896472
PAST SALE,March-8-2016,Townhouse,24 Outlook Cir,PACIFICA,CA,94044,790000,2,2.5,PACIFICA,1675,,1995,693,472,469,Sold,,,http://www.redfin.com/CA/Pacifica/24-Outlook-Cir-94044/home/1912287,MLSListings,ML81548971,N,Y,37.63181,-122.47541
PAST SALE,December-12-2016,Condo/Co-op,204 Palmetto Ave,PACIFICA,CA,94044,548000,2,2.0,PACIFICA,1281,,1985,414,428,625,Sold,,,http://www.redfin.com/CA/Pacifica/204-Palmetto-Ave-94044/unit-6/home/2045293,MLSListings,ML81585870,N,Y,37.65644,-122.49267
PAST SALE,September-9-2016,Single Family Residential,280 Paloma Ave,PACIFICA,CA,94044,808000,3,1.0,PACIFICA,1060,4635,1946,508,762,,Sold,,,http://www.redfin.com/CA/Pacifica/280-Paloma-Ave-94044/home/1682833,MLSListings,ML81600466,N,Y,37.6363249,-122.4884836
PAST SALE,February-19-2015,Single Family Residential,331 FARALLON Ave,Pacifica,CA,94044,1100000,2,3.5,Pacifica,3100,7130,2002,1076,355,,Sold,,,http://www.redfin.com/CA/Pacifica/331-Farallon-Ave-94044/home/1749386,MLSListings,ML81439619,N,Y,37.6555638,-122.4856181
PAST SALE,,Townhouse,605 Sharp Park Rd,Pacifica,CA,94044,210000,3,2.0,,1695,1664,1984,,124,,,,,http://www.redfin.com/CA/Pacifica/605-Sharp-Park-Rd-94044/home/620565,,,N,Y,37.634402,-122.473973
PAST SALE,,Townhouse,1483 Terra Nova Blvd,Pacifica,CA,94044,625000,2,2.0,,1400,930,1972,,446,,,,,http://www.redfin.com/CA/Pacifica/1483-Terra-Nova-Blvd-94044/home/1930407,,,N,Y,37.591678,-122.476221
PAST SALE,August-7-2015,Single Family Residential,2312 Palmetto Ave,PACIFICA,CA,94044,660000,2,1.0,PACIFICA,944,2900,1940,907,699,,Sold,,,http://www.redfin.com/CA/Pacifica/2312-Palmetto-Ave-94044/home/1749910,MLSListings,ML81470187,N,Y,37.6310625,-122.4927976
PAST SALE,January-21-2016,Condo/Co-op,2355 Beach Blvd #202,PACIFICA,CA,94044,605000,2,2.0,PACIFICA,958,15079,1987,740,632,421,Sold,,,http://www.redfin.com/CA/Pacifica/2355-Beach-Blvd-94044/unit-202/home/1612414,MLSListings,ML81533912,N,Y,37.6304805,-122.4933165
PAST SALE,October-21-2016,Condo/Co-op,222 Palmetto Ave,PACIFICA,CA,94044,728000,2,2.0,PACIFICA,1281,,1985,466,568,625,Sold,,,http://www.redfin.com/CA/Pacifica/222-Palmetto-Ave-94044/unit-2/home/2015734,MLSListings,ML81592111,N,Y,37.65644,-122.49267
PAST SALE,July-23-2015,Single Family Residential,65 San Jose Ave,PACIFICA,CA,94044,730000,2,1.0,PACIFICA,830,3420,1938,922,880,,Sold,,,http://www.redfin.com/CA/Pacifica/65-San-Jose-Ave-94044/home/619808,MLSListings,ML81467558,N,Y,37.6341806,-122.4928975
PAST SALE,March-17-2016,Single Family Residential,106 Bella Vista Ave,PACIFICA,CA,94044,750000,2,1.0,PACIFICA,990,7753,1946,684,758,,Sold,,,http://www.redfin.com/CA/Pacifica/106-Bella-Vista-Ave-94044/home/1459005,MLSListings,ML81545683,N,Y,37.6370089,-122.4915636
PAST SALE,September-1-2016,Single Family Residential,720 Edgemar Ave,PACIFICA,CA,94044,845000,3,1.0,PACIFICA,1010,5501,1956,516,837,,Sold,,,http://www.redfin.com/CA/Pacifica/720-Edgemar-Ave-94044/home/1780196,MLSListings,ML81595663,N,Y,37.6440799,-122.4884723
PAST SALE,May-16-2016,Single Family Residential,209 Edgewood Dr,PACIFICA,CA,94044,835000,3,2.0,PACIFICA,1180,3998,1963,624,708,,Sold,,,http://www.redfin.com/CA/Pacifica/209-Edgewood-Dr-94044/home/588707,MLSListings,ML81581656,N,Y,37.6634222,-122.4825538
PAST SALE,July-10-2015,Condo/Co-op,5005 Palmetto Ave #56,PACIFICA,CA,94044,550000,2,1.0,PACIFICA,1000,,1973,935,550,545,Sold,,,http://www.redfin.com/CA/Pacifica/5005-Palmetto-Ave-94044/unit-56/home/994959,MLSListings,ML81470221,N,Y,37.65977,-122.490525
PAST SALE,August-5-2016,Single Family Residential,118 Paradise Dr,PACIFICA,CA,94044,768000,3,1.0,PACIFICA,1110,3998,1967,543,692,2,Sold,,,http://www.redfin.com/CA/Pacifica/118-Paradise-Dr-94044/home/1860424,MLSListings,ML81592527,N,Y,37.6600002,-122.4893877
PAST SALE,November-28-2016,Single Family Residential,250 Crestview Cir,DALY CITY,CA,94015,1485160,5,3.0,DALY CITY,2334,3040,2015,428,636,148,Sold,,,http://www.redfin.com/CA/Daly-City/250-Crestview-Cir-94015/home/108246950,MLSListings,ML81593627,N,Y,37.667821,-122.481364
PAST SALE,April-6-2016,Single Family Residential,135 Crestview Cir,DALY CITY,CA,94015,1123880,4,3.0,DALY CITY,2008,3284,2016,664,560,150,Sold,,,http://www.redfin.com/CA/Daly-City/135-Crestview-Cir-94015/home/101735228,MLSListings,ML81562921,N,Y,37.667821,-122.481364
PAST SALE,September-11-2015,Single Family Residential,88 Westline Dr,DALY CITY,CA,94015,1039000,7,3.0,DALY CITY,2400,4320,1960,872,433,,Sold,,,http://www.redfin.com/CA/Daly-City/88-Westline-Dr-94015/home/1860268,MLSListings,ML81500221,N,Y,37.6649063,-122.4930468
PAST SALE,,Single Family Residential,111 Edgewood Dr,Pacifica,CA,94044,600000,5,3.0,,1180,4000,1963,,508,,,,,http://www.redfin.com/CA/Pacifica/111-Edgewood-Dr-94044/home/1338114,,,N,Y,37.6640559,-122.482727
PAST SALE,June-22-2016,Single Family Residential,17 Moon Gate Ct,PACIFICA,CA,94044,990000,3,2.0,PACIFICA,1250,6446,1967,587,792,25,Sold,,,http://www.redfin.com/CA/Pacifica/17-Moon-Gate-Ct-94044/home/2036008,MLSListings,ML81583122,N,Y,37.6600254,-122.4876685
PAST SALE,May-21-2015,Single Family Residential,54 Gateway Dr,PACIFICA,CA,94044,800000,5,2.0,PACIFICA,1609,4000,1963,985,497,,Sold,,,http://www.redfin.com/CA/Pacifica/54-Gateway-Dr-94044/home/1502033,MLSListings,ML81460509,N,Y,37.664879,-122.4839344
PAST SALE,September-8-2015,Single Family Residential,685 Parkview Ct,PACIFICA,CA,94044,705000,3,2.0,PACIFICA,1180,4674,1963,875,597,,Sold,,,http://www.redfin.com/CA/Pacifica/685-Parkview-Ct-94044/home/1546126,MLSListings,ML81499820,N,Y,37.6595963,-122.4795092
PAST SALE,April-28-2016,Single Family Residential,8 Moon Gate Ct,Pacifica,CA,94044,962000,3,2.0,Pacifica,1320,4365,1967,642,729,,Sold,,,http://www.redfin.com/CA/Pacifica/8-Moon-Gate-Ct-94044/home/1654646,San Francisco MLS,443486,N,Y,37.6597446,-122.4879272
PAST SALE,February-24-2017,Single Family Residential,1171 Palou Dr,Pacifica,CA,94044,730000,3,1.0,Pacifica,1040,5500,1955,340,702,,Sold,,,http://www.redfin.com/CA/Pacifica/1171-Palou-Dr-94044/home/663277,VCRDS,216015870,N,Y,37.582225,-122.4905748
PAST SALE,,Single Family Residential,1063 Rio Vista Dr,Pacifica,CA,94044,380100,3,4.0,,2220,20352,1953,,171,,,,,http://www.redfin.com/CA/Pacifica/1063-Rio-Vista-Dr-94044/home/1395016,,,N,Y,37.5848036,-122.4926241
PAST SALE,,Single Family Residential,887 Standish Rd,Pacifica,CA,94044,700000,3,2.0,,1230,5100,1960,,569,,,,,http://www.redfin.com/CA/Pacifica/887-Standish-Rd-94044/home/660680,,,N,Y,37.5878973,-122.4957067
PAST SALE,April-29-2016,Single Family Residential,1012 Monte Verde Dr,PACIFICA,CA,94044,803500,3,1.0,PACIFICA,1040,6550,1954,641,773,,Sold,,,http://www.redfin.com/CA/Pacifica/1012-Monte-Verde-Dr-94044/home/1120950,MLSListings,ML81561395,N,Y,37.5835359,-122.4965544
PAST SALE,November-16-2016,Single Family Residential,1540 Flores Dr,PACIFICA,CA,94044,845000,5,2.0,PACIFICA,1560,5000,1954,440,542,,Sold,,,http://www.redfin.com/CA/Pacifica/1540-Flores-Dr-94044/home/1385708,MLSListings,ML81613337,N,Y,37.5897916,-122.4990457
PAST SALE,July-27-2016,Single Family Residential,843 Linda Mar Blvd,PACIFICA,CA,94044,830000,3,1.0,PACIFICA,1040,5100,1954,552,798,,Sold,,,http://www.redfin.com/CA/Pacifica/843-Linda-Mar-Blvd-94044/home/1940978,MLSListings,ML81587962,N,Y,37.5908116,-122.4954012
PAST SALE,February-7-2017,Single Family Residential,125 Paradise Dr,PACIFICA,CA,94044,680000,3,1.0,PACIFICA,1110,4000,1967,357,613,26,Sold,,,http://www.redfin.com/CA/Pacifica/125-Paradise-Dr-94044/home/1596644,MLSListings,ML81500457,N,Y,37.6596241,-122.4888992
PAST SALE,March-2-2017,Single Family Residential,102 Catalina Ave,PACIFICA,CA,94044,890000,4,2.5,PACIFICA,1600,5000,1964,334,556,,Sold,,,http://www.redfin.com/CA/Pacifica/102-Catalina-Ave-94044/home/588538,MLSListings,ML81627706,N,Y,37.6568375,-122.4855148
PAST SALE,August-11-2015,Single Family Residential,244 Winwood Ave,PACIFICA,CA,94044,888000,4,2.5,PACIFICA,2150,4235,1988,903,413,24,Sold,,,http://www.redfin.com/CA/Pacifica/Winwood-Ave-94044/home/586041,MLSListings,ML81483190,N,Y,37.6546492,-122.488331
PAST SALE,April-1-2015,Single Family Residential,207 Avalon Dr,PACIFICA,CA,94044,700000,2,1.0,PACIFICA,1140,6375,1947,1035,614,,Sold,,,http://www.redfin.com/CA/Pacifica/207-Avalon-Dr-94044/home/581821,MLSListings,ML81453586,N,Y,37.6471922,-122.4892403
PAST SALE,September-9-2016,Vacant Land,1 Higgins Way,Pacifica,CA,94044,700000,,,Pacifica,,1487705,,508,,,Sold,,,http://www.redfin.com/CA/Pacifica/1-Higgins-Way-94044/home/81551869,San Francisco MLS,446870,N,Y,37.582702,-122.496834
PAST SALE,August-31-2015,Single Family Residential,301 Channing,PACIFICA,CA,94044,860000,4,4.5,PACIFICA,2000,5000,1950,883,430,,Sold,,,http://www.redfin.com/CA/Pacifica/301-Channing-Way-94044/home/583857,MLSListings,ML81468209,N,Y,37.6537881,-122.4863081
PAST SALE,December-23-2015,Single Family Residential,627 Forest Lake Dr,Pacifica,CA,94044,789000,3,2.0,Pacifica,1110,4000,1964,769,711,,Sold,,,http://www.redfin.com/CA/Pacifica/627-Forest-Lake-Dr-94044/home/2056884,San Francisco MLS,440185,N,Y,37.652112,-122.4761233
PAST SALE,,Single Family Residential,3650 Exeter Dr,San Bruno,CA,94066,223500,3,2.0,,1170,5202,1959,,191,,,,,http://www.redfin.com/CA/San-Bruno/3650-Exeter-Dr-94066/home/622624,,,N,Y,37.6316327,-122.4710571
PAST SALE,December-12-2016,Single Family Residential,1503 Adobe Dr,PACIFICA,CA,94044,765000,3,1.0,PACIFICA,1200,5000,1954,414,638,,Sold,,,http://www.redfin.com/CA/Pacifica/1503-Adobe-Dr-94044/home/1158890,MLSListings,ML81614337,N,Y,37.5852362,-122.4968581
PAST SALE,August-26-2015,Condo/Co-op,2752 Duhallow Way,SOUTH SAN FRANCISCO,CA,94080,585100,2,1.5,SOUTH SAN FRANCISCO,1040,,1973,888,563,300,Sold,,,http://www.redfin.com/CA/South-San-Francisco/2752-Duhallow-Way-94080/home/2050815,MLSListings,ML81483285,N,Y,37.644167,-122.466809
PAST SALE,March-19-2015,Townhouse,2751 Kilconway Ln,SOUTH SAN FRANCISCO,CA,94080,600000,3,1.5,SOUTH SAN FRANCISCO,1200,,1973,1048,500,300,Sold,,,http://www.redfin.com/CA/South-San-Francisco/2751-Kilconway-Ln-94080/home/2000360,MLSListings,ML81450697,N,Y,37.6443649,-122.4672599
PAST SALE,December-15-2015,Condo/Co-op,3721 Carter Dr #2104,SOUTH SAN FRANCISCO,CA,94080,555000,2,2.0,SOUTH SAN FRANCISCO,1060,,2004,777,524,350,Sold,,,http://www.redfin.com/CA/South-San-Francisco/3721-Carter-Dr-94080/unit-2104/home/1009514,MLSListings,ML81522231,N,Y,37.6447438,-122.4678865
PAST SALE,,Single Family Residential,136 McKinney Ave,Pacifica,CA,94044,650000,3,1.0,,1020,5450,1950,,637,,,,,http://www.redfin.com/CA/Pacifica/136-McKinney-Ave-94044/home/1873970,,,N,Y,37.6442865,-122.4872874
PAST SALE,March-25-2015,Single Family Residential,2687 Stamford,South San Francisco,CA,94080,800000,4,3.0,South San Francisco,1770,2500,1973,1042,452,,Sold,,,http://www.redfin.com/CA/South-San-Francisco/2687-Stamford-Row-94080/home/918411,San Francisco MLS,429854,N,Y,37.6460736,-122.4686336
PAST SALE,February-27-2015,Townhouse,3550 Carter Dr #28,South San Francisco,CA,94080,610000,3,2.5,South San Francisco,1644,,1979,1068,371,325,Sold,,,http://www.redfin.com/CA/South-San-Francisco/3550-Carter-Dr-94080/unit-28/home/1073673,San Francisco MLS,428211,N,Y,37.642108,-122.464802
PAST SALE,December-17-2015,Townhouse,3550 Carter Dr #96,South San Francisco,CA,94080,680000,3,2.5,South San Francisco,1644,,1979,775,414,325,Sold,,,http://www.redfin.com/CA/South-San-Francisco/3550-Carter-Dr-94080/unit-96/home/1175788,San Francisco MLS,437592,N,Y,37.642108,-122.464802
PAST SALE,November-22-2016,Single Family Residential,1011 Big Bend Dr,PACIFICA,CA,94044,950000,4,2.5,PACIFICA,2330,6507,1967,434,408,,Sold,,,http://www.redfin.com/CA/Pacifica/1011-Big-Bend-Dr-94044/home/1957414,MLSListings,ML81597543,N,Y,37.589012,-122.4667146
PAST SALE,October-17-2016,Single Family Residential,1130 Everglades Dr,PACIFICA,CA,94044,845000,4,2.0,PACIFICA,1950,5449,1969,470,433,,Sold,,,http://www.redfin.com/CA/Pacifica/1130-Everglades-Dr-94044/home/1606177,MLSListings,ML81611905,N,Y,37.5935557,-122.4700715
PAST SALE,July-29-2016,Single Family Residential,1125 Grand Teton Dr,PACIFICA,CA,94044,890000,4,3.0,PACIFICA,1400,6499,1967,550,636,,Sold,,,http://www.redfin.com/CA/Pacifica/1125-Grand-Teton-Dr-94044/home/2054952,MLSListings,ML81593159,N,Y,37.5904981,-122.4676653
PAST SALE,January-4-2017,Single Family Residential,1045 Everglades Dr,PACIFICA,CA,94044,928357,4,3.0,PACIFICA,2070,7901,1969,391,448,,Sold,,,http://www.redfin.com/CA/Pacifica/1045-Everglades-Dr-94044/home/1180612,MLSListings,ML81628958,N,Y,37.5917397,-122.4668277
PAST SALE,September-23-2016,Single Family Residential,844 Cape Breton Dr,PACIFICA,CA,94044,950000,4,3.0,PACIFICA,1925,7000,1973,494,494,,Sold,,,http://www.redfin.com/CA/Pacifica/844-Cape-Breton-Dr-94044/home/1987035,MLSListings,ML81594233,N,Y,37.5953188,-122.4620789
PAST SALE,February-24-2017,Townhouse,1033 Oddstad Blvd,PACIFICA,CA,94044,615000,2,1.5,PACIFICA,940,735,1973,340,654,320,Sold,,,http://www.redfin.com/CA/Pacifica/1033-Oddstad-Blvd-94044/home/1385595,MLSListings,ML81636845,N,Y,37.5916784,-122.465312
PAST SALE,February-10-2017,Single Family Residential,977 Skyline Dr,DALY CITY,CA,94015,770000,3,1.0,DALY CITY,1060,3600,1962,354,726,,Sold,,,http://www.redfin.com/CA/Daly-City/977-Skyline-Dr-94015/home/2007667,MLSListings,ML81634713,N,Y,37.6676036,-122.4864606
PAST SALE,April-26-2016,Condo/Co-op,2747 Kilconway Ln,SOUTH SAN FRANCISCO,CA,94080,610000,2,1.5,SOUTH SAN FRANCISCO,1040,119145,1973,644,587,330,Sold,,,http://www.redfin.com/CA/South-San-Francisco/2747-Kilconway-Ln-94080/home/953864,MLSListings,ML81577126,N,Y,37.644167,-122.466809
PAST SALE,March-3-2017,Multi-Family (2-4 Unit),444 Norfolk Dr,PACIFICA,CA,94044,1280000,6,,PACIFICA,2810,6901,1961,333,456,,Sold,,,http://www.redfin.com/CA/Pacifica/444-Norfolk-Dr-94044/home/1613217,MLSListings,ML81635226,N,Y,37.648833,-122.480913
PAST SALE,March-6-2017,Single Family Residential,716 Edgemar Ave,PACIFICA,CA,94044,905000,3,2.0,PACIFICA,1010,5500,1956,330,896,,Sold,,,http://www.redfin.com/CA/Pacifica/716-Edgemar-Ave-94044/home/1950464,MLSListings,ML81637107,N,Y,37.6441601,-122.4886033
PAST SALE,April-15-2016,Single Family Residential,15 Alisal Ct,PACIFICA,CA,94044,1250000,4,2.5,PACIFICA,2780,6234,2000,655,450,155,Sold,,,http://www.redfin.com/CA/Pacifica/15-Alisal-Ct-94044/home/1065178,MLSListings,ML81522616,N,Y,37.6537882,-122.4729425
PAST SALE,August-25-2015,Single Family Residential,601 Farallon Ave,PACIFICA,CA,94044,820000,4,2.0,PACIFICA,1693,5700,1964,889,484,,Sold,,,http://www.redfin.com/CA/Pacifica/601-Farallon-Ave-94044/home/1977883,MLSListings,ML81483386,N,Y,37.6518473,-122.4828582
PAST SALE,,Single Family Residential,423 Manor Dr,Pacifica,CA,94044,765000,3,1.0,,1050,6760,1951,,729,,,,,http://www.redfin.com/CA/Pacifica/423-Manor-Dr-94044/home/586737,,,N,Y,37.6476643,-122.4822158
PAST SALE,June-22-2016,Single Family Residential,439 Harvey Way,PACIFICA,CA,94044,725000,4,2.0,PACIFICA,1620,6011,1956,587,448,,Sold,,,http://www.redfin.com/CA/Pacifica/439-Harvey-Way-94044/home/650037,MLSListings,ML81583548,N,Y,37.6091965,-122.4940027
PAST SALE,January-23-2017,Single Family Residential,1301 Aspen Dr,PACIFICA,CA,94044,1110000,3,2.5,PACIFICA,1850,19000,1979,372,600,,Sold,,,http://www.redfin.com/CA/Pacifica/1301-Aspen-Dr-94044/home/1273791,MLSListings,ML81632995,N,Y,37.588505,-122.4754219
PAST SALE,August-10-2016,Single Family Residential,777 Reina Del Mar Ave,PACIFICA,CA,94044,1700000,4,3.5,PACIFICA,3480,4499,1956,538,489,,Sold,,,http://www.redfin.com/CA/Pacifica/777-Reina-Del-Mar-Ave-94044/home/1067030,MLSListings,ML81592557,N,Y,37.6127824,-122.4772641
PAST SALE,September-28-2016,Single Family Residential,313 Sycamore St,PACIFICA,CA,94044,989000,4,3.5,PACIFICA,2288,2238,2007,489,432,149,Sold,,,http://www.redfin.com/CA/Pacifica/313-Sycamore-St-94044/unit-4/home/17307719,MLSListings,ML81599495,N,Y,37.6472847,-122.4726764
PAST SALE,December-20-2016,Single Family Residential,483 Lomond Dr,PACIFICA,CA,94044,825000,4,2.5,PACIFICA,1700,5026,1955,406,485,,Sold,,,http://www.redfin.com/CA/Pacifica/483-Lomond-Dr-94044/home/1955151,MLSListings,ML81630982,N,Y,37.6492992,-122.4737016
PAST SALE,August-14-2015,Single Family Residential,32 Alisal Ct,Pacifica,CA,94044,902000,5,3.0,Pacifica,2580,4535,2000,900,350,160,Sold,,,http://www.redfin.com/CA/Pacifica/32-Alisal-Ct-94044/home/1002122,San Francisco MLS,435028,N,Y,37.6532081,-122.4726332
PAST SALE,July-30-2015,Single Family Residential,983 La Mirada Way,Pacifica,CA,94044,825000,4,2.0,San Mateo County,1920,6180,1954,915,430,,Sold,,,http://www.redfin.com/CA/Pacifica/983-La-Mirada-Way-94044/home/1190175,BAREIS,21515672,N,Y,37.5946196,-122.4893582
PAST SALE,February-17-2017,Single Family Residential,68 Oviedo Ct,PACIFICA,CA,94044,850000,3,2.0,PACIFICA,1470,13950,1960,347,578,,Sold,,,http://www.redfin.com/CA/Pacifica/68-Oviedo-Ct-94044/home/659191,MLSListings,ML81635052,N,Y,37.5913952,-122.4906954
PAST SALE,December-21-2015,Single Family Residential,1390 Solano Dr,PACIFICA,CA,94044,725000,3,1.0,PACIFICA,1040,5500,1955,771,697,,Sold,,,http://www.redfin.com/CA/Pacifica/1390-Solano-Dr-94044/home/1106404,MLSListings,ML81513919,N,Y,37.5848682,-122.4907811
PAST SALE,,Single Family Residential,120 Carmel Ave,Pacifica,CA,94044,740000,2,1.0,,700,4500,1930,,1057,,,,,http://www.redfin.com/CA/Pacifica/120-Carmel-Ave-94044/home/618615,,,N,Y,37.6356397,-122.4914827
PAST SALE,November-14-2016,Single Family Residential,628 Foothill Dr,Pacifica,CA,94044,700000,3,1.5,San Mateo County,1240,4212,1964,442,565,,Sold,,,http://www.redfin.com/CA/Pacifica/628-Foothill-Dr-94044/home/592826,BAREIS,21620980,N,Y,37.6525279,-122.476484
PAST SALE,May-22-2015,Single Family Residential,355 Channing Way,PACIFICA,CA,94044,922000,3,2.5,PACIFICA,2160,8360,1978,984,427,,Sold,,,http://www.redfin.com/CA/Pacifica/355-Channing-Way-94044/home/584084,MLSListings,ML81460670,N,Y,37.6536506,-122.485033
PAST SALE,May-18-2016,Single Family Residential,451 Firecrest Ave,PACIFICA,CA,94044,708000,3,1.0,PACIFICA,1130,3998,1964,622,627,23,Sold,,,http://www.redfin.com/CA/Pacifica/451-Firecrest-Ave-94044/home/1179572,MLSListings,ML81565640,N,Y,37.655501,-122.4746203
PAST SALE,January-5-2017,Single Family Residential,47 Santa Maria Ave,PACIFICA,CA,94044,725000,1,1.0,PACIFICA,480,4499,1945,390,1510,,Sold,,,http://www.redfin.com/CA/Pacifica/47-Santa-Maria-Ave-94044/home/618513,MLSListings,ML81626615,N,Y,37.6354117,-122.4931349
PAST SALE,October-13-2016,Single Family Residential,122 San Jose Ave,PACIFICA,CA,94044,850000,2,1.0,PACIFICA,1170,4499,1947,474,726,,Sold,,,http://www.redfin.com/CA/Pacifica/122-San-Jose-Ave-94044/home/619133,MLSListings,ML81614756,N,Y,37.6338612,-122.491529
PAST SALE,,Single Family Residential,412 Bally Way,Pacifica,CA,94044,655000,3,2.0,,1790,4933,1989,,366,,,,,http://www.redfin.com/CA/Pacifica/412-Bally-Way-94044/home/586097,,,N,Y,37.6537459,-122.4896278
PAST SALE,June-23-2015,Single Family Residential,500 Beaumont Blvd,PACIFICA,CA,94044,910000,3,2.5,PACIFICA,1700,3300,1960,952,535,,Sold,,,http://www.redfin.com/CA/Pacifica/500-Beaumont-Blvd-94044/home/579594,MLSListings,ML81465390,N,Y,37.6532177,-122.4847871
PAST SALE,November-15-2016,Condo/Co-op,3550 Carter Dr #121,SOUTH SAN FRANCISCO,CA,94080,540000,2,1.5,SOUTH SAN FRANCISCO,877,,1979,441,616,326,Sold,,,http://www.redfin.com/CA/South-San-Francisco/3550-Carter-Dr-94080/unit-121/home/1260787,MLSListings,ML81598258,N,Y,37.642108,-122.464802
PAST SALE,July-22-2016,Condo/Co-op,3721 Carter Dr #1202,SOUTH SAN FRANCISCO,CA,94080,688888,2,2.0,SOUTH SAN FRANCISCO,1140,,2004,557,604,350,Sold,,,http://www.redfin.com/CA/South-San-Francisco/3721-Carter-Dr-94080/unit-1202/home/1383395,MLSListings,ML81588844,N,Y,37.6447438,-122.4678865
PAST SALE,,Single Family Residential,1025 Skyline Dr,Daly City,CA,94015,550000,3,2.0,,1150,3300,1961,,478,,,,,http://www.redfin.com/CA/Daly-City/1025-Skyline-Dr-94015/home/581508,,,N,Y,37.6664115,-122.4862979
PAST SALE,March-19-2015,Single Family Residential,9 Westcliff Ct,Pacifica,CA,94044,868000,4,3.0,Pacifica,1777,4800,1963,1048,488,,Sold,,,http://www.redfin.com/CA/Pacifica/9-Westcliff-Ct-94044/home/1939518,San Francisco MLS,429363,N,Y,37.6641537,-122.4836373
PAST SALE,September-2-2015,Townhouse,143 Outlook Cir,PACIFICA,CA,94044,700000,1,1.0,PACIFICA,939,,1995,881,745,374,Sold,,,http://www.redfin.com/CA/Pacifica/143-Outlook-Cir-94044/home/1545484,MLSListings,ML81498455,N,Y,37.63181,-122.47541
PAST SALE,,Unknown,60 Altamont Dr,Daly City,CA,94015,1220000,,,,,,,,,,,,,http://www.redfin.com/CA/Daly-City/60-Altamont-Dr-94015/home/101820414,,,N,Y,37.667839,-122.481335
PAST SALE,December-12-2016,Single Family Residential,208 Crestview Cir,DALY CITY,CA,94015,1365000,5,3.0,DALY CITY,2334,3040,2016,414,585,150,Sold,,,http://www.redfin.com/CA/Daly-City/208-Crestview-Cir-94015/home/105502395,MLSListings,ML81627797,N,Y,37.667821,-122.481364
PAST SALE,,Single Family Residential,411 Crestview Cir,Daly City,CA,94015,1275000,5,4.0,,2426,4835,2015,,526,,,,,http://www.redfin.com/CA/Daly-City/411-Crestview-Cir-94015/home/108551338,,,N,Y,37.667821,-122.481364
PAST SALE,June-17-2016,Single Family Residential,131 Eastridge Cir,PACIFICA,CA,94044,840000,4,2.0,PACIFICA,1470,3998,1966,592,571,,Sold,,,http://www.redfin.com/CA/Pacifica/131-Eastridge-Cir-94044/home/2008008,MLSListings,ML81578762,N,Y,37.666395,-122.4828545
PAST SALE,February-28-2017,Single Family Residential,46 NW Gateway Dr,PACIFICA,CA,94044,820000,4,2.0,PACIFICA,1348,4000,1965,336,608,125,Sold,,,http://www.redfin.com/CA/Pacifica/46-Gateway-Dr-94044/home/1320362,MLSListings,ML81636121,N,Y,37.6650145,-122.4841817
PAST SALE,,Single Family Residential,227 Sunshine Dr,Pacifica,CA,94044,200000,3,1.0,,1060,4000,1963,,189,,,,,http://www.redfin.com/CA/Pacifica/227-Sunshine-Dr-94044/home/1672092,,,N,Y,37.6636931,-122.4807529
PAST SALE,November-23-2015,Single Family Residential,219 Sunshine Dr,Pacifica,CA,94044,846000,4,2.0,Pacifica,1710,4000,1962,799,495,,Sold,,,http://www.redfin.com/CA/Pacifica/219-Sunshine-Dr-94044/home/1714047,San Francisco MLS,438982,N,Y,37.6638673,-122.4809172
PAST SALE,July-5-2016,Single Family Residential,247 Gateway Dr,PACIFICA,CA,94044,945000,4,4.0,PACIFICA,1920,4430,1963,574,492,24,Sold,,,http://www.redfin.com/CA/Pacifica/247-Gateway-Dr-94044/home/1440288,MLSListings,ML81589943,N,Y,37.6637561,-122.4796775
PAST SALE,March-8-2017,Single Family Residential,137 Penhurst Ct,DALY CITY,CA,94015,992888,3,3.0,DALY CITY,1630,10450,1981,328,609,,Sold,,,http://www.redfin.com/CA/Daly-City/137-Penhurst-Ct-94015/home/2030132,MLSListings,ML81635179,N,Y,37.6604462,-122.4752453
PAST SALE,August-7-2015,Single Family Residential,1092 Manzanita Dr,PACIFICA,CA,94044,810000,3,2.0,PACIFICA,1190,5202,1960,907,681,,Sold,,,http://www.redfin.com/CA/Pacifica/1092-Manzanita-Dr-94044/home/1199098,MLSListings,ML81496569,N,Y,37.5875454,-122.4830273
PAST SALE,October-6-2016,Single Family Residential,1139 Banyan Way,PACIFICA,CA,94044,1013000,4,3.5,PACIFICA,2140,6603,1962,481,473,,Sold,,,http://www.redfin.com/CA/Pacifica/1139-Banyan-Way-94044/home/1169942,MLSListings,ML81599905,N,Y,37.5865163,-122.4800995
PAST SALE,April-28-2015,Single Family Residential,1344 Redwood Way,PACIFICA,CA,94044,780000,4,3.0,PACIFICA,1600,8060,1964,1008,488,,Sold,,,http://www.redfin.com/CA/Pacifica/1344-Redwood-Way-94044/home/1237586,MLSListings,ML81455589,N,Y,37.5909595,-122.4779963
PAST SALE,September-21-2016,Single Family Residential,30 Judson Pl,PACIFICA,CA,94044,1000000,3,3.0,PACIFICA,2180,7562,1972,496,459,,Sold,,,http://www.redfin.com/CA/Pacifica/30-Judson-Pl-94044/home/1199296,MLSListings,ML81598768,N,Y,37.582241,-122.4718346
PAST SALE,December-21-2016,Single Family Residential,871 Silvia Ct,PACIFICA,CA,94044,1140000,4,2.5,PACIFICA,2100,9674,1963,405,543,,Sold,,,http://www.redfin.com/CA/Pacifica/871-Silvia-Ct-94044/home/663006,MLSListings,ML81630228,N,Y,37.5873584,-122.4964831
PAST SALE,March-22-2016,Single Family Residential,275 Winwood Way,PACIFICA,CA,94044,805000,3,2.0,PACIFICA,1320,6760,1937,679,610,,Sold,,,http://www.redfin.com/CA/Pacifica/275-Winwood-Ave-94044/home/583424,MLSListings,ML81548753,N,Y,37.6548881,-122.4876436
PAST SALE,October-27-2015,Single Family Residential,863 Silvia Ct,PACIFICA,CA,94044,885000,3,2.0,PACIFICA,1667,5050,1961,826,531,,Sold,,,http://www.redfin.com/CA/Pacifica/863-Silvia-Ct-94044/home/1707702,MLSListings,ML81514441,N,Y,37.5870297,-122.497082
PAST SALE,November-13-2015,Single Family Residential,436 Inverness Dr,PACIFICA,CA,94044,735000,4,2.0,PACIFICA,1220,5000,1955,809,602,,Sold,,,http://www.redfin.com/CA/Pacifica/436-Inverness-Dr-94044/home/2008024,MLSListings,ML81516869,N,Y,37.649786,-122.47658
PAST SALE,August-18-2016,Single Family Residential,837 Lisa Ct,PACIFICA,CA,94044,850000,3,2.0,PACIFICA,1230,4639,1961,530,691,,Sold,,,http://www.redfin.com/CA/Pacifica/837-Lisa-Ct-94044/home/1748169,MLSListings,ML81585604,N,Y,37.5873112,-122.4978703
PAST SALE,July-28-2016,Single Family Residential,246 Bancroft Way,PACIFICA,CA,94044,791000,2,1.0,PACIFICA,770,3001,1949,551,1027,,Sold,,,http://www.redfin.com/CA/Pacifica/246-Bancroft-Way-94044/home/1994124,MLSListings,ML81589123,N,Y,37.6521633,-122.4878398
PAST SALE,,Single Family Residential,491 Imperial Dr,Pacifica,CA,94044,860000,3,3.0,,1990,4100,1965,,432,,,,,http://www.redfin.com/CA/Pacifica/491-Imperial-Dr-94044/home/1571711,,,N,Y,37.6536882,-122.4755343
PAST SALE,March-23-2016,Single Family Residential,304 Firecrest Ave,PACIFICA,CA,94044,875000,4,3.0,PACIFICA,2015,4238,1965,678,434,25,Sold,,,http://www.redfin.com/CA/Pacifica/304-Firecrest-Ave-94044/home/593594,MLSListings,ML81550811,N,Y,37.6574249,-122.4786901
PAST SALE,,Single Family Residential,423 Firecrest Ave,Pacifica,CA,94044,648000,3,2.0,,1330,4000,1964,,487,,,,,http://www.redfin.com/CA/Pacifica/423-Firecrest-Ave-94044/home/2055755,,,N,Y,37.656189,-122.475018
PAST SALE,February-27-2015,Single Family Residential,175 Lorry Ln,PACIFICA,CA,94044,650000,3,1.0,PACIFICA,1160,5700,1958,1068,560,,Sold,,,http://www.redfin.com/CA/Pacifica/175-Lorry-Ln-94044/home/586250,MLSListings,ML81445445,N,Y,37.6472248,-122.4763482
PAST SALE,,Single Family Residential,316 Crestview Cir,Daly City,CA,94015,1240000,5,4.0,,2430,10183,2015,,510,,,,,http://www.redfin.com/CA/Daly-City/316-Crestview-Cir-94015/home/101820401,,,N,Y,37.667821,-122.481364
PAST SALE,August-1-2016,Single Family Residential,528 Heathcliff Dr,PACIFICA,CA,94044,960000,3,1.5,PACIFICA,1090,5501,1956,547,881,,Sold,,,http://www.redfin.com/CA/Pacifica/528-Heathcliff-Dr-94044/home/1861584,MLSListings,ML81591581,N,Y,37.6469543,-122.475513
PAST SALE,July-29-2016,Single Family Residential,575 Manor Dr,PACIFICA,CA,94044,1475000,4,4.0,PACIFICA,3040,8296,2010,550,485,,Sold,,,http://www.redfin.com/CA/Pacifica/575-Manor-Dr-94044/home/2028865,MLSListings,ML81587092,N,Y,37.6462478,-122.4759457
PAST SALE,December-20-2016,Single Family Residential,276 Gateway Dr,PACIFICA,CA,94044,700000,5,2.0,PACIFICA,1500,3998,1963,406,467,,Sold,,,http://www.redfin.com/CA/Pacifica/276-Gateway-Dr-94044/home/1264188,MLSListings,ML81628439,N,Y,37.6621588,-122.4796276
PAST SALE,October-17-2016,Single Family Residential,252 Sunshine Dr,PACIFICA,CA,94044,915000,5,3.0,PACIFICA,2076,3998,1963,470,441,24,Sold,,,http://www.redfin.com/CA/Pacifica/252-Sunshine-Dr-94044/home/1483584,MLSListings,ML81611719,N,Y,37.6629299,-122.4806953
PAST SALE,,Single Family Residential,318 Horizon Way,Pacifica,CA,94044,170000,3,1.0,,1280,4000,1964,,133,,,,,http://www.redfin.com/CA/Pacifica/318-Horizon-Way-94044/home/1412731,,,N,Y,37.6540039,-122.4784744
PAST SALE,March-7-2016,Single Family Residential,648 Foothill Dr,PACIFICA,CA,94044,649900,3,1.0,PACIFICA,1110,4199,1964,694,585,24,Sold,,,http://www.redfin.com/CA/Pacifica/648-Foothill-Dr-94044/home/1629843,MLSListings,ML81546238,N,Y,37.6521776,-122.4754725
PAST SALE,November-1-2016,Single Family Residential,422 Imperial Dr,PACIFICA,CA,94044,850000,3,1.5,PACIFICA,1250,3998,1965,455,680,,Sold,,,http://www.redfin.com/CA/Pacifica/422-Imperial-Dr-94044/home/1722581,MLSListings,ML81615038,N,Y,37.6553751,-122.4770339
PAST SALE,,Condo/Co-op,504 Monterey Rd #2,Pacifica,CA,94044,715000,2,1.0,,1050,,,,681,,,,,http://www.redfin.com/CA/Pacifica/504-Monterey-Rd-94044/unit-2/home/996719,,,N,Y,37.6499343,-122.4804806
PAST SALE,May-7-2015,Condo/Co-op,504 Monterey Rd #5,PACIFICA,CA,94044,584500,2,1.5,PACIFICA,1050,,1981,999,557,420,Sold,,,http://www.redfin.com/CA/Pacifica/504-Monterey-Rd-94044/unit-5/home/1138629,MLSListings,ML81450522,N,Y,37.6499343,-122.4804806
PAST SALE,April-30-2015,Condo/Co-op,504 Monterey Rd #15,PACIFICA,CA,94044,580000,2,1.5,PACIFICA,1050,,1987,1006,552,420,Sold,,,http://www.redfin.com/CA/Pacifica/504-Monterey-Rd-94044/unit-15/home/2045275,MLSListings,ML81453942,N,Y,37.6499343,-122.4804806
PAST SALE,December-16-2016,Single Family Residential,458 Imperial Dr,PACIFICA,CA,94044,750000,3,1.5,PACIFICA,1740,3998,1964,410,431,23,Sold,,,http://www.redfin.com/CA/Pacifica/458-Imperial-Dr-94044/home/2040139,MLSListings,ML81631078,N,Y,37.6545075,-122.476484
PAST SALE,March-1-2017,Single Family Residential,1670 Adobe Dr,PACIFICA,CA,94044,1575000,4,4.5,PACIFICA,4400,51866,2004,335,358,,Sold,,,http://www.redfin.com/CA/Pacifica/1670-Adobe-Dr-94044/home/2099405,MLSListings,ML81599445,N,Y,37.5818833,-122.5002691
PAST SALE,,Single Family Residential,623 Claridge Dr,Pacifica,CA,94044,810000,3,2.0,,1220,5600,1954,,664,,,,,http://www.redfin.com/CA/Pacifica/623-Claridge-Dr-94044/home/1842303,,,N,Y,37.6456758,-122.4709186
PAST SALE,August-3-2016,Single Family Residential,685 Heather Ct,PACIFICA,CA,94044,700000,3,2.0,PACIFICA,1220,9860,1954,545,574,,Sold,,,http://www.redfin.com/CA/Pacifica/685-Heather-Ct-94044/home/1854114,MLSListings,ML81592753,N,Y,37.6440696,-122.4705884
PAST SALE,July-29-2016,Single Family Residential,117 Cypress St,PACIFICA,CA,94044,1025000,4,2.5,PACIFICA,2239,3489,2007,550,458,149,Sold,,,http://www.redfin.com/CA/Pacifica/117-Cypress-St-94044/unit-50/home/17307166,MLSListings,ML81587805,N,Y,37.6476687,-122.4740537
PAST SALE,October-5-2016,Single Family Residential,259 Bayberry Cir,PACIFICA,CA,94044,1000000,4,3.0,PACIFICA,2124,3145,2007,482,471,149,Sold,,,http://www.redfin.com/CA/Pacifica/259-Bayberry-Cir-94044/unit-74/home/17307680,MLSListings,ML81598384,N,Y,37.6479057,-122.4727113
PAST SALE,May-19-2016,Single Family Residential,512 Inverness Dr,PACIFICA,CA,94044,753000,3,2.0,PACIFICA,1220,5000,1992,621,617,,Sold,,,http://www.redfin.com/CA/Pacifica/512-Inverness-Dr-94044/home/2036000,MLSListings,ML81579963,N,Y,37.6478839,-122.4750983
PAST SALE,September-15-2016,Single Family Residential,776 Lockhaven Dr,PACIFICA,CA,94044,960000,4,2.0,PACIFICA,1730,5950,1954,502,555,,Sold,,,http://www.redfin.com/CA/Pacifica/776-Lockhaven-Dr-94044/home/1129678,MLSListings,ML81593391,N,Y,37.6429372,-122.469474
PAST SALE,July-2-2015,Townhouse,3645 Carter Dr,South San Francisco,CA,94080,580000,2,1.5,South San Francisco,1040,,1973,943,558,300,Sold,,,http://www.redfin.com/CA/South-San-Francisco/3645-Carter-Dr-94080/home/954366,San Francisco MLS,432948,N,Y,37.643366,-122.46599
PAST SALE,March-25-2016,Single Family Residential,551 Sea Spray Ct,PACIFICA,CA,94044,1388500,4,3.5,PACIFICA,2820,3824,1999,676,492,130,Sold,,,http://www.redfin.com/CA/Pacifica/551-Sea-Spray-Ct-94044/home/587844,MLSListings,ML81563453,N,Y,37.638111,-122.468008
PAST SALE,,Condo/Co-op,3550 Carter Dr Apt 58,South San Francisco,CA,94080,572500,3,2.0,,1644,,1979,,348,,,,,http://www.redfin.com/CA/South-San-Francisco/3550-Carter-Dr-94080/unit-58/home/950025,,,N,Y,37.642108,-122.464802
PAST SALE,December-23-2016,Condo/Co-op,3550 Carter Dr #52,SOUTH SAN FRANCISCO,CA,94080,688888,3,2.5,SOUTH SAN FRANCISCO,1644,,1979,403,419,442,Sold,,,http://www.redfin.com/CA/South-San-Francisco/3550-Carter-Dr-94080/unit-52/home/1481049,MLSListings,ML81629113,N,Y,37.642108,-122.464802
PAST SALE,February-24-2016,Condo/Co-op,3550 Carter Dr #44,SOUTH SAN FRANCISCO,CA,94080,689888,3,2.5,SOUTH SAN FRANCISCO,1644,,1979,706,420,370,Sold,,,http://www.redfin.com/CA/South-San-Francisco/3550-Carter-Dr-94080/unit-44/home/1029573,MLSListings,ML81548179,N,Y,37.642108,-122.464802
PAST SALE,August-19-2015,Single Family Residential,790 Claridge Dr,PACIFICA,CA,94044,758000,3,2.0,PACIFICA,1220,5725,1954,895,621,,Sold,,,http://www.redfin.com/CA/Pacifica/790-Claridge-Dr-94044/home/1149528,MLSListings,ML81484749,N,Y,37.6425202,-122.468443
PAST SALE,November-11-2015,Single Family Residential,127 Panorama Ct,PACIFICA,CA,94044,1450000,4,3.5,PACIFICA,2820,3735,1998,811,514,130,Sold,,,http://www.redfin.com/CA/Pacifica/127-Panorama-Ct-94044/home/589253,MLSListings,ML81516202,N,Y,37.6390566,-122.4662784
PAST SALE,January-30-2017,Single Family Residential,115 Panorama Ct,Pacifica,CA,94044,1300000,4,3.5,Pacifica,2820,3735,1998,365,461,135,Sold,,,http://www.redfin.com/CA/Pacifica/115-Panorama-Ct-94044/home/1281584,San Francisco MLS,449804,N,Y,37.639287,-122.4664022
PAST SALE,April-9-2015,Single Family Residential,617 Viewridge Dr,Pacifica,CA,94044,1075888,4,3.0,Pacifica,2260,3690,1999,1027,476,129,Sold,,,http://www.redfin.com/CA/Pacifica/617-Viewridge-Dr-94044/home/1977964,San Francisco MLS,430350,N,Y,37.6402854,-122.4672772
PAST SALE,June-23-2016,Single Family Residential,3560 Sunset Dr,SAN BRUNO,CA,94066,1105000,4,3.0,SAN BRUNO,1769,5000,1959,586,625,,Sold,,,http://www.redfin.com/CA/San-Bruno/3560-Sunset-Dr-94066/home/1861889,MLSListings,ML81586130,N,Y,37.6335984,-122.4713872
PAST SALE,January-10-2017,Single Family Residential,3651 Sunset Dr,SAN BRUNO,CA,94066,875000,3,2.0,SAN BRUNO,1160,5000,1959,385,754,,Sold,,,http://www.redfin.com/CA/San-Bruno/3651-Sunset-Dr-94066/home/622634,MLSListings,ML81625703,N,Y,37.6323647,-122.4712927
PAST SALE,April-3-2015,Condo/Co-op,2752 Meath Dr,SOUTH SAN FRANCISCO,CA,94080,495500,2,1.5,SOUTH SAN FRANCISCO,1040,,1973,1033,476,275,Sold,,,http://www.redfin.com/CA/South-San-Francisco/2752-Meath-Dr-94080/unit-C/home/1518842,MLSListings,ML81451451,N,Y,37.643366,-122.46599
PAST SALE,October-7-2016,Condo/Co-op,3550 Carter Dr #42,SOUTH SAN FRANCISCO,CA,94080,652000,3,2.5,SOUTH SAN FRANCISCO,1644,,1979,480,397,395,Sold,,,http://www.redfin.com/CA/South-San-Francisco/3550-Carter-Dr-94080/unit-42/home/1662183,MLSListings,ML81598351,N,Y,37.642108,-122.464802
PAST SALE,April-9-2015,Condo/Co-op,41 Outlook Cir,PACIFICA,CA,94044,770000,2,2.0,PACIFICA,1257,,1995,1027,613,409,Sold,,,http://www.redfin.com/CA/Pacifica/41-Outlook-Cir-94044/unit-47/home/2048021,MLSListings,ML81455200,N,Y,37.63181,-122.47541
PAST SALE,January-6-2017,Single Family Residential,84 Morton Dr,DALY CITY,CA,94015,888000,3,2.0,DALY CITY,1390,3950,1981,389,639,,Sold,,,http://www.redfin.com/CA/Daly-City/84-Morton-Dr-94015/home/919949,MLSListings,ML81629681,N,Y,37.6602754,-122.4741082
PAST SALE,November-15-2016,Single Family Residential,51 Canterbury Ave,DALY CITY,CA,94015,820000,3,3.0,DALY CITY,1290,3463,1968,441,636,,Sold,,,http://www.redfin.com/CA/Daly-City/51-Canterbury-Ave-94015/home/919045,MLSListings,ML81598194,N,Y,37.6553598,-122.4712738
PAST SALE,,Single Family Residential,1189 Skyline Dr,Daly City,CA,94015,815000,3,1.0,,1100,3939,1965,,741,,,,,http://www.redfin.com/CA/Daly-City/1189-Skyline-Dr-94015/home/1104995,,,N,Y,37.6619875,-122.4854691
PAST SALE,October-27-2015,Single Family Residential,96 Rockford Ave,DALY CITY,CA,94015,820000,3,2.0,DALY CITY,1110,4080,1960,826,739,,Sold,,,http://www.redfin.com/CA/Daly-City/96-Rockford-Ave-94015/home/1671965,MLSListings,ML81499842,N,Y,37.6653793,-122.4925281
PAST SALE,October-4-2016,Single Family Residential,1394 SKYLINE Dr,DALY CITY,CA,94015,800000,3,2.0,DALY CITY,1120,8580,1965,483,714,,Sold,,,http://www.redfin.com/CA/Daly-City/1394-Skyline-Dr-94015/home/593691,MLSListings,ML81597776,N,Y,37.6635899,-122.4918329
PAST SALE,February-11-2016,Single Family Residential,110 Paradise Dr,PACIFICA,CA,94044,750000,3,2.0,PACIFICA,1250,4299,1967,719,600,,Sold,,,http://www.redfin.com/CA/Pacifica/110-Paradise-Dr-94044/home/1621964,MLSListings,ML81547114,N,Y,37.6604261,-122.4893336
PAST SALE,,Condo/Co-op,5009 Palmetto Ave Apt 33,Pacifica,CA,94044,560000,2,1.0,,1000,,1973,,560,,,,,http://www.redfin.com/CA/Pacifica/5009-Palmetto-Ave-94044/unit-33/home/994889,,,N,Y,37.65977,-122.490525
PAST SALE,,Single Family Residential,6 Judson Pl,Pacifica,CA,94044,1225000,4,2.0,,2470,5600,1972,,496,,,,,http://www.redfin.com/CA/Pacifica/6-Judson-Pl-94044/home/1385828,,,N,Y,37.5818317,-122.4728562
PAST SALE,July-22-2016,Single Family Residential,1145 Sheila Ln,PACIFICA,CA,94044,849000,4,3.0,PACIFICA,1990,7350,1964,557,427,,Sold,,,http://www.redfin.com/CA/Pacifica/1145-Sheila-Ln-94044/home/663917,MLSListings,ML81550499,N,Y,37.5866662,-122.4856092
PAST SALE,February-17-2016,Condo/Co-op,5009 Palmetto Ave #30,PACIFICA,CA,94044,660000,2,1.0,PACIFICA,1000,,1973,713,660,545,Sold,,,http://www.redfin.com/CA/Pacifica/5009-Palmetto-Ave-94044/unit-30/home/1945021,MLSListings,ML81547001,N,Y,37.65977,-122.490525
PAST SALE,July-29-2016,Single Family Residential,1255 Peralta Rd,Pacifica,CA,94044,810000,3,2.0,Pacifica,1040,5200,1954,550,779,,Sold,,,http://www.redfin.com/CA/Pacifica/1255-Peralta-Rd-94044/home/1957370,San Francisco MLS,447361,N,Y,37.5909358,-122.497368
PAST SALE,September-13-2016,Condo/Co-op,2328 Palmetto Ave,PACIFICA,CA,94044,825000,3,2.0,PACIFICA,1975,9043,2003,504,418,300,Sold,,,http://www.redfin.com/CA/Pacifica/2328-Palmetto-Ave-94044/home/104306672,MLSListings,ML81595535,N,Y,37.630639,-122.492842
PAST SALE,April-6-2016,Condo/Co-op,210 Palmetto Ave,PACIFICA,CA,94044,740000,2,2.0,PACIFICA,1445,,1985,664,512,625,Sold,,,http://www.redfin.com/CA/Pacifica/210-Palmetto-Ave-94044/unit-11/home/2049905,MLSListings,ML81562662,N,Y,37.65644,-122.49267
PAST SALE,,Single Family Residential,601 Hickey Blvd,Pacifica,CA,94044,750000,3,2.0,,1210,4000,1964,,620,,,,,http://www.redfin.com/CA/Pacifica/601-Hickey-Blvd-94044/home/2053886,,,N,Y,37.6546162,-122.4800993
PAST SALE,April-13-2015,Single Family Residential,228 Greenway Dr,PACIFICA,CA,94044,718000,3,2.0,PACIFICA,1050,5000,1955,1023,684,,Sold,,,http://www.redfin.com/CA/Pacifica/228-Greenway-Dr-94044/home/1520718,MLSListings,ML81449709,N,Y,37.6209204,-122.4896535
PAST SALE,June-6-2016,Single Family Residential,517 B Monterey Rd,PACIFICA,CA,94044,916000,3,2.0,PACIFICA,1590,4900,1998,603,576,72,Sold,,,http://www.redfin.com/CA/Pacifica/517B-Monterey-Rd-94044/unit-B/home/1264170,MLSListings,ML81566488,N,Y,37.6492685,-122.4793567
PAST SALE,February-15-2016,Single Family Residential,835 Arguello Blvd,PACIFICA,CA,94044,850000,3,1.0,PACIFICA,1370,5153,1954,715,620,,Sold,,,http://www.redfin.com/CA/Pacifica/835-Arguello-Blvd-94044/home/1011819,MLSListings,ML81534835,N,Y,37.5915103,-122.4951137
PAST SALE,September-3-2015,Vacant Land,22 Rockaway Beach Ave,Pacifica,CA,94044,500000,,,San Mateo County,,700009,,880,,,Sold,,,http://www.redfin.com/CA/Pacifica/22-Rockaway-Beach-Ave-94044/home/52894648,BAREIS,21416076,N,Y,37.6094902,-122.4968203
PAST SALE,March-30-2015,Single Family Residential,1088 View Way,Pacifica,CA,94044,800000,3,2.0,Pacifica,1110,38650,1960,1037,721,,Sold,,,http://www.redfin.com/CA/Pacifica/1088-View-Way-94044/home/1046273,San Francisco MLS,429254,N,Y,37.5867877,-122.4832837
PAST SALE,March-3-2017,Single Family Residential,1233 Lerida Way,Pacifica,CA,94044,1154000,6,5.0,Pacifica,2170,25479,1964,333,532,,Sold,,,http://www.redfin.com/CA/Pacifica/1233-Lerida-Way-94044/home/1896196,San Francisco MLS,453987,N,Y,37.594382,-122.478826
PAST SALE,March-9-2017,Townhouse,1245 Terra Nova Blvd,PACIFICA,CA,94044,553000,2,1.0,PACIFICA,900,630,1970,327,614,325,Sold,,,http://www.redfin.com/CA/Pacifica/1245-Terra-Nova-Blvd-94044/home/664683,MLSListings,ML81633939,N,Y,37.587125,-122.477674
PAST SALE,,Townhouse,1362 Terra Nova Blvd,Pacifica,CA,94044,241500,2,1.0,,960,815,1972,,252,,,,,http://www.redfin.com/CA/Pacifica/1362-Terra-Nova-Blvd-94044/home/1368440,,,N,Y,37.589532,-122.476098
PAST SALE,March-7-2017,Single Family Residential,1288 Sheila Ln,PACIFICA,CA,94044,1640000,3,2.5,PACIFICA,2812,5009,2016,329,583,,Sold,,,http://www.redfin.com/CA/Pacifica/1288-Sheila-Ln-94044/home/110019621,MLSListings,ML81631977,N,Y,37.5854903,-122.4885257
PAST SALE,January-29-2016,Vacant Land,0 Sheila Ln,PACIFICA,CA,94044,325000,,,PACIFICA,,5009,,732,,,Sold,,,http://www.redfin.com/CA/Pacifica/Sheila-Ln-94044/home/18262495,MLSListings,ML81545398,N,Y,37.5867977,-122.4854499
PAST SALE,December-16-2016,Townhouse,1403 Terra Nova Blvd,PACIFICA,CA,94044,555000,2,1.5,PACIFICA,1100,940,1972,410,505,365,Sold,,,http://www.redfin.com/CA/Pacifica/1403-Terra-Nova-Blvd-94044/home/656573,MLSListings,ML81598876,N,Y,37.590571,-122.476456
PAST SALE,April-1-2015,Single Family Residential,1464 Crespi Dr,PACIFICA,CA,94044,900000,3,3.0,PACIFICA,2250,7104,1961,1035,400,,Sold,,,http://www.redfin.com/CA/Pacifica/1464-Crespi-Dr-94044/home/1759005,MLSListings,ML81452540,N,Y,37.5964218,-122.4820728
PAST SALE,December-8-2015,Single Family Residential,1534 Terra Nova Blvd,PACIFICA,CA,94044,828000,3,2.0,PACIFICA,1090,5000,1962,784,760,,Sold,,,http://www.redfin.com/CA/Pacifica/1534-Terra-Nova-Blvd-94044/home/654972,MLSListings,ML81520209,N,Y,37.5967632,-122.4802771
PAST SALE,February-20-2015,Single Family Residential,1157 BANYAN Way,Pacifica,CA,94044,700000,3,2.0,Pacifica,1580,6130,1962,1075,443,,Sold,,,http://www.redfin.com/CA/Pacifica/1157-Banyan-Way-94044/home/1828737,MLSListings,ML81439242,N,Y,37.585627,-122.4794773
PAST SALE,January-4-2017,Single Family Residential,1307 Redwood Way,PACIFICA,CA,94044,918000,3,2.0,PACIFICA,1110,6370,1964,391,827,,Sold,,,http://www.redfin.com/CA/Pacifica/1307-Redwood-Way-94044/home/662053,MLSListings,ML81632903,N,Y,37.5908227,-122.4796706
PAST SALE,March-17-2015,Single Family Residential,3 Yellowstone Way,PACIFICA,CA,94044,850000,4,2.5,PACIFICA,1760,5537,1965,1050,483,,Sold,,,http://www.redfin.com/CA/Pacifica/3-Yellowstone-Way-94044/home/1957405,MLSListings,ML81447905,N,Y,37.5845656,-122.4739227
PAST SALE,October-28-2015,Single Family Residential,1336 Hermosa Ave,PACIFICA,CA,94044,860000,3,1.0,PACIFICA,1040,6160,1954,825,827,,Sold,,,http://www.redfin.com/CA/Pacifica/1336-Hermosa-Ave-94044/home/2040446,MLSListings,ML81515473,N,Y,37.5894772,-122.4963459
PAST SALE,August-6-2015,Single Family Residential,811 Standish Rd,PACIFICA,CA,94044,835000,3,2.0,PACIFICA,1230,5100,1959,908,679,,Sold,,,http://www.redfin.com/CA/Pacifica/811-Standish-Rd-94044/home/660375,MLSListings,ML81485493,N,Y,37.5895211,-122.4979116
PAST SALE,November-15-2015,Condo/Co-op,931 Linda Mar Blvd,PACIFICA,CA,94044,629000,2,2.0,PACIFICA,1180,21168,1987,807,533,450,Sold,,,http://www.redfin.com/CA/Pacifica/931-Linda-Mar-Blvd-94044/home/995184,MLSListings,ML81483202,N,Y,37.589543,-122.49378
PAST SALE,July-15-2016,Townhouse,923 Linda Mar Blvd,PACIFICA,CA,94044,665000,2,2.0,PACIFICA,1200,21168,1987,564,554,450,Sold,,,http://www.redfin.com/CA/Pacifica/923-Linda-Mar-Blvd-94044/home/1128363,MLSListings,ML81576842,N,Y,37.589543,-122.49378
PAST SALE,August-4-2015,Single Family Residential,635 Arguello Blvd,PACIFICA,CA,94044,711000,3,1.0,PACIFICA,1040,5500,1954,910,684,,Sold,,,http://www.redfin.com/CA/Pacifica/635-Arguello-Blvd-94044/home/654731,MLSListings,ML81459915,N,Y,37.5940241,-122.4999208
PAST SALE,April-30-2015,Single Family Residential,790 Linda Mar Blvd,PACIFICA,CA,94044,672500,3,2.0,PACIFICA,1600,5150,1954,1006,420,,Sold,,,http://www.redfin.com/CA/Pacifica/790-Linda-Mar-Blvd-94044/home/1848580,MLSListings,ML81456871,N,Y,37.5910321,-122.4980829
PAST SALE,May-6-2015,Single Family Residential,1384 Peralta Rd,PACIFICA,CA,94044,970000,3,2.0,PACIFICA,2020,7800,1955,1000,480,,Sold,,,http://www.redfin.com/CA/Pacifica/1384-Peralta-Rd-94044/home/2024079,MLSListings,ML81454692,N,Y,37.5886959,-122.4993903
PAST SALE,,Single Family Residential,1136 Escalero Ave,Pacifica,CA,94044,757000,2,1.0,,1040,5626,1954,,728,,,,,http://www.redfin.com/CA/Pacifica/1136-Escalero-Ave-94044/home/1998412,,,N,Y,37.5926473,-122.493366
PAST SALE,February-3-2017,Single Family Residential,1212 Escalero Ave,PACIFICA,CA,94044,725000,3,2.0,PACIFICA,1620,6234,1954,361,448,,Sold,,,http://www.redfin.com/CA/Pacifica/1212-Escalero-Ave-94044/home/1158816,MLSListings,ML81635585,N,Y,37.5917321,-122.4940517
PAST SALE,February-9-2015,Single Family Residential,1221 Seville Dr,Pacifica,CA,94044,710000,3,2.0,Pacifica,1080,6750,1960,1086,657,,Sold,,,http://www.redfin.com/CA/Pacifica/1221-Seville-Dr-94044/home/1902366,San Francisco MLS,428618,N,Y,37.5902223,-122.4928312
PAST SALE,February-6-2017,Single Family Residential,867 Standish Rd,PACIFICA,CA,94044,830000,3,2.0,PACIFICA,1230,5000,1960,358,675,,Sold,,,http://www.redfin.com/CA/Pacifica/867-Standish-Rd-94044/home/660672,MLSListings,ML81637923,N,Y,37.5884334,-122.4959422
PAST SALE,June-10-2016,Single Family Residential,808 Standish Rd,PACIFICA,CA,94044,925000,4,3.0,PACIFICA,1640,5170,1959,599,564,,Sold,,,http://www.redfin.com/CA/Pacifica/808-Standish-Rd-94044/home/1707705,MLSListings,ML81581366,N,Y,37.5892533,-122.4982763
PAST SALE,August-11-2015,Single Family Residential,1519 Adobe Dr,PACIFICA,CA,94044,875000,3,1.0,PACIFICA,1260,7500,1959,903,694,,Sold,,,http://www.redfin.com/CA/Pacifica/1519-Adobe-Dr-94044/home/2033496,MLSListings,ML81472391,N,Y,37.5847867,-122.4971455
PAST SALE,December-7-2015,Single Family Residential,976 Rosita Rd,PACIFICA,CA,94044,750000,3,1.0,PACIFICA,1160,5000,1954,785,647,,Sold,,,http://www.redfin.com/CA/Pacifica/976-Rosita-Rd-94044/home/1494341,MLSListings,ML81519882,N,Y,37.5851498,-122.4967014
PAST SALE,April-27-2015,Single Family Residential,1452 Adobe Dr,PACIFICA,CA,94044,825000,3,2.0,PACIFICA,1240,8250,1954,1009,665,,Sold,,,http://www.redfin.com/CA/Pacifica/1452-Adobe-Dr-94044/home/1848630,MLSListings,ML81457103,N,Y,37.586357,-122.4964607
PAST SALE,July-9-2015,Single Family Residential,1064 Monte Verde Dr,PACIFICA,CA,94044,875000,4,2.0,PACIFICA,1750,5250,1954,936,500,,Sold,,,http://www.redfin.com/CA/Pacifica/1064-Monte-Verde-Dr-94044/home/1715456,MLSListings,ML81465486,N,Y,37.583045,-122.4943877
PAST SALE,,Single Family Residential,1080 Monte Verde Dr,Pacifica,CA,94044,710000,3,1.0,,1190,5050,1954,,597,,,,,http://www.redfin.com/CA/Pacifica/1080-Monte-Verde-Dr-94044/home/2010823,,,N,Y,37.5831989,-122.4937284
PAST SALE,October-12-2016,Single Family Residential,1031 Rosita Rd,PACIFICA,CA,94044,845000,3,1.0,PACIFICA,1040,5200,1954,475,813,,Sold,,,http://www.redfin.com/CA/Pacifica/1031-Rosita-Rd-94044/home/2016457,MLSListings,ML81596553,N,Y,37.5845236,-122.4948555
PAST SALE,July-3-2015,Single Family Residential,1120 Palou Dr,PACIFICA,CA,94044,805000,3,1.0,PACIFICA,1040,7440,1955,942,774,,Sold,,,http://www.redfin.com/CA/Pacifica/1120-Palou-Dr-94044/home/2038763,MLSListings,ML81468016,N,Y,37.5826644,-122.4931627
PAST SALE,September-16-2015,Single Family Residential,608 Montezuma Dr,PACIFICA,CA,94044,805000,3,1.0,PACIFICA,1040,5000,1954,867,774,,Sold,,,http://www.redfin.com/CA/Pacifica/608-Montezuma-Dr-94044/home/1169858,MLSListings,ML81485874,N,Y,37.593318,-122.5020599
PAST SALE,September-2-2016,Vacant Land,01 Higgins Way,PACIFICA,CA,94044,700000,,,PACIFICA,,1487574,,515,,,Sold,,,http://www.redfin.com/CA/Pacifica/01-Higgins-Way-94044/home/107250960,MLSListings,ML81590375,N,Y,37.5830526,-122.4976019
PAST SALE,,Multi-Family (2-4 Unit),825 Rosita Rd,Pacifica,CA,94044,395000,,,,,8069,,,,,,,,http://www.redfin.com/CA/Pacifica/825-Rosita-Rd-94044/home/1800108,,,N,Y,37.5867646,-122.4985417
PAST SALE,February-1-2016,Single Family Residential,25 Seacrest Ct,DALY CITY,CA,94015,770000,3,2.0,DALY CITY,1870,3885,1965,729,412,,Sold,,,http://www.redfin.com/CA/Daly-City/25-Seacrest-Ct-94015/home/2050029,MLSListings,ML81534359,N,Y,37.6631015,-122.4904946
PAST SALE,March-1-2017,Single Family Residential,4 Seahaven Ct,PACIFICA,CA,94044,882000,4,2.0,PACIFICA,1560,4180,1963,335,565,,Sold,,,http://www.redfin.com/CA/Pacifica/4-Seahaven-Ct-94044/home/1411619,MLSListings,ML81635359,N,Y,37.6638711,-122.483176
PAST SALE,December-24-2015,Single Family Residential,163 Eastridge Cir,PACIFICA,CA,94044,800000,3,1.0,PACIFICA,1170,4018,1966,768,684,,Sold,,,http://www.redfin.com/CA/Pacifica/163-Eastridge-Cir-94044/home/581995,MLSListings,ML81533230,N,Y,37.6658853,-122.4819315
PAST SALE,November-12-2015,Single Family Residential,65 ROCKFORD Ave,DALY CITY,CA,94015,843000,4,2.0,DALY CITY,1220,3300,1960,810,691,,Sold,,,http://www.redfin.com/CA/Daly-City/65-Rockford-Ave-94015/home/1613118,MLSListings,ML81512951,N,Y,37.6649812,-122.4916119
PAST SALE,September-23-2016,Single Family Residential,267 Crestview Cir,DALY CITY,CA,94015,1308880,4,3.0,DALY CITY,2198,6810,2016,494,595,150,Sold,,,http://www.redfin.com/CA/Daly-City/267-Crestview-Cir-94015/home/104227413,MLSListings,ML81598481,N,Y,37.667821,-122.481364
PAST SALE,September-19-2016,Single Family Residential,556 Palmetto Ave,PACIFICA,CA,94044,656000,3,1.0,PACIFICA,910,5558,1949,498,721,,Sold,,,http://www.redfin.com/CA/Pacifica/556-Palmetto-Ave-94044/home/584394,MLSListings,ML81596245,N,Y,37.6476764,-122.4917542
PAST SALE,July-22-2015,Single Family Residential,531 Dolphin Dr,PACIFICA,CA,94044,670000,2,1.0,PACIFICA,750,5772,1949,923,893,,Sold,,,http://www.redfin.com/CA/Pacifica/531-Dolphin-Dr-94044/home/1705422,MLSListings,ML81471256,N,Y,37.6486096,-122.492052
PAST SALE,,Single Family Residential,115 Shoreview Ave,Pacifica,CA,94044,723000,3,2.0,,1500,5000,1955,,482,,,,,http://www.redfin.com/CA/Pacifica/115-Shoreview-Ave-94044/home/2058543,,,N,Y,37.6393931,-122.4928524
PAST SALE,January-29-2016,Single Family Residential,532 Miller Ave,Pacifica,CA,94044,780000,3,1.0,Pacifica,1136,6200,1950,732,687,,Sold,,,http://www.redfin.com/CA/Pacifica/532-Miller-Ave-94044/home/2028535,San Francisco MLS,440111,N,Y,37.6481113,-122.4848352
PAST SALE,,Single Family Residential,359 Inverness Dr,Pacifica,CA,94044,314000,3,1.0,,1260,4000,1964,,249,,,,,http://www.redfin.com/CA/Pacifica/359-Inverness-Dr-94044/home/2035623,,,N,Y,37.6527865,-122.4784218
PAST SALE,February-11-2016,Single Family Residential,511 Perry Ave,PACIFICA,CA,94044,800000,3,1.5,PACIFICA,1420,6629,1948,719,563,,Sold,,,http://www.redfin.com/CA/Pacifica/511-Perry-Ave-94044/home/1889635,MLSListings,ML81545702,N,Y,37.6485009,-122.486148
PAST SALE,,Single Family Residential,423 Del Mar Ave,Pacifica,CA,94044,630000,2,1.0,,840,5525,1948,,750,,,,,http://www.redfin.com/CA/Pacifica/423-Del-Mar-Ave-94044/home/1900707,,,N,Y,37.6497791,-122.487552
PAST SALE,,Single Family Residential,432 Manor Dr,Pacifica,CA,94044,800000,3,1.0,,930,5000,1953,,860,,,,,http://www.redfin.com/CA/Pacifica/432-Manor-Dr-94044/home/1739501,,,N,Y,37.6472389,-122.4820093
PAST SALE,November-11-2016,Single Family Residential,428 Manor Dr,PACIFICA,CA,94044,875000,3,2.0,PACIFICA,1050,6760,1951,445,833,,Sold,,,http://www.redfin.com/CA/Pacifica/428-Manor-Dr-94044/home/1139858,MLSListings,ML81626772,N,Y,37.6473003,-122.4821607
PAST SALE,September-22-2016,Single Family Residential,496 Inverness Dr,PACIFICA,CA,94044,1010000,5,4.5,PACIFICA,2630,5000,2000,495,384,,Sold,,,http://www.redfin.com/CA/Pacifica/496-Inverness-Dr-94044/home/585470,MLSListings,ML81596307,N,Y,37.648221,-122.475458
PAST SALE,August-11-2015,Single Family Residential,160 Morton Dr,DALY CITY,CA,94015,875000,3,3.0,DALY CITY,1720,7080,1974,903,509,,Sold,,,http://www.redfin.com/CA/Daly-City/160-Morton-Dr-94015/home/1809995,MLSListings,ML81471788,N,Y,37.65762,-122.4728566
PAST SALE,July-24-2015,Single Family Residential,448 Heathcliff Dr,PACIFICA,CA,94044,755000,3,1.0,PACIFICA,1000,5500,1958,921,755,,Sold,,,http://www.redfin.com/CA/Pacifica/448-Heathcliff-Dr-94044/home/586224,MLSListings,ML81472166,N,Y,37.648923,-122.4770697
PAST SALE,April-26-2016,Single Family Residential,629 Forest Lake Dr,PACIFICA,CA,94044,780000,3,1.5,PACIFICA,1110,3998,1964,644,703,24,Sold,,,http://www.redfin.com/CA/Pacifica/629-Forest-Lake-Dr-94044/home/1044257,MLSListings,ML81549596,N,Y,37.6520568,-122.475996
PAST SALE,May-22-2015,Single Family Residential,320 Firecrest Ave,Pacifica,CA,94044,740000,3,2.0,Pacifica,1310,4050,1964,984,565,,Sold,,,http://www.redfin.com/CA/Pacifica/320-Firecrest-Ave-94044/home/595688,San Francisco MLS,431657,N,Y,37.6574339,-122.4777017
PAST SALE,May-10-2016,Single Family Residential,777 Rockaway Beach Ave,PACIFICA,CA,94044,875000,3,2.0,PACIFICA,1040,5000,1964,630,841,,Sold,,,http://www.redfin.com/CA/Pacifica/777-Rockaway-Beach-Ave-94044/home/1880070,MLSListings,ML81578377,N,Y,37.6035262,-122.4870679
PAST SALE,April-29-2016,Vacant Land,0 Calera Ter,PACIFICA,CA,94044,200000,,,PACIFICA,,45000,,641,,,Sold,,,http://www.redfin.com/CA/Pacifica/Calera-Ter-94044/home/23469868,MLSListings,ML81465212,N,Y,37.6033103,-122.4846807
PAST SALE,April-10-2015,Single Family Residential,256 Seaside Dr,PACIFICA,CA,94044,800000,3,2.0,PACIFICA,1410,5400,1955,1026,567,,Sold,,,http://www.redfin.com/CA/Pacifica/Undisclosed-address-94044/home/1714511,MLSListings,ML81452894,N,Y,37.6200195,-122.4908011
PAST SALE,October-28-2016,Single Family Residential,151 Juanita Ave,Pacifica,CA,94044,860000,3,1.0,Pacifica,980,6200,1952,459,878,,Sold,,,http://www.redfin.com/CA/Pacifica/151-Juanita-Ave-94044/home/1854523,San Francisco MLS,448232,N,Y,37.6135019,-122.4774796
PAST SALE,April-17-2015,Condo/Co-op,427 Roberts Rd,Pacifica,CA,94044,785000,2,2.5,Pacifica,1480,,1981,1019,530,465,Sold,,,http://www.redfin.com/CA/Pacifica/427-Roberts-Rd-94044/unit-B-2/home/995002,San Francisco MLS,430132,N,Y,37.602224,-122.4974
PAST SALE,,Single Family Residential,287 Hillside Dr,Pacifica,CA,94044,1025000,3,2.5,,1950,9500,1955,,526,,,,,http://www.redfin.com/CA/Pacifica/287-Hillside-Dr-94044/home/1914076,,,N,Y,37.6108649,-122.484746
PAST SALE,November-30-2016,Single Family Residential,236 Greenway Dr,PACIFICA,CA,94044,855000,3,2.0,PACIFICA,1050,5671,1955,426,814,,Sold,,,http://www.redfin.com/CA/Pacifica/236-Greenway-Dr-94044/home/1950874,MLSListings,ML81627569,N,Y,37.6207878,-122.4896804
PAST SALE,December-30-2016,Single Family Residential,240 Avalon Dr,Pacifica,CA,94044,598825,2,1.0,Pacifica,840,5270,1947,396,713,,Sold,,,http://www.redfin.com/CA/Pacifica/240-Avalon-Dr-94044/home/2045495,San Francisco MLS,448152,N,Y,37.6466866,-122.4877206
PAST SALE,July-23-2015,Single Family Residential,211 Bancroft Way,PACIFICA,CA,94044,650000,2,1.0,PACIFICA,1110,6800,1954,922,586,,Sold,,,http://www.redfin.com/CA/Pacifica/211-Bancroft-Way-94044/home/1179408,MLSListings,ML81470328,N,Y,37.652666,-122.4889828
PAST SALE,October-27-2015,Single Family Residential,236 Arroyo Dr,PACIFICA,CA,94044,731000,3,1.0,PACIFICA,1110,6000,1949,826,659,,Sold,,,http://www.redfin.com/CA/Pacifica/236-Arroyo-Dr-94044/home/588352,MLSListings,ML81515328,N,Y,37.6460562,-122.4879915
PAST SALE,July-17-2015,Single Family Residential,211 Arroyo Dr,PACIFICA,CA,94044,728000,3,1.0,PACIFICA,1040,6000,1948,928,700,,Sold,,,http://www.redfin.com/CA/Pacifica/211-Arroyo-Dr-94044/unit-AE/home/1104770,MLSListings,ML81467361,N,Y,37.6465173,-122.4892496
PAST SALE,March-30-2015,Single Family Residential,315 Monterey Rd,PACIFICA,CA,94044,710000,3,2.0,PACIFICA,1520,3000,1972,1037,467,,Sold,,,http://www.redfin.com/CA/Pacifica/315-Monterey-Rd-94044/home/1066030,MLSListings,ML81450361,N,Y,37.651655,-122.486315
PAST SALE,,Single Family Residential,268 Milagra Dr,Pacifica,CA,94044,700000,2,2.0,,1430,5600,1951,,490,,,,,http://www.redfin.com/CA/Pacifica/268-Milagra-Dr-94044/home/587113,,,N,Y,37.645105,-122.4867706
PAST SALE,,Single Family Residential,576 Inverness Dr,Pacifica,CA,94044,550000,3,2.0,,1220,5000,1955,,451,,,,,http://www.redfin.com/CA/Pacifica/576-Inverness-Dr-94044/home/1167380,,,N,Y,37.6460048,-122.4737066
PAST SALE,December-21-2016,Single Family Residential,644 Forest Lake Dr,PACIFICA,CA,94044,760000,3,1.0,PACIFICA,1110,4281,1964,405,685,24,Sold,,,http://www.redfin.com/CA/Pacifica/644-Forest-Lake-Dr-94044/home/1530435,MLSListings,ML81630825,N,Y,37.6513352,-122.4752315
PAST SALE,,Multi-Family (2-4 Unit),817 Rosita Rd,Pacifica,CA,94044,750000,,,,,6340,,,,,,,,http://www.redfin.com/CA/Pacifica/817-Rosita-Rd-94044/home/1484799,,,N,Y,37.586999,-122.498769
PAST SALE,September-12-2016,Single Family Residential,381 Coral Ridge Dr,PACIFICA,CA,94044,880000,3,2.0,PACIFICA,1320,4000,1966,505,667,28,Sold,,,http://www.redfin.com/CA/Pacifica/381-Coral-Ridge-Dr-94044/home/583639,MLSListings,ML81598743,N,Y,37.6574034,-122.488068
PAST SALE,,Multi-Family (2-4 Unit),490 Lewis Ln,Pacifica,CA,94044,5000,8,4.0,,,11475,1988,,,,,,,http://www.redfin.com/CA/Pacifica/490-Lewis-Ln-94044/home/1913613,,,N,Y,37.6474369,-122.480225
PAST SALE,,Multi-Family (2-4 Unit),448 Norfolk Dr,Pacifica,CA,94044,133000,4,5.0,,2840,6600,2000,,47,,,,,http://www.redfin.com/CA/Pacifica/448-Norfolk-Dr-94044/home/2028538,,,N,Y,37.648725,-122.480741
PAST SALE,October-14-2015,Single Family Residential,336 Heathcliff Dr,PACIFICA,CA,94044,649000,3,2.0,PACIFICA,1220,5000,1955,839,532,,Sold,,,http://www.redfin.com/CA/Pacifica/336-Heathcliff-Dr-94044/home/2048275,MLSListings,ML81497395,N,Y,37.6508472,-122.4751814
PAST SALE,January-13-2016,Single Family Residential,523 Manor Dr,PACIFICA,CA,94044,795000,3,1.0,PACIFICA,930,5856,1954,748,855,,Sold,,,http://www.redfin.com/CA/Pacifica/523-Manor-Dr-94044/home/1561018,MLSListings,ML81533213,N,Y,37.6463153,-122.4782118
PAST SALE,August-2-2016,Townhouse,508 -A Monterey Rd #2,PACIFICA,CA,94044,715000,2,1.5,PACIFICA,1050,1306,1981,546,681,470,Sold,,,http://www.redfin.com/CA/Pacifica/508-Monterey-Rd-94044/unit-2/home/108193144,MLSListings,ML81592307,N,Y,37.6497189,-122.4801534
PAST SALE,June-23-2016,Single Family Residential,1131 Rosita Rd,PACIFICA,CA,94044,860000,4,2.0,PACIFICA,1430,5000,1955,586,601,,Sold,,,http://www.redfin.com/CA/Pacifica/1131-Rosita-Rd-94044/home/1459608,MLSListings,ML81584311,N,Y,37.5834391,-122.4918285
PAST SALE,June-17-2015,Single Family Residential,1123 Rosita Rd,Pacifica,CA,94044,750000,3,2.0,Pacifica,1460,5148,1955,958,514,,Sold,,,http://www.redfin.com/CA/Pacifica/1123-Rosita-Rd-94044/home/1304155,San Francisco MLS,434251,N,Y,37.5835428,-122.4921655
PAST SALE,May-12-2016,Single Family Residential,16 Cranham Ct,PACIFICA,CA,94044,875000,3,2.0,PACIFICA,1500,8500,1961,628,583,,Sold,,,http://www.redfin.com/CA/Pacifica/16-Cranham-Ct-94044/home/1106455,MLSListings,ML81577148,N,Y,37.5842318,-122.4810849
PAST SALE,October-16-2015,Single Family Residential,1324 Linda Mar Blvd,PACIFICA,CA,94044,629000,3,1.0,PACIFICA,1420,1040,1955,837,443,,Sold,,,http://www.redfin.com/CA/Pacifica/1324-Linda-Mar-Blvd-94044/home/661371,MLSListings,ML81512762,N,Y,37.5829475,-122.4849858
PAST SALE,January-19-2017,Vacant Land,4096 Fassler Ave,PACIFICA,CA,94044,2060000,,,PACIFICA,,91780,,376,,,Sold,,,http://www.redfin.com/CA/Pacifica/4096-Fassler-Ave-94044/home/23472031,MLSListings,ML81546139,N,Y,37.600884,-122.491232
PAST SALE,,Single Family Residential,3816 Carter Dr,South San Francisco,CA,94080,208500,3,2.0,,1690,2550,1969,,123,,,,,http://www.redfin.com/CA/South-San-Francisco/3816-Carter-Dr-94080/home/2053629,,,N,Y,37.6475595,-122.4694786
PAST SALE,May-20-2015,Single Family Residential,251 San Pedro Ave,PACIFICA,CA,94044,1188000,4,3.0,PACIFICA,1863,5000,2015,986,638,,Sold,,,http://www.redfin.com/CA/Pacifica/251-San-Pedro-Ave-94044/home/68170813,MLSListings,ML81455130,N,Y,37.5955287,-122.510225
PAST SALE,February-24-2017,Vacant Land,1570 Grand Ave,PACIFICA,CA,94044,650000,,,PACIFICA,,18750,,340,,,Sold,,,http://www.redfin.com/CA/Pacifica/1570-Grand-Ave-94044/home/49878217,MLSListings,ML81633181,N,Y,37.5908042,-122.5113434
PAST SALE,April-10-2015,Single Family Residential,204 Olympian Way,PACIFICA,CA,94044,1330000,4,2.5,PACIFICA,2400,14000,1989,1026,554,,Sold,,,http://www.redfin.com/CA/Pacifica/204-Olympian-Way-94044/home/1255714,MLSListings,ML81453880,N,Y,37.5942014,-122.5128837
PAST SALE,,Single Family Residential,212 Shoreview Ave,Pacifica,CA,94044,1090000,3,2.0,,1300,7275,1955,,838,,,,,http://www.redfin.com/CA/Pacifica/212-Shoreview-Ave-94044/home/1640374,,,N,Y,37.6378825,-122.4940202
PAST SALE,January-28-2016,Other,168 Pacific Ave,PACIFICA,CA,94044,2560000,,,PACIFICA,6740,8540,1965,733,380,,Sold,,,http://www.redfin.com/CA/Pacifica/Undisclosed-address-94044/home/1563121,MLSListings,ML81471662,N,Y,37.6312939,-122.4904174
PAST SALE,November-29-2016,Multi-Family (2-4 Unit),44 Santa Rosa Ave,PACIFICA,CA,94044,1350000,3,,PACIFICA,3088,6750,1961,427,437,,Sold,,,http://www.redfin.com/CA/Pacifica/44-Santa-Rosa-Ave-94044/home/1799739,MLSListings,ML81614883,N,Y,37.6331822,-122.4932621
PAST SALE,,Single Family Residential,71 Salada Ave,Pacifica,CA,94044,450000,3,1.0,,890,2250,1937,,506,,,,,http://www.redfin.com/CA/Pacifica/71-Salada-Ave-94044/home/1588127,,,N,Y,37.6348201,-122.4927957
PAST SALE,March-31-2016,Single Family Residential,1726 Palmetto Ave,PACIFICA,CA,94044,700000,3,1.0,PACIFICA,1000,5663,1905,670,700,,Sold,,,http://www.redfin.com/CA/Pacifica/1726-Palmetto-Ave-94044/home/2008268,MLSListings,ML81533450,N,Y,37.635404,-122.4923501
PAST SALE,July-28-2016,Single Family Residential,274 Shoreview Ave,Pacifica,CA,94044,830000,3,1.0,Pacifica,1050,5000,1953,551,790,,Sold,,,http://www.redfin.com/CA/Pacifica/274-Shoreview-Ave-94044/home/1596597,EBRD/CCAR/Bay East,40744492,N,Y,37.6373426,-122.4930404
PAST SALE,December-1-2016,Single Family Residential,180 Surf St,Pacifica,CA,94044,868300,3,1.0,Pacifica,1050,5000,1954,425,827,,Sold,,,http://www.redfin.com/CA/Pacifica/180-Surf-St-94044/home/1672008,San Francisco MLS,453788,N,Y,37.6380315,-122.4927667
PAST SALE,,Multi-Family (2-4 Unit),60 Paloma Ave,Pacifica,CA,94044,1400000,10,5.0,,4120,4500,1965,,340,,,,,http://www.redfin.com/CA/Pacifica/60-Paloma-Ave-94044/home/2050147,,,N,Y,37.6363427,-122.4932027
PAST SALE,February-12-2015,Single Family Residential,8 Carmel,PACIFICA,CA,94044,600000,1,1.0,PACIFICA,460,4950,1942,1083,1304,,Sold,,,http://www.redfin.com/CA/Pacifica/8-Carmel-Ave-94044/home/1842683,MLSListings,ML81447625,N,Y,37.6356229,-122.4937144
PAST SALE,,Multi-Family (2-4 Unit),18 Salada Ave,Pacifica,CA,94044,1050000,6,4.0,,4256,4500,1962,,247,,,,,http://www.redfin.com/CA/Pacifica/18-Salada-Ave-94044/home/2031160,,,N,Y,37.6344721,-122.4936393
PAST SALE,July-30-2015,Single Family Residential,171 Pacific Ave,PACIFICA,CA,94044,740000,2,1.0,PACIFICA,950,3500,1920,915,779,,Sold,,,http://www.redfin.com/CA/Pacifica/171-Pacific-Ave-94044/home/621426,MLSListings,ML81484222,N,Y,37.6316263,-122.4906247
PAST SALE,July-5-2016,Single Family Residential,267 Seaside Dr,PACIFICA,CA,94044,950000,3,2.0,PACIFICA,1215,5401,1955,574,782,,Sold,,,http://www.redfin.com/CA/Pacifica/267-Seaside-Dr-94044/home/2051939,MLSListings,ML81586643,N,Y,37.6203254,-122.4900939
PAST SALE,December-23-2016,Single Family Residential,230 Pinehaven Way,PACIFICA,CA,94044,803000,3,2.0,PACIFICA,1050,5301,1955,403,765,30,Sold,,,http://www.redfin.com/CA/Pacifica/230-Pinehaven-Way-94044/home/1821454,MLSListings,ML81629172,N,Y,37.6210724,-122.4868103
PAST SALE,April-1-2015,Single Family Residential,540 Ridgeway Dr,PACIFICA,CA,94044,850000,3,2.0,PACIFICA,1520,5040,1957,1035,559,,Sold,,,http://www.redfin.com/CA/Pacifica/540-Ridgeway-Dr-94044/home/630275,MLSListings,ML81453983,N,Y,37.6212391,-122.4815772
PAST SALE,July-8-2015,Single Family Residential,7 Ortega Ct,PACIFICA,CA,94044,800000,3,1.0,PACIFICA,1040,7056,1955,937,769,,Sold,,,http://www.redfin.com/CA/Pacifica/7-Ortega-Ct-94044/home/1209944,MLSListings,ML81470318,N,Y,37.5970241,-122.4961501
PAST SALE,July-21-2016,Single Family Residential,776 Cordova Ct,PACIFICA,CA,94044,1230000,5,3.5,PACIFICA,2340,13142,1955,558,526,,Sold,,,http://www.redfin.com/CA/Pacifica/776-Cordova-Ct-94044/home/1023149,MLSListings,ML81591069,N,Y,37.594768,-122.49543
PAST SALE,,Single Family Residential,23 Ortega Ct,Pacifica,CA,94044,950000,3,2.0,,1748,5800,1955,,543,,,,,http://www.redfin.com/CA/Pacifica/23-Ortega-Ct-94044/home/2054007,,,N,Y,37.5973934,-122.4955185
PAST SALE,February-20-2015,Single Family Residential,1008 Anza Dr. Dr,Pacifica,CA,94044,630000,3,2.0,Pacifica,1480,,1954,1075,426,,Sold,,,http://www.redfin.com/CA/Pacifica/1008-Anza-Dr-94044/home/2023561,San Francisco MLS,415613,N,Y,37.5972573,-122.5010526
PAST SALE,June-29-2016,Single Family Residential,920 Anza Dr,Pacifica,CA,94044,780000,3,1.0,Pacifica,1040,5500,1954,580,750,,Sold,,,http://www.redfin.com/CA/Pacifica/920-Anza-Dr-94044/home/1902351,San Francisco MLS,445803,N,Y,37.5963997,-122.5020109
PAST SALE,June-15-2016,Single Family Residential,1135 Fernandez Way,PACIFICA,CA,94044,762000,3,1.0,PACIFICA,1040,5087,1954,594,733,,Sold,,,http://www.redfin.com/CA/Pacifica/1135-Fernandez-Way-94044/home/652349,MLSListings,ML81579528,N,Y,37.5950034,-122.4980583
PAST SALE,June-9-2015,Single Family Residential,936 Anza Dr,Pacifica,CA,94044,743000,3,1.0,Pacifica,1040,5000,1954,966,714,,Sold,,,http://www.redfin.com/CA/Pacifica/936-Anza-Dr-94044/home/1106304,San Francisco MLS,432815,N,Y,37.596572,-122.5017581
PAST SALE,February-3-2017,Single Family Residential,227 Winwood Ave,PACIFICA,CA,94044,818000,3,2.5,PACIFICA,2010,6000,1979,361,407,,Sold,,,http://www.redfin.com/CA/Pacifica/227-Winwood-Ave-94044/home/2059568,MLSListings,ML81635535,N,Y,37.655096,-122.4889921
PAST SALE,June-10-2016,Single Family Residential,331 coral ridge Dr,PACIFICA,CA,94044,1150000,3,2.5,PACIFICA,2000,4840,1967,599,575,24,Sold,,,http://www.redfin.com/CA/Pacifica/331-Coral-Ridge-Dr-94044/home/1458233,MLSListings,ML81584306,N,Y,37.656438,-122.489306
PAST SALE,August-19-2016,Single Family Residential,369 Coral Ridge Dr,PACIFICA,CA,94044,935000,4,2.0,PACIFICA,1530,4018,1967,529,611,28,Sold,,,http://www.redfin.com/CA/Pacifica/369-Coral-Ridge-Dr-94044/home/1149512,MLSListings,ML81594192,N,Y,37.6574295,-122.4884926
PAST SALE,October-27-2016,Townhouse,625 Hickey Blvd Unit C,PACIFICA,CA,94044,630000,2,1.5,PACIFICA,1150,792,1974,460,548,225,Sold,,,http://www.redfin.com/CA/Pacifica/625-Hickey-Blvd-94044/unit-C/home/1483507,MLSListings,ML81612780,N,Y,37.655854,-122.479362
PAST SALE,December-8-2015,Single Family Residential,311 Inverness Dr,PACIFICA,CA,94044,838000,3,1.5,PACIFICA,1540,4000,1964,784,544,24,Sold,,,http://www.redfin.com/CA/Pacifica/311-Inverness-Dr-94044/home/1562324,MLSListings,ML81519992,N,Y,37.6540409,-122.478935
PAST SALE,June-12-2015,Townhouse,262 Beachview Ave #3,PACIFICA,CA,94044,802000,2,2.5,PACIFICA,1440,1250,1979,963,557,532,Sold,,,http://www.redfin.com/CA/Pacifica/262-Beachview-Ave-94044/unit-3/home/1281561,MLSListings,ML81453285,N,Y,37.654452,-122.483099
PAST SALE,August-18-2015,Single Family Residential,222 Winwood Ave,PACIFICA,CA,94044,895000,4,2.5,PACIFICA,2150,4671,1988,896,416,24,Sold,,,http://www.redfin.com/CA/Pacifica/222-Winwood-Ave-94044/home/586007,MLSListings,ML81472191,N,Y,37.6548151,-122.4895984
PAST SALE,December-15-2016,Single Family Residential,296 Farallon Ave,PACIFICA,CA,94044,1140000,4,3.5,PACIFICA,3480,5702,1986,411,328,,Sold,,,http://www.redfin.com/CA/Pacifica/296-Farallon-Ave-94044/home/1178130,MLSListings,ML81596622,N,Y,37.6563248,-122.4870645
PAST SALE,,Townhouse,266 Beachview Ave Apt 10,Pacifica,CA,94044,719000,3,2.0,,1640,1476,1979,,438,,,,,http://www.redfin.com/CA/Pacifica/266-Beachview-Ave-94044/unit-10/home/1613260,,,N,Y,37.654144,-122.482622
PAST SALE,June-3-2016,Single Family Residential,383 Imperial Dr,PACIFICA,CA,94044,950000,5,3.0,PACIFICA,2083,4200,1965,606,456,25,Sold,,,http://www.redfin.com/CA/Pacifica/383-Imperial-Dr-94044/home/593580,MLSListings,ML81581821,N,Y,37.6566269,-122.4773394
PAST SALE,March-24-2016,Single Family Residential,156 Morton Dr,DALY CITY,CA,94015,968000,3,2.5,DALY CITY,1660,6080,1974,677,583,,Sold,,,http://www.redfin.com/CA/Daly-City/156-Morton-Dr-94015/home/1568881,MLSListings,ML81562232,N,Y,37.6577707,-122.4730134
PAST SALE,April-22-2015,Single Family Residential,420 Lynbrook Dr,PACIFICA,CA,94044,600000,3,1.0,PACIFICA,1310,4200,1964,1014,458,25,Sold,,,http://www.redfin.com/CA/Pacifica/420-Lynbrook-Dr-94044/home/593470,MLSListings,ML81453253,N,Y,37.6558745,-122.4763582
PAST SALE,February-27-2015,Condo/Co-op,409 ROBERTS Rd,PACIFICA,CA,94044,730000,2,2.5,PACIFICA,1480,,1981,1068,493,455,Sold,,,http://www.redfin.com/CA/Pacifica/409-Roberts-Rd-94044/unit-A-5/home/996675,MLSListings,ML81448444,N,Y,37.602224,-122.4974
PAST SALE,October-20-2015,Single Family Residential,1044 Monte Verde Dr,PACIFICA,CA,94044,863500,3,2.0,PACIFICA,1330,5500,1954,833,649,,Sold,,,http://www.redfin.com/CA/Pacifica/1044-Monte-Verde-Dr-94044/home/1772353,MLSListings,ML81514274,N,Y,37.5831993,-122.4952389
PAST SALE,September-30-2016,Townhouse,1303 Rosita Rd,PACIFICA,CA,94044,687000,2,2.5,PACIFICA,1150,1100,1973,487,597,421,Sold,,,http://www.redfin.com/CA/Pacifica/1303-Rosita-Rd-94044/home/1902467,MLSListings,ML81601153,N,Y,37.581128,-122.485161
PAST SALE,October-19-2016,Townhouse,1252 Rosita Rd,PACIFICA,CA,94044,681000,3,2.5,PACIFICA,1380,1080,1973,468,493,449,Sold,,,http://www.redfin.com/CA/Pacifica/1252-Rosita-Rd-94044/home/1724043,MLSListings,ML81613639,N,Y,37.5812359,-122.487228
PAST SALE,April-17-2015,Single Family Residential,199 Canterbury Ave,DALY CITY,CA,94015,788000,4,3.0,DALY CITY,1800,3600,1965,1019,438,,Sold,,,http://www.redfin.com/CA/Daly-City/199-Canterbury-Ave-94015/home/1992356,MLSListings,ML81448486,N,Y,37.6515116,-122.4699872
PAST SALE,September-26-2016,Single Family Residential,3510 Sunset Dr,SAN BRUNO,CA,94066,889000,3,2.0,SAN BRUNO,1160,5000,1959,491,766,,Sold,,,http://www.redfin.com/CA/San-Bruno/3510-Sunset-Dr-94066/home/1957089,MLSListings,ML81597233,N,Y,37.6339932,-122.4706703
PAST SALE,July-6-2016,Single Family Residential,122 Berendos Ave,PACIFICA,CA,94044,1305000,3,2.0,PACIFICA,1830,7849,1935,573,713,,Sold,,,http://www.redfin.com/CA/Pacifica/122-Berendos-Ave-94044/home/1998226,MLSListings,ML81587782,N,Y,37.6118846,-122.4746751
PAST SALE,April-7-2016,Single Family Residential,157 Panorama Ct,PACIFICA,CA,94044,1400000,4,2.5,PACIFICA,2820,3824,1998,663,496,130,Sold,,,http://www.redfin.com/CA/Pacifica/157-Panorama-Ct-94044/home/1290788,MLSListings,ML81546508,N,Y,37.638492,-122.466091
PAST SALE,,Townhouse,78 Outlook Cir,Pacifica,CA,94044,250000,2,2.0,,1675,606166,1995,,149,,,,,http://www.redfin.com/CA/Pacifica/78-Outlook-Cir-94044/home/1392671,,,N,Y,37.63181,-122.47541
PAST SALE,March-29-2016,Single Family Residential,3601 Exeter Dr,San Bruno,CA,94066,923000,3,2.0,San Mateo County,1260,5001,1959,672,733,,Sold,,,http://www.redfin.com/CA/San-Bruno/3601-Exeter-Dr-94066/home/1056244,BAREIS,21526116,N,Y,37.6322245,-122.4704508
PAST SALE,November-16-2016,Single Family Residential,495 Loma Vista Ter,PACIFICA,CA,94044,950000,3,1.5,PACIFICA,1840,5601,1974,440,516,,Sold,,,http://www.redfin.com/CA/Pacifica/495-Loma-Vista-Ter-94044/home/619013,MLSListings,ML81628694,N,Y,37.6356354,-122.48434
PAST SALE,December-29-2016,Single Family Residential,15 Salada Ave,PACIFICA,CA,94044,978000,4,3.0,PACIFICA,1740,5571,1904,397,562,,Sold,,,http://www.redfin.com/CA/Pacifica/15-Salada-Ave-94044/home/1105497,MLSListings,ML81599823,N,Y,37.634845,-122.493483
PAST SALE,March-13-2015,Single Family Residential,143 Carmel Ave,PACIFICA,CA,94044,700000,1,2.0,PACIFICA,1030,5200,1939,1054,680,,Sold,,,http://www.redfin.com/CA/Pacifica/143-Carmel-Ave-94044/home/1861876,MLSListings,ML81450655,N,Y,37.6360541,-122.491227
PAST SALE,,Single Family Residential,75 Santa Rosa Ave,Pacifica,CA,94044,830000,3,3.0,,1554,2250,1986,,534,,,,,http://www.redfin.com/CA/Pacifica/75-Santa-Rosa-Ave-94044/home/2035749,,,N,Y,37.633562,-122.49277
PAST SALE,,Multi-Family (2-4 Unit),63 Montecito Ave,Pacifica,CA,94044,770000,8,4.0,,2928,5580,1960,,263,,,,,http://www.redfin.com/CA/Pacifica/63-Montecito-Ave-94044/home/1430712,,,N,Y,37.6329178,-122.4930612
PAST SALE,December-8-2015,Single Family Residential,3680 Sunset Dr,SAN BRUNO,CA,94066,810000,3,2.0,SAN BRUNO,1160,6099,1959,784,698,,Sold,,,http://www.redfin.com/CA/San-Bruno/3680-Sunset-Dr-94066/home/1044679,MLSListings,ML81518187,N,Y,37.6319663,-122.4717999
PAST SALE,April-14-2015,Townhouse,102 Outlook Cir,PACIFICA,CA,94044,855000,3,2.5,PACIFICA,1820,9999,1997,1022,470,470,Sold,,,http://www.redfin.com/CA/Pacifica/102-Outlook-Cir-94044/unit-75/home/2001107,MLSListings,ML81453984,N,Y,37.63181,-122.47541
PAST SALE,May-26-2016,Single Family Residential,400 Belfast Ave,Pacifica,CA,94044,1170000,3,1.0,Pacifica,1080,7500,1925,614,1083,,Sold,,,http://www.redfin.com/CA/Pacifica/400-Belfast-Ave-94044/home/1150809,San Francisco MLS,444174,N,Y,37.5909416,-122.5105784
PAST SALE,September-18-2015,Single Family Residential,344 Olympian Way,PACIFICA,CA,94044,840000,2,2.0,PACIFICA,1380,15000,1911,865,609,,Sold,,,http://www.redfin.com/CA/Pacifica/344-Olympian-Way-94044/home/1313035,MLSListings,ML81497884,N,Y,37.5925407,-122.5108122
PAST SALE,August-19-2016,Single Family Residential,1323 Oddstad Blvd,PACIFICA,CA,94044,975000,4,3.0,PACIFICA,2200,5702,1973,529,443,,Sold,,,http://www.redfin.com/CA/Pacifica/1323-Oddstad-Blvd-94044/home/658737,MLSListings,ML81593838,N,Y,37.5959777,-122.4628774
PAST SALE,June-9-2015,Single Family Residential,1050 Banyan Way,Pacifica,CA,94044,885000,3,2.0,Pacifica,1610,6695,1963,966,550,,Sold,,,http://www.redfin.com/CA/Pacifica/1050-Banyan-Way-94044/home/1940342,San Francisco MLS,432317,N,Y,37.5900991,-122.4821721
PAST SALE,August-21-2015,Townhouse,1290 Terra Nova Blvd,PACIFICA,CA,94044,565000,2,1.5,PACIFICA,1100,960,1970,893,514,365,Sold,,,http://www.redfin.com/CA/Pacifica/1290-Terra-Nova-Blvd-94044/home/656474,MLSListings,ML81497449,N,Y,37.588568,-122.4769863
PAST SALE,February-4-2015,Townhouse,621 Hickey Blvd Unit C,PACIFICA,CA,94044,615000,2,1.5,PACIFICA,1150,924,1974,1091,535,205,Sold,,,http://www.redfin.com/CA/Pacifica/621-Hickey-Blvd-94044/unit-C/home/113738916,MLSListings,ML81444692,N,Y,37.655355,-122.479303
PAST SALE,January-8-2016,Townhouse,534 Monterey Rd,PACIFICA,CA,94044,690000,3,2.5,PACIFICA,1904,18873,1989,753,362,541,Sold,,,http://www.redfin.com/CA/Pacifica/534-Monterey-Rd-94044/home/995577,MLSListings,ML81534307,N,Y,37.647846,-122.478859
PAST SALE,,Townhouse,621 Hickey Blvd,Pacifica,CA,94044,615000,2,1.0,,1150,924,1974,,535,,,,,http://www.redfin.com/CA/Pacifica/621-Hickey-Blvd-94044/home/582770,,,N,Y,37.655355,-122.479303
PAST SALE,,Single Family Residential,411 Fremont Ave,Pacifica,CA,94044,650000,3,1.0,,980,5890,1948,,663,,,,,http://www.redfin.com/CA/Pacifica/411-Fremont-Ave-94044/home/584348,,,N,Y,37.6501742,-122.4867006
PAST SALE,February-3-2016,Single Family Residential,119 Catalina Ave,PACIFICA,CA,94044,760000,3,1.0,PACIFICA,1340,4000,1965,727,567,,Sold,,,http://www.redfin.com/CA/Pacifica/119-Catalina-Ave-94044/home/587562,MLSListings,ML81534197,N,Y,37.6575315,-122.4851216
PAST SALE,April-17-2015,Single Family Residential,275 Arroyo Dr,PACIFICA,CA,94044,717000,3,1.0,PACIFICA,1110,7560,1951,1019,646,,Sold,,,http://www.redfin.com/CA/Pacifica/275-Arroyo-Dr-94044/home/1562199,MLSListings,ML81451391,N,Y,37.6462139,-122.4859575
PAST SALE,April-15-2015,Townhouse,286 Beachview Ave #33,PACIFICA,CA,94044,700000,2,2.5,PACIFICA,1440,1250,1979,1021,486,532,Sold,,,http://www.redfin.com/CA/Pacifica/286-Beachview-Ave-94044/unit-33/home/1512515,MLSListings,ML81452625,N,Y,37.65228,-122.48243
PAST SALE,February-19-2016,Single Family Residential,548 Vista Mar Ave,PACIFICA,CA,94044,750000,5,4.0,PACIFICA,2530,6500,1949,711,296,,Sold,,,http://www.redfin.com/CA/Pacifica/548-Vista-Mar-Ave-94044/home/582095,MLSListings,ML81467662,N,Y,37.6470327,-122.48602
PAST SALE,April-18-2015,Single Family Residential,261 Catalina Ave,PACIFICA,CA,94044,780000,5,2.0,PACIFICA,1700,4000,1964,1018,459,27,Sold,,,http://www.redfin.com/CA/Pacifica/Catalina-Ave-94044/home/1840419,MLSListings,ML81457742,N,Y,37.6555698,-122.4807796
PAST SALE,May-6-2015,Single Family Residential,7 Connemara Dr,PACIFICA,CA,94044,1225000,3,3.0,PACIFICA,2595,6371,2010,1000,472,362,Sold,,,http://www.redfin.com/CA/Pacifica/7-Connemara-Dr-94044/home/21928301,MLSListings,ML81459108,N,Y,37.6439526,-122.4892527
PAST SALE,,Single Family Residential,852 Montezuma Dr,Pacifica,CA,94044,820000,3,1.0,,1040,5763,1954,,788,,,,,http://www.redfin.com/CA/Pacifica/852-Montezuma-Dr-94044/home/2023573,,,N,Y,37.5897903,-122.4960658
PAST SALE,June-1-2015,Single Family Residential,229 Golden Bay Dr,PACIFICA,CA,94044,917000,3,2.0,PACIFICA,1830,3936,1968,974,501,24,Sold,,,http://www.redfin.com/CA/Pacifica/229-Golden-Bay-Dr-94044/home/1854100,MLSListings,ML81457984,N,Y,37.6583497,-122.4872409
PAST SALE,October-28-2015,Single Family Residential,551 Esplanade Ave,Pacifica,CA,94044,1200000,4,3.0,Pacifica,2225,4992,1949,825,539,,Sold,,,http://www.redfin.com/CA/Pacifica/551-Esplanade-Ave-94044/home/1367276,San Francisco MLS,436031,N,Y,37.6479807,-122.4929957
PAST SALE,June-25-2015,Single Family Residential,256 Avalon Dr,PACIFICA,CA,94044,750000,2,1.0,PACIFICA,840,5440,1948,950,893,,Sold,,,http://www.redfin.com/CA/Pacifica/256-Avalon-Dr-94044/home/1749373,MLSListings,ML81466681,N,Y,37.6466041,-122.4868561
PAST SALE,November-7-2016,Single Family Residential,7 Seahaven Ct,PACIFICA,CA,94044,1010000,4,2.5,PACIFICA,2520,5401,1963,449,401,,Sold,,,http://www.redfin.com/CA/Pacifica/7-Seahaven-Ct-94044/home/586502,MLSListings,ML81615425,N,Y,37.663268,-122.483446
PAST SALE,,Single Family Residential,1237 Skyline Dr,Daly City,CA,94015,188500,3,1.0,,1090,3300,1965,,173,,,,,http://www.redfin.com/CA/Daly-City/1237-Skyline-Dr-94015/home/1254814,,,N,Y,37.661239,-122.487009
PAST SALE,May-7-2015,Single Family Residential,472 Inverness Dr,PACIFICA,CA,94044,786000,4,2.0,PACIFICA,1370,5000,1955,999,574,,Sold,,,http://www.redfin.com/CA/Pacifica/472-Inverness-Dr-94044/home/1861580,MLSListings,ML81459298,N,Y,37.6487338,-122.4757444
PAST SALE,December-13-2016,Single Family Residential,139 Eastridge Cir,PACIFICA,CA,94044,915000,3,2.0,PACIFICA,1320,3998,1966,413,693,,Sold,,,http://www.redfin.com/CA/Pacifica/139-Eastridge-Cir-94044/home/1492588,MLSListings,ML81630836,N,Y,37.6663005,-122.4825855
PAST SALE,,Single Family Residential,170 Eastridge Cir,Pacifica,CA,94044,700000,3,3.0,,1320,4620,1968,,530,,,,,http://www.redfin.com/CA/Pacifica/170-Eastridge-Cir-94044/home/1613155,,,N,Y,37.6651333,-122.4816751
PAST SALE,January-28-2016,Single Family Residential,1216 De Solo Dr,PACIFICA,CA,94044,658845,3,1.0,PACIFICA,1040,5000,1955,733,634,,Sold,,,http://www.redfin.com/CA/Pacifica/1216-De-Solo-Dr-94044/home/1606225,MLSListings,ML81534951,N,Y,37.5940503,-122.5019256
PAST SALE,July-31-2015,Single Family Residential,232 Marvilla Cir,PACIFICA,CA,94044,910000,4,2.5,PACIFICA,1970,5612,1990,914,462,,Sold,,,http://www.redfin.com/CA/Pacifica/232-Marvilla-Cir-94044/home/1106296,MLSListings,ML81483057,N,Y,37.5936377,-122.4979572
PAST SALE,,Single Family Residential,1167 Cervantes Way,Pacifica,CA,94044,800000,3,1.0,,1040,5000,1954,,769,,,,,http://www.redfin.com/CA/Pacifica/1167-Cervantes-Way-94044/home/655221,,,N,Y,37.5956072,-122.5005173
PAST SALE,May-14-2015,Single Family Residential,547 Manor Dr,PACIFICA,CA,94044,700000,3,1.0,PACIFICA,930,7003,1954,992,753,,Sold,,,http://www.redfin.com/CA/Pacifica/547-Manor-Dr-94044/home/1043898,MLSListings,ML81459491,N,Y,37.6461985,-122.4772048
PAST SALE,April-13-2016,Single Family Residential,345 Horizon Way,Pacifica,CA,94044,690000,3,1.0,Pacifica,1110,4000,1964,657,622,,Sold,,,http://www.redfin.com/CA/Pacifica/345-Horizon-Way-94044/home/589604,San Francisco MLS,441688,N,Y,37.6533144,-122.4777606
