SALE TYPE,SOLD DATE,PROPERTY TYPE,ADDRESS,CITY,STATE,ZIP,PRICE,BEDS,BATHS,LOCATION,SQUARE FEET,LOT SIZE,YEAR BUILT,DAYS ON MARKET,$/SQUARE FEET,HOA/MONTH,STATUS,NEXT OPEN HOUSE START TIME,NEXT OPEN HOUSE END TIME,URL (SEE http://www.redfin.com/buy-a-home/comparative-market-analysis FOR INFO ON PRICING),SOURCE,MLS#,FAVORITE,INTERESTED,LATITUDE,LONGITUDE
PAST SALE,February-14-2018,Single Family Residential,126 Rockwood Dr,SOUTH SAN FRANCISCO,CA,94080,1205000,3,2.0,SOUTH SAN FRANCISCO,1320,4950,1946,11,913,,Sold,,,http://www.redfin.com/CA/South-San-Francisco/126-Rockwood-Dr-94080/home/1638012,MLSListings,ML81690205,N,Y,37.640421,-122.4247146
PAST SALE,February-21-2018,Condo/Co-op,1028 Shoreline Dr,SAN MATEO,CA,94404,960000,1,1.5,SAN MATEO,1150,120953,1979,4,835,535,Sold,,,http://www.redfin.com/CA/San-Mateo/1028-Shoreline-Dr-94404/unit-11-3-10/home/2033061,MLSListings,ML81689259,N,Y,37.557742,-122.290501
PAST SALE,February-21-2018,Single Family Residential,1116 Hollyburne Ave,MENLO PARK,CA,94025,1365000,3,1.0,MENLO PARK,1025,5750,1949,4,1332,,Sold,,,http://www.redfin.com/CA/Menlo-Park/1116-Hollyburne-Ave-94025/home/1276917,MLSListings,ML81689688,N,Y,37.4725009,-122.1590215
PAST SALE,February-20-2018,Condo/Co-op,240 N Bayshore Blvd #304,SAN MATEO,CA,94401,500000,1,1.0,SAN MATEO,725,63584,1982,5,690,500,Sold,,,http://www.redfin.com/CA/San-Mateo/240-N-Bayshore-Blvd-94401/unit-304/home/2003351,MLSListings,ML81690778,N,Y,37.5779367,-122.3202108
PAST SALE,February-20-2018,Single Family Residential,617 Mystic Ln,FOSTER CITY,CA,94404,1920000,4,2.5,FOSTER CITY,1940,4000,1977,5,990,226,Sold,,,http://www.redfin.com/CA/Foster-City/617-Mystic-Ln-94404/home/1817674,MLSListings,ML81692174,N,Y,37.5446303,-122.2684101
PAST SALE,February-7-2018,Condo/Co-op,400 Mariners Island Blvd #213,SAN MATEO,CA,94404,1350000,2,2.0,SAN MATEO,1379,,2016,18,979,,Sold,,,http://www.redfin.com/CA/San-Mateo/400-Mariners-Island-Blvd-94404/unit-213/home/144108579,MLSListings,ML81687511,N,Y,37.569763,-122.28538
PAST SALE,February-13-2018,Condo/Co-op,456 Mariners Island Blvd #320,SAN MATEO,CA,94404,840000,2,2.0,SAN MATEO,1250,20459,1978,12,672,652,Sold,,,http://www.redfin.com/CA/San-Mateo/456-Mariners-Island-Blvd-94404/unit-320/home/2020919,MLSListings,ML81685744,N,Y,37.5679802,-122.2848055
PAST SALE,February-6-2018,Single Family Residential,983 Shoal Dr,SAN MATEO,CA,94404,1358000,2,2.0,SAN MATEO,1310,2626,1978,19,1037,125,Sold,,,http://www.redfin.com/CA/San-Mateo/983-Shoal-Dr-94404/home/2016734,MLSListings,ML81686813,N,Y,37.5611537,-122.2901215
PAST SALE,February-7-2018,Condo/Co-op,880 Meridian Bay Ln #319,FOSTER CITY,CA,94404,1310000,3,2.0,FOSTER CITY,1606,206123,1998,18,816,662,Sold,,,http://www.redfin.com/CA/Foster-City/880-Meridian-Bay-Ln-94404/unit-319/home/1319657,MLSListings,ML81688041,N,Y,37.554083,-122.27858
PAST SALE,February-20-2018,Condo/Co-op,780 Sea Spray Ln #201,FOSTER CITY,CA,94404,970000,2,2.0,FOSTER CITY,1214,39199,1983,5,799,510,Sold,,,http://www.redfin.com/CA/Foster-City/780-Sea-Spray-Ln-94404/unit-201/home/2057710,MLSListings,ML81686785,N,Y,37.5521009,-122.2809645
PAST SALE,February-12-2018,Single Family Residential,1235 North Rd,BELMONT,CA,94002,2050000,5,3.5,BELMONT,2605,7109,1971,13,787,,Sold,,,http://www.redfin.com/CA/Belmont/1235-North-Rd-94002/home/1340745,MLSListings,ML81688804,N,Y,37.5247654,-122.2873417
PAST SALE,February-1-2018,Single Family Residential,1302 ACADEMY Ave,BELMONT,CA,94002,2320000,4,2.5,BELMONT,2120,7470,1971,24,1094,,Sold,,,http://www.redfin.com/CA/Belmont/1302-Academy-Ave-94002/home/2059014,MLSListings,ML81689550,Y,Y,37.5172752,-122.2941194
PAST SALE,February-5-2018,Single Family Residential,302 Cuardo Ave,MILLBRAE,CA,94030,950000,3,1.0,MILLBRAE,920,4700,1944,20,1033,,Sold,,,http://www.redfin.com/CA/Millbrae/302-Cuardo-Ave-94030/home/1539011,MLSListings,ML81688573,N,Y,37.6041422,-122.3876078
PAST SALE,February-16-2018,Single Family Residential,761 SEQUOIA Ave,MILLBRAE,CA,94030,1900000,3,2.0,MILLBRAE,1610,9568,1956,9,1180,,Sold,,,http://www.redfin.com/CA/Millbrae/761-Sequoia-Ave-94030/home/2058724,MLSListings,ML81689437,N,Y,37.5927756,-122.3911744
PAST SALE,February-1-2018,Single Family Residential,664 Claridge Dr,Pacifica,CA,94044,830000,3,2.0,Pacifica,1220,5000,1954,24,680,,Sold,,,http://www.redfin.com/CA/Pacifica/664-Claridge-Dr-94044/home/584751,San Francisco MLS,465259,N,Y,37.6450411,-122.470806
PAST SALE,February-14-2018,Condo/Co-op,3721 Carter Dr #1204,SOUTH SAN FRANCISCO,CA,94080,770000,2,2.0,SOUTH SAN FRANCISCO,1060,66871,2004,11,726,395,Sold,,,http://www.redfin.com/CA/South-San-Francisco/3721-Carter-Dr-94080/unit-1204/home/1613563,MLSListings,ML81688235,N,Y,37.6447719,-122.4678651
PAST SALE,February-16-2018,Single Family Residential,24 Carlsbad Ct,South San Francisco,CA,94080,1410000,4,3.0,South San Francisco,2450,5600,1956,9,576,,Sold,,,http://www.redfin.com/CA/South-San-Francisco/24-Carlsbad-Ct-94080/home/2052983,San Francisco MLS,465985,N,Y,37.6474345,-122.4340502
PAST SALE,February-23-2018,Single Family Residential,542 Lassen St,SOUTH SAN FRANCISCO,CA,94080,1225000,3,2.0,SOUTH SAN FRANCISCO,1540,4500,1953,2,795,,Sold,,,http://www.redfin.com/CA/South-San-Francisco/542-Lassen-St-94080/home/2053927,MLSListings,ML81687148,N,Y,37.6474713,-122.4345369
PAST SALE,January-30-2018,Single Family Residential,1358 Sevier Ave,MENLO PARK,CA,94025,1355000,3,1.0,MENLO PARK,1130,5750,1946,26,1199,,Sold,,,http://www.redfin.com/CA/Menlo-Park/1358-Sevier-Ave-94025/home/1591648,MLSListings,ML81689545,N,Y,37.4782371,-122.1550241
PAST SALE,February-19-2018,Condo/Co-op,20 Madison Ave #211,SAN MATEO,CA,94402,1168000,2,2.0,SAN MATEO,1117,18867,2007,6,1046,412,Sold,,,http://www.redfin.com/CA/San-Mateo/20-Madison-Ave-94402/unit-211/home/22853238,MLSListings,ML81690413,N,Y,37.5549542,-122.3181479
PAST SALE,February-8-2018,Single Family Residential,329 Estrella Way,SAN MATEO,CA,94403,1365000,4,2.0,SAN MATEO,1400,5000,1948,17,975,,Sold,,,http://www.redfin.com/CA/San-Mateo/329-Estrella-Way-94403/home/747716,MLSListings,ML81687636,N,Y,37.5375872,-122.2868544
PAST SALE,February-12-2018,Single Family Residential,3506 Martin Dr,SAN MATEO,CA,94403,1445000,3,2.0,SAN MATEO,1740,5000,1948,13,830,,Sold,,,http://www.redfin.com/CA/San-Mateo/3506-Martin-Dr-94403/home/1533299,MLSListings,ML81688973,N,Y,37.5411064,-122.2871423
PAST SALE,February-15-2018,Single Family Residential,146 Arbor Ln,SAN MATEO,CA,94403,2225000,4,2.0,SAN MATEO,1800,6110,1940,10,1236,,Sold,,,http://www.redfin.com/CA/San-Mateo/146-Arbor-Ln-94403/home/1598956,MLSListings,ML81691110,N,Y,37.5362301,-122.3043958
PAST SALE,January-29-2018,Condo/Co-op,3850 Annapolis Ct,SOUTH SAN FRANCISCO,CA,94080,610000,2,1.0,SOUTH SAN FRANCISCO,858,12953,1971,27,711,277,Sold,,,http://www.redfin.com/CA/South-San-Francisco/3850-Annapolis-Ct-94080/unit-12B/home/113821324,MLSListings,ML81688064,N,Y,37.649764,-122.455055
PAST SALE,February-14-2018,Condo/Co-op,332 Philip Dr #204,DALY CITY,CA,94015,650000,2,2.0,DALY CITY,1237,393579,1975,11,525,557,Sold,,,http://www.redfin.com/CA/Daly-City/332-Philip-Dr-94015/unit-204/home/1921403,MLSListings,ML81688728,N,Y,37.669156,-122.464476
PAST SALE,January-31-2018,Condo/Co-op,376 Imperial Way #212,DALY CITY,CA,94015,460000,1,1.0,DALY CITY,717,1057906,1974,25,642,356,Sold,,,http://www.redfin.com/CA/Daly-City/376-Imperial-Way-94015/unit-212/home/2047036,MLSListings,ML81687555,N,Y,37.6648501,-122.4641502
PAST SALE,February-14-2018,Single Family Residential,345 1st Ave,DALY CITY,CA,94014,800000,2,2.0,DALY CITY,1340,3000,1951,11,597,,Sold,,,http://www.redfin.com/CA/Daly-City/345-1st-Ave-94014/home/1799082,MLSListings,ML81689616,N,Y,37.6870331,-122.4639623
PAST SALE,February-1-2018,Single Family Residential,239 W Poplar Ave,SAN MATEO,CA,94402,2100000,3,2.5,SAN MATEO,2140,9800,1949,24,981,,Sold,,,http://www.redfin.com/CA/San-Mateo/239-W-Poplar-Ave-94402/home/2031551,MLSListings,ML81690843,N,Y,37.5658563,-122.342658
PAST SALE,February-2-2018,Single Family Residential,678 Oak Park Way,REDWOOD CITY,CA,94062,2810000,4,2.5,REDWOOD CITY,3020,7840,1990,23,930,,Sold,,,http://www.redfin.com/CA/Emerald-Hills/678-Oak-Park-Way-94062/home/2047768,MLSListings,ML81688201,N,Y,37.4625441,-122.2722564
PAST SALE,January-30-2018,Single Family Residential,146 Beachview Ave,PACIFICA,CA,94044,1266000,3,2.5,PACIFICA,1684,4000,1964,26,752,2,Sold,,,http://www.redfin.com/CA/Pacifica/146-Beachview-Ave-94044/home/2003860,MLSListings,ML81687401,N,Y,37.655843951,-122.4849601
PAST SALE,February-2-2018,Condo/Co-op,104 Saint Marks Ct,DALY CITY,CA,94015,910000,3,2.5,DALY CITY,1272,1179,1974,23,715,274,Sold,,,http://www.redfin.com/CA/Daly-City/104-Saint-Marks-Ct-94015/unit-31/home/2047924,MLSListings,ML81682999,N,Y,37.6838229,-122.479972
PAST SALE,January-28-2018,Single Family Residential,2 Palisades Dr,Daly City,CA,94014,970450,3,2.0,Westlake Palisades,1520,4000,1958,28,638,,Sold,,,http://www.redfin.com/CA/Daly-City/2-Palisades-Dr-94015/home/1020440,San Francisco MLS,464022,N,Y,37.6918984,-122.4951429
PAST SALE,February-14-2018,Single Family Residential,28 Pacifico Ave,Daly City,CA,94015,750000,4,3.0,St. Francis Heights,1570,3400,1960,11,478,,Sold,,,http://www.redfin.com/CA/Daly-City/28-Pacifico-Ave-94015/home/1411496,San Francisco MLS,467281,N,Y,37.672823,-122.481552
PAST SALE,February-21-2018,Single Family Residential,1321 S Mayfair Ave,DALY CITY,CA,94015,980000,2,1.0,DALY CITY,1060,3400,1955,4,925,,Sold,,,http://www.redfin.com/CA/Daly-City/1321-S-Mayfair-Ave-94015/home/564819,MLSListings,ML81688151,N,Y,37.6880782,-122.4888474
PAST SALE,February-2-2018,Single Family Residential,425 Westmoor Ave,DALY CITY,CA,94015,1350000,5,3.0,DALY CITY,1732,3400,1966,23,779,,Sold,,,http://www.redfin.com/CA/Daly-City/425-Westmoor-Ave-94015/home/1739388,MLSListings,ML81684551,N,Y,37.6836186,-122.4925615
PAST SALE,February-2-2018,Condo/Co-op,1100 Sharon Park Dr #2,MENLO PARK,CA,94025,1283000,2,2.0,MENLO PARK,1196,170575,1965,23,1073,753,Sold,,,http://www.redfin.com/CA/Menlo-Park/1100-Sharon-Park-Dr-94025/unit-2/home/1364583,MLSListings,ML81689370,N,Y,37.4245263,-122.217699
PAST SALE,February-15-2018,Condo/Co-op,1280 Sharon Park Dr #26,MENLO PARK,CA,94025,1450000,2,2.0,MENLO PARK,1844,305239,1978,10,786,1087,Sold,,,http://www.redfin.com/CA/Menlo-Park/1280-Sharon-Park-Dr-94025/unit-26/home/1620635,MLSListings,ML81690158,N,Y,37.426035,-122.2192007
PAST SALE,February-21-2018,Single Family Residential,355 Olive St,MENLO PARK,CA,94025,4800000,3,2.5,MENLO PARK,3200,10735,2008,4,1500,,Sold,,,http://www.redfin.com/CA/Menlo-Park/355-Olive-St-94025/home/1072477,MLSListings,ML81689702,N,Y,37.4360805,-122.1861442
PAST SALE,January-26-2018,Single Family Residential,1274 Orange Ave,MENLO PARK,CA,94025,2875000,4,2.0,MENLO PARK,1650,8236,1963,30,1742,,Sold,,,http://www.redfin.com/CA/Menlo-Park/1274-Orange-Ave-94025/home/885665,MLSListings,ML81684498,N,Y,37.4365197,-122.2003895
PAST SALE,January-29-2018,Single Family Residential,1733 Gum St,SAN MATEO,CA,94402,1050000,2,1.0,SAN MATEO,850,5000,1916,27,1235,,Sold,,,http://www.redfin.com/CA/San-Mateo/1733-Gum-St-94402/home/1377525,MLSListings,ML81687869,N,Y,37.5529844,-122.3110838
PAST SALE,February-9-2018,Single Family Residential,1024 Crestview Dr,MILLBRAE,CA,94030,1933000,3,2.0,MILLBRAE,1830,20930,1957,16,1056,,Sold,,,http://www.redfin.com/CA/Millbrae/1024-Crestview-Dr-94030/home/1022437,MLSListings,ML81682894,N,Y,37.5985764,-122.4190966
PAST SALE,February-15-2018,Multi-Family (5+ Unit),17 Devonshire Blvd,SAN CARLOS,CA,94070,4800000,7,,SAN CARLOS,9470,11325,1967,10,507,,Sold,,,http://www.redfin.com/CA/San-Carlos/Undisclosed-address-94070/home/783687,MLSListings,ML81688996,N,Y,37.5013318,-122.2763325
PAST SALE,February-22-2018,Single Family Residential,835 Cape Breton Dr,PACIFICA,CA,94044,1100000,3,2.0,PACIFICA,1410,9100,1973,3,780,,Sold,,,http://www.redfin.com/CA/Pacifica/835-Cape-Breton-Dr-94044/home/1531460,MLSListings,ML81689223,N,Y,37.5947305,-122.4616072
PAST SALE,February-2-2018,Single Family Residential,412 Valdez Ave,HALF MOON BAY,CA,94019,1675000,4,3.5,HALF MOON BAY,2301,5603,2017,23,728,,Sold,,,http://www.redfin.com/CA/Half-Moon-Bay/412-Valdez-Ave-94019/home/105719323,MLSListings,ML81669203,N,Y,37.461483,-122.4380677
PAST SALE,February-8-2018,Single Family Residential,324 Kelly Ave,HALF MOON BAY,CA,94019,2650000,5,4.0,HALF MOON BAY,3301,7500,2017,17,803,,Sold,,,http://www.redfin.com/CA/Half-Moon-Bay/324-Kelly-Ave-94019/home/52341213,MLSListings,ML81687127,N,Y,37.464293,-122.439208
PAST SALE,February-1-2018,Single Family Residential,208 Kelly Ave,HALF MOON BAY,CA,94019,1500000,4,3.5,HALF MOON BAY,3192,7500,2005,24,470,,Sold,,,http://www.redfin.com/CA/Half-Moon-Bay/208-Kelly-Ave-94019/home/1967606,MLSListings,ML81687753,N,Y,37.4645529,-122.4415705
PAST SALE,February-9-2018,Townhouse,1134 Continentals Way,BELMONT,CA,94002,1350000,3,2.5,BELMONT,1590,2400,1977,16,849,480,Sold,,,http://www.redfin.com/CA/Belmont/1134-Continentals-Way-94002/home/1903538,MLSListings,ML81688217,N,Y,37.5116889,-122.303602
PAST SALE,February-16-2018,Single Family Residential,15 Rolling Hills Ave,SAN MATEO,CA,94403,1950000,4,3.0,SAN MATEO,2170,5500,1953,9,899,,Sold,,,http://www.redfin.com/CA/San-Mateo/15-Rolling-Hills-Ave-94403/home/1396427,MLSListings,ML81688249,N,Y,37.5287003,-122.2999221
PAST SALE,February-12-2018,Single Family Residential,2404 Cipriani Blvd,BELMONT,CA,94002,1660000,3,1.0,BELMONT,1280,5565,1953,13,1297,,Sold,,,http://www.redfin.com/CA/Belmont/2404-Cipriani-Blvd-94002/home/763705,MLSListings,ML81688796,N,Y,37.516713,-122.3040415
PAST SALE,February-16-2018,Single Family Residential,4205 Alameda De Las Pulgas,SAN MATEO,CA,94403,1435000,3,1.0,SAN MATEO,1190,5162,1953,9,1206,,Sold,,,http://www.redfin.com/CA/San-Mateo/4205-Alameda-de-las-Pulgas-94403/home/1623975,MLSListings,ML81687203,N,Y,37.5246916,-122.302613
PAST SALE,February-3-2018,Single Family Residential,140 Winding Way,SAN CARLOS,CA,94070,1250000,3,1.0,SAN CARLOS,880,4590,1943,22,1420,,Sold,,,http://www.redfin.com/CA/San-Carlos/140-Winding-Way-94070/home/1415873,MLSListings,ML81691319,N,Y,37.4950592,-122.2811395
PAST SALE,February-2-2018,Single Family Residential,1490 Cypress St,MONTARA,CA,94037,1150000,3,2.0,MONTARA,1400,87120,1994,23,821,,Sold,,,http://www.redfin.com/CA/Montara/1490-Cypress-St-94037/home/1822613,MLSListings,ML81682566,N,Y,37.534298,-122.499168
PAST SALE,February-2-2018,Single Family Residential,527 North St,PESCADERO,CA,94060,1065000,2,1.0,PESCADERO,1030,15000,1910,23,1034,,Sold,,,http://www.redfin.com/CA/Pescadero/527-North-St-94060/home/1308556,MLSListings,ML81681318,N,Y,37.256271,-122.376269
PAST SALE,February-5-2018,Single Family Residential,306 Cuardo Ave,MILLBRAE,CA,94030,950000,3,1.0,MILLBRAE,930,5000,1944,20,1022,,Sold,,,http://www.redfin.com/CA/Millbrae/306-Cuardo-Ave-94030/home/2013982,MLSListings,ML81688574,N,Y,37.6042234,-122.387678
PAST SALE,January-30-2018,Single Family Residential,468 Helen Dr,MILLBRAE,CA,94030,1885000,3,3.0,MILLBRAE,2481,5096,1947,26,760,,Sold,,,http://www.redfin.com/CA/Millbrae/468-Helen-Dr-94030/home/2051048,MLSListings,ML81686719,N,Y,37.6015345,-122.4061763
PAST SALE,February-9-2018,Single Family Residential,635 Linda Mar Blvd,PACIFICA,CA,94044,900888,3,1.0,PACIFICA,1040,5000,1954,16,866,,Sold,,,http://www.redfin.com/CA/Pacifica/635-Linda-Mar-Blvd-94044/home/1924946,MLSListings,ML81688084,N,Y,37.593648,-122.5005196
PAST SALE,February-5-2018,Multi-Family (2-4 Unit),480-482 Norfolk Dr,PACIFICA,CA,94044,1300000,4,,PACIFICA,2790,4982,1981,20,466,,Sold,,,http://www.redfin.com/CA/Pacifica/482-Norfolk-Dr-94044/home/144236183,MLSListings,ML81683716,N,Y,37.6481416,-122.4804044
PAST SALE,February-2-2018,Condo/Co-op,2225 Shelter Creek Ln,SAN BRUNO,CA,94066,460000,1,1.0,SAN BRUNO,680,1679615,1972,23,676,368,Sold,,,http://www.redfin.com/CA/San-Bruno/2225-Shelter-Creek-Ln-94066/home/1968880,MLSListings,ML81687623,N,Y,37.619843,-122.428366
PAST SALE,January-29-2018,Condo/Co-op,419 Piccadilly Pl #9,SAN BRUNO,CA,94066,620000,2,2.0,SAN BRUNO,850,170011,1971,27,729,395,Sold,,,http://www.redfin.com/CA/San-Bruno/419-Piccadilly-Pl-94066/unit-9/home/1818144,MLSListings,ML81686585,N,Y,37.6312922,-122.4308802
PAST SALE,January-26-2018,Single Family Residential,321 Courtland Dr,SAN BRUNO,CA,94066,1400000,3,2.0,SAN BRUNO,1840,5000,1960,30,761,,Sold,,,http://www.redfin.com/CA/San-Bruno/321-Courtland-Dr-94066/home/1338983,MLSListings,ML81688617,N,Y,37.6164542,-122.4269718
PAST SALE,February-2-2018,Condo/Co-op,402 Boardwalk Ave #24,SAN BRUNO,CA,94066,520000,1,1.0,SAN BRUNO,540,159124,1971,23,963,341,Sold,,,http://www.redfin.com/CA/San-Bruno/402-Boardwalk-Ave-94066/unit-24/home/1921818,MLSListings,ML81687862,N,Y,37.6311523,-122.4301865
PAST SALE,February-21-2018,Single Family Residential,3080 Arguello Dr,BURLINGAME,CA,94010,2500880,4,2.0,BURLINGAME,2290,9153,1964,4,1092,,Sold,,,http://www.redfin.com/CA/Burlingame/3080-Arguello-Dr-94010/home/1078392,MLSListings,ML81688263,N,Y,37.5773543,-122.3972152
PAST SALE,February-7-2018,Single Family Residential,1278 Hillcrest Blvd,MILLBRAE,CA,94030,2425000,4,3.0,MILLBRAE,2390,5301,1942,18,1015,,Sold,,,http://www.redfin.com/CA/Millbrae/1278-Hillcrest-Blvd-94030/home/670025,MLSListings,ML81689338,N,Y,37.5924319,-122.407017
PAST SALE,February-20-2018,Single Family Residential,894 Vista Grande,MILLBRAE,CA,94030,1808000,3,2.0,MILLBRAE,2520,6000,1974,5,717,,Sold,,,http://www.redfin.com/CA/Millbrae/894-Vista-Grande-94030/home/1368676,MLSListings,ML81690235,N,Y,37.5933562,-122.4088091
PAST SALE,January-31-2018,Single Family Residential,714 E 4th Ave,SAN BRUNO,CA,94066,625000,5,2.0,SAN BRUNO,1580,5000,1940,25,396,,Sold,,,http://www.redfin.com/CA/San-Bruno/714-4th-Ave-94066/home/1531218,MLSListings,ML81683130,N,Y,37.6295634,-122.407725
PAST SALE,February-20-2018,Single Family Residential,421 Poplar Ave,SAN BRUNO,CA,94066,1153000,2,2.0,SAN BRUNO,1692,4410,1941,5,681,,Sold,,,http://www.redfin.com/CA/San-Bruno/421-Poplar-Ave-94066/home/1538597,MLSListings,ML81688535,N,Y,37.6208117,-122.4133888
PAST SALE,February-16-2018,Single Family Residential,398 Elm Ave,SAN BRUNO,CA,94066,880000,2,1.0,SAN BRUNO,1060,2700,1949,9,830,,Sold,,,http://www.redfin.com/CA/San-Bruno/398-Elm-Ave-94066/home/1714675,MLSListings,ML81688013,N,Y,37.6204081,-122.4136101
PAST SALE,February-6-2018,Single Family Residential,28 Parkgrove Dr,SOUTH SAN FRANCISCO,CA,94080,1480000,4,3.5,SOUTH SAN FRANCISCO,2770,6075,1997,19,534,254,Sold,,,http://www.redfin.com/CA/South-San-Francisco/28-Parkgrove-Dr-94080/home/1337907,MLSListings,ML81687610,N,Y,37.6712131,-122.4152707
PAST SALE,February-15-2018,Condo/Co-op,555 Palm Ave #105,MILLBRAE,CA,94030,1106800,3,2.0,MILLBRAE,1742,30207,1975,10,635,600,Sold,,,http://www.redfin.com/CA/Millbrae/555-Palm-Ave-94030/unit-105/home/1992587,MLSListings,ML81688152,N,Y,37.6013032,-122.3996934
PAST SALE,February-2-2018,Single Family Residential,693 Terrace Ave,HALF MOON BAY,CA,94019,1495000,3,2.5,HALF MOON BAY,2059,5250,2017,23,726,,Sold,,,http://www.redfin.com/CA/Half-Moon-Bay/693-Terrace-Ave-94019/home/103769071,MLSListings,ML81669206,N,Y,37.4764873,-122.4314435
PAST SALE,January-26-2018,Single Family Residential,530 Main St,HALF MOON BAY,CA,94019,1600000,3,2.0,HALF MOON BAY,2900,5367,1946,30,552,,Sold,,,http://www.redfin.com/CA/Half-Moon-Bay/530-Main-St-94019/home/40151270,MLSListings,ML81673801,N,Y,37.4630729,-122.4295821
PAST SALE,February-2-2018,Multi-Family (2-4 Unit),723 Linden Ave,BURLINGAME,CA,94010,1820000,4,,BURLINGAME,2321,5920,1922,23,784,,Sold,,,http://www.redfin.com/CA/Burlingame/723-Linden-Ave-94010/home/2056134,MLSListings,ML81667651,N,Y,37.583442,-122.351256
PAST SALE,February-6-2018,Single Family Residential,612 Lakeview Way,REDWOOD CITY,CA,94062,2663000,5,3.5,REDWOOD CITY,3050,11565,2001,19,873,,Sold,,,http://www.redfin.com/CA/Emerald-Hills/612-Lakeview-Way-94062/home/1639400,MLSListings,ML81688127,N,Y,37.4674079,-122.2703221
PAST SALE,February-13-2018,Single Family Residential,80 Oak Haven Way,WOODSIDE,CA,94062,2800000,5,3.0,WOODSIDE,3370,45158,1969,12,831,105,Sold,,,http://www.redfin.com/CA/Woodside/80-Oak-Haven-Way-94062/home/1517290,MLSListings,ML81684629,N,Y,37.4390871,-122.2423132
PAST SALE,February-5-2018,Single Family Residential,1826 Maddux Dr,REDWOOD CITY,CA,94061,2300000,4,3.0,REDWOOD CITY,2730,8500,2007,20,842,,Sold,,,http://www.redfin.com/CA/Redwood-City/1826-Maddux-Dr-94061/home/880386,MLSListings,ML81691519,Y,Y,37.4547013,-122.2347889
PAST SALE,February-20-2018,Single Family Residential,3116 Hacienda St,SAN MATEO,CA,94403,1710000,2,2.0,SAN MATEO,1318,7000,1940,5,1297,,Sold,,,http://www.redfin.com/CA/San-Mateo/3116-Hacienda-St-94403/home/1807728,MLSListings,ML81691043,N,Y,37.53579,-122.3055917
PAST SALE,February-6-2018,Single Family Residential,2201 Thurm Ave,BELMONT,CA,94002,2450000,4,3.0,BELMONT,2140,12200,1965,19,1145,,Sold,,,http://www.redfin.com/CA/Belmont/2201-Thurm-Ave-94002/home/1983524,MLSListings,ML81688775,N,Y,37.5225817,-122.3035542
PAST SALE,February-8-2018,Single Family Residential,636 Caribbean Way,SAN MATEO,CA,94402,2300000,5,3.0,SAN MATEO,2590,7176,1976,17,888,,Sold,,,http://www.redfin.com/CA/San-Mateo/636-Caribbean-Way-94402/home/1079182,MLSListings,ML81689357,N,Y,37.5475764,-122.3259643
PAST SALE,February-15-2018,Single Family Residential,270 Shelter Cove Dr,EL GRANADA,CA,94019,1050000,3,2.0,EL GRANADA,1380,5814,1970,10,761,8,Sold,,,http://www.redfin.com/CA/Half-Moon-Bay/270-Shelter-Cove-Dr-94019/home/1935444,MLSListings,ML81689418,N,Y,37.511966,-122.48705
PAST SALE,February-22-2018,Single Family Residential,506 Avenue Balboa,EL GRANADA,CA,94019,860000,1,1.0,EL GRANADA,618,6850,1920,3,1392,,Sold,,,http://www.redfin.com/CA/Half-Moon-Bay/506-Avenue-Balboa-94019/home/1248759,MLSListings,ML81678326,N,Y,37.507363,-122.474455
PAST SALE,February-9-2018,Single Family Residential,860 Donohoe St,East Palo Alto,CA,94303,845000,2,1.0,East Palo Alto,1250,6464,1947,16,676,,Sold,,,http://www.redfin.com/CA/East-Palo-Alto/860-Donohoe-St-94303/home/1316236,EBRD/CCAR/Bay East,40803208,N,Y,37.4622542,-122.1354929
PAST SALE,February-15-2018,Single Family Residential,3339 Oak Knoll Dr,REDWOOD CITY,CA,94062,1252000,2,1.0,REDWOOD CITY,1488,9720,1932,10,841,,Sold,,,http://www.redfin.com/CA/Emerald-Hills/3339-Oak-Knoll-Dr-94062/home/1995642,MLSListings,ML81689032,N,Y,37.4676476,-122.2598721
PAST SALE,February-16-2018,Single Family Residential,4 Russell Ct,MENLO PARK,CA,94025,3825000,4,3.0,MENLO PARK,2370,7057,2003,9,1614,,Sold,,,http://www.redfin.com/CA/Menlo-Park/4-Russell-Ct-94025/home/2046675,MLSListings,ML81688736,N,Y,37.4540971,-122.1579426
PAST SALE,February-8-2018,Single Family Residential,77 Columbia Ave,REDWOOD CITY,CA,94063,1180000,2,1.5,REDWOOD CITY,1270,6000,1926,17,929,,Sold,,,http://www.redfin.com/CA/Redwood-City/77-Columbia-Ave-94063/home/849331,MLSListings,ML81688037,N,Y,37.4691087,-122.2087751
PAST SALE,February-16-2018,Single Family Residential,5 RIVIERA Cir,Redwood Shores,CA,94065,1900000,3,2.5,Redwood Shores,1970,4000,1978,9,964,91,Sold,,,http://www.redfin.com/CA/Redwood-City/5-Riviera-Cir-94065/home/1996244,MLSListings,ML81688768,N,Y,37.5294789,-122.2453956
PAST SALE,February-14-2018,Condo/Co-op,634 True Wind Way #801,REDWOOD CITY,CA,94063,1350000,3,2.5,REDWOOD CITY,1689,21825,2013,11,799,256,Sold,,,http://www.redfin.com/CA/Redwood-City/634-True-Wind-Way-94063/unit-801/home/104139225,MLSListings,ML81687256,N,Y,37.4954277,-122.2244039
PAST SALE,January-26-2018,Multi-Family (2-4 Unit),660 Pine St,REDWOOD CITY,CA,94063,970000,4,,REDWOOD CITY,1320,3783,1953,30,735,,Sold,,,http://www.redfin.com/CA/Redwood-City/660-Pine-St-94063/home/1775200,MLSListings,ML81680120,N,Y,37.4834103,-122.219541
PAST SALE,February-14-2018,Townhouse,2377 Ticonderoga Dr,SAN MATEO,CA,94402,1401000,3,3.0,SAN MATEO,1670,1425,1978,11,839,510,Sold,,,http://www.redfin.com/CA/San-Mateo/2377-Ticonderoga-Dr-94402/home/751345,MLSListings,ML81688819,N,Y,37.51641,-122.335279
PAST SALE,February-22-2018,Single Family Residential,3700 Naughton Ave,BELMONT,CA,94002,1862000,3,2.5,BELMONT,1810,12500,1930,3,1029,,Sold,,,http://www.redfin.com/CA/Belmont/3700-Naughton-Ave-94002/home/1684719,MLSListings,ML81690250,N,Y,37.5148694,-122.31693
PAST SALE,February-21-2018,Single Family Residential,40 Hoods Point Way,SAN MATEO,CA,94402,2218000,4,2.0,SAN MATEO,1760,10300,1959,4,1260,,Sold,,,http://www.redfin.com/CA/San-Mateo/40-Hoods-Point-Way-94402/home/1230118,MLSListings,ML81688769,N,Y,37.5183853,-122.3403998
PAST SALE,February-15-2018,Single Family Residential,1456 Bel Aire Rd,SAN MATEO,CA,94402,1850000,4,3.0,SAN MATEO,1930,10875,1961,10,959,,Sold,,,http://www.redfin.com/CA/San-Mateo/1456-Bel-Aire-Rd-94402/home/2026887,MLSListings,ML81688773,N,Y,37.5306293,-122.3430122
PAST SALE,January-30-2018,Single Family Residential,2904 San Juan Blvd,BELMONT,CA,94002,2568000,4,4.0,BELMONT,2835,5968,2017,26,906,,Sold,,,http://www.redfin.com/CA/Belmont/2904-San-Juan-Blvd-94002/home/143944530,MLSListings,ML81684987,N,Y,37.5152622,-122.309434
PAST SALE,January-26-2018,Single Family Residential,2549 San Carlos Ave,SAN CARLOS,CA,94070,1775000,3,2.0,SAN CARLOS,1800,11450,1948,30,986,,Sold,,,http://www.redfin.com/CA/San-Carlos/2549-San-Carlos-Ave-94070/home/1995438,MLSListings,ML81682022,N,Y,37.5056238,-122.2814496
PAST SALE,February-1-2018,Single Family Residential,40 WILLOW Rd,MENLO PARK,CA,94025,3500000,4,3.0,MENLO PARK,2510,9800,1955,24,1394,,Sold,,,http://www.redfin.com/CA/Menlo-Park/40-Willow-Rd-94025/home/1050219,MLSListings,ML81688266,N,Y,37.4507097,-122.1703254
PAST SALE,February-23-2018,Single Family Residential,984 Mccue Ave,SAN CARLOS,CA,94070,1780000,3,2.0,SAN CARLOS,1490,5150,1946,2,1195,,Sold,,,http://www.redfin.com/CA/San-Carlos/984-McCue-Ave-94070/home/1443528,MLSListings,ML81690107,N,Y,37.5097635,-122.2581882
PAST SALE,January-30-2018,Condo/Co-op,1028 San Luis Cir #735,DALY CITY,CA,94014,665000,2,2.0,DALY CITY,1004,696789,1986,26,662,386,Sold,,,http://www.redfin.com/CA/Daly-City/1028-San-Luis-Cir-94014/unit-735/home/1464905,MLSListings,ML81688522,N,Y,37.7067427,-122.4415937
PAST SALE,January-31-2018,Condo/Co-op,1019 San Gabriel Cir #436,DALY CITY,CA,94014,650000,2,1.5,DALY CITY,1055,696789,1986,25,616,386,Sold,,,http://www.redfin.com/CA/Daly-City/1019-San-Gabriel-Cir-94014/unit-436/home/1473013,MLSListings,ML81684712,N,Y,37.70614,-122.441186
PAST SALE,February-20-2018,Single Family Residential,57 Cymbidium Cir,SOUTH SAN FRANCISCO,CA,94080,1192275,3,2.5,SOUTH SAN FRANCISCO,1610,3500,2000,5,741,110,Sold,,,http://www.redfin.com/CA/South-San-Francisco/57-Cymbidium-Cir-94080/home/2038568,MLSListings,ML81685725,N,Y,37.6598164,-122.4470113
PAST SALE,February-7-2018,Single Family Residential,14405 Pescadero Rd,LA HONDA,CA,94020,851000,3,2.0,LA HONDA,890,13000,1930,18,956,,Sold,,,http://www.redfin.com/CA/La-Honda/14405-Pescadero-Creek-Rd-94020/home/908219,MLSListings,ML81688113,N,Y,37.3030704,-122.2682232
PAST SALE,February-21-2018,Single Family Residential,1 Fremont Way Unit RFD2,WOODSIDE,CA,94062,950000,2,1.0,WOODSIDE,620,12500,1925,4,1532,,Sold,,,http://www.redfin.com/CA/Woodside/1-Fremont-Way-94062/unit-RFD2/home/144637646,MLSListings,ML81688169,N,Y,37.382594,-122.263619
PAST SALE,February-12-2018,Single Family Residential,2331 Cheshire Way,REDWOOD CITY,CA,94061,2250000,4,3.0,REDWOOD CITY,2445,9148,1964,13,920,,Sold,,,http://www.redfin.com/CA/Redwood-City/2331-Cheshire-Way-94061/home/2046597,MLSListings,ML81690308,N,Y,37.4670293,-122.2473084
PAST SALE,January-26-2018,Single Family Residential,917 Durlston Rd,REDWOOD CITY,CA,94062,3225000,4,3.0,REDWOOD CITY,3540,10140,1929,30,911,,Sold,,,http://www.redfin.com/CA/Redwood-City/917-Durlston-Rd-94062/home/1515745,MLSListings,ML81667551,N,Y,37.4842195,-122.2504333
PAST SALE,January-26-2018,Single Family Residential,828 Canyon Rd,REDWOOD CITY,CA,94062,1649000,3,2.0,REDWOOD CITY,2000,7550,1953,30,825,,Sold,,,http://www.redfin.com/CA/Redwood-City/828-Canyon-Rd-94062/home/2053454,MLSListings,ML81686652,N,Y,37.4686995,-122.2516298
PAST SALE,,Multi-Family (2-4 Unit),1131 Sanchez Way,Redwood City,CA,94061,975000,4,2.0,,2350,6050,1959,,415,,,,,http://www.redfin.com/CA/Redwood-City/1131-Sanchez-Way-94061/home/835438,,,N,Y,37.4703597,-122.235365
PAST SALE,February-20-2018,Single Family Residential,875 Durlston Rd,REDWOOD CITY,CA,94062,2750000,3,3.0,REDWOOD CITY,2780,10000,1929,5,989,,Sold,,,http://www.redfin.com/CA/Redwood-City/875-Durlston-Rd-94062/home/803050,MLSListings,ML81690213,N,Y,37.484665,-122.2499086
PAST SALE,February-20-2018,Condo/Co-op,1126 Woodside Rd #6,REDWOOD CITY,CA,94061,975000,2,2.5,REDWOOD CITY,1386,44844,1986,5,703,600,Sold,,,http://www.redfin.com/CA/Redwood-City/1126-Woodside-Rd-94061/unit-6/home/113739488,MLSListings,ML81688949,N,Y,37.460898,-122.226122
PAST SALE,February-23-2018,Single Family Residential,148 Nevada St,REDWOOD CITY,CA,94062,1988000,2,2.0,REDWOOD CITY,1640,6500,1941,2,1212,,Sold,,,http://www.redfin.com/CA/Redwood-City/148-Nevada-St-94062/home/1784391,MLSListings,ML81688699,N,Y,37.4792307,-122.2482504
PAST SALE,February-19-2018,Multi-Family (5+ Unit),223 Lincoln Ave,REDWOOD CITY,CA,94061,3500000,2,,REDWOOD CITY,6868,8300,1960,6,510,,Sold,,,http://www.redfin.com/CA/Redwood-City/223-Lincoln-Ave-94061/home/1444186,MLSListings,ML81685672,N,Y,37.478329,-122.2278744
PAST SALE,February-23-2018,Single Family Residential,1140 Adams St,Redwood City,CA,94061,1250000,2,1.5,Redwood,1250,5000,1945,2,1000,,Sold,,,http://www.redfin.com/CA/Redwood-City/1140-Adams-St-94061/home/2057360,EBRD/CCAR/Bay East,40808422,N,Y,37.4773612,-122.2260128
PAST SALE,February-15-2018,Single Family Residential,240 Metzgar St,HALF MOON BAY,CA,94019,1010000,4,2.0,HALF MOON BAY,1950,7770,1971,10,518,,Sold,,,http://www.redfin.com/CA/Half-Moon-Bay/240-Metzgar-St-94019/home/1417483,MLSListings,ML81687739,N,Y,37.4548803,-122.4396131
PAST SALE,February-8-2018,Townhouse,722 University Dr,MENLO PARK,CA,94025,2100000,2,2.5,MENLO PARK,1530,1472,1981,17,1373,485,Sold,,,http://www.redfin.com/CA/Menlo-Park/722-University-Dr-94025/home/2059243,MLSListings,ML81688752,N,Y,37.447614,-122.182523
PAST SALE,February-9-2018,Condo/Co-op,600 Baltic Cir #638,Redwood Shores,CA,94065,865000,2,1.25,Redwood Shores,927,242714,1997,16,933,426,Sold,,,http://www.redfin.com/CA/Redwood-City/600-Baltic-Cir-94065/unit-638/home/994623,MLSListings,ML81688478,N,Y,37.5384471,-122.2418539
PAST SALE,January-30-2018,Townhouse,701 Baltic Cir #731,Redwood Shores,CA,94065,1210000,2,2.5,Redwood Shores,1424,314412,1996,26,850,436,Sold,,,http://www.redfin.com/CA/Redwood-City/701-Baltic-Cir-94065/unit-731/home/994431,MLSListings,ML81686046,N,Y,37.5384019,-122.2409975
PAST SALE,February-8-2018,Single Family Residential,1218 Kenilworth Rd,HILLSBOROUGH,CA,94010,3300000,5,4.5,HILLSBOROUGH,3450,19200,1958,17,957,,Sold,,,http://www.redfin.com/CA/Hillsborough/1218-Kenilworth-Rd-94010/home/1622869,MLSListings,ML81677959,N,Y,37.5537324,-122.3550548
PAST SALE,February-16-2018,Townhouse,3325 Kimberly Way,SAN MATEO,CA,94403,1300000,3,2.0,SAN MATEO,1450,1944,1978,9,897,335,Sold,,,http://www.redfin.com/CA/San-Mateo/3325-Kimberly-Way-94403/home/1582513,MLSListings,ML81689084,N,Y,37.5389029,-122.2787471
PAST SALE,January-31-2018,Single Family Residential,560 Dolores Ave,HALF MOON BAY,CA,94019,1150000,3,2.0,HALF MOON BAY,1400,10000,1957,25,821,,Sold,,,http://www.redfin.com/CA/Half-Moon-Bay/560-Dolores-Ave-94019/home/1524561,MLSListings,ML81685927,N,Y,37.442412,-122.42882
PAST SALE,February-23-2018,Single Family Residential,46 Spyglass Ct,HALF MOON BAY,CA,94019,3283000,5,4.0,HALF MOON BAY,4341,20740,2004,2,756,999,Sold,,,http://www.redfin.com/CA/Half-Moon-Bay/46-Spyglass-Ct-94019/home/2051003,MLSListings,ML81671891,N,Y,37.432958,-122.4382912
PAST SALE,January-31-2018,Single Family Residential,1037 Sunnyside Dr,SOUTH SAN FRANCISCO,CA,94080,1100000,3,2.0,SOUTH SAN FRANCISCO,1298,7520,1953,25,847,,Sold,,,http://www.redfin.com/CA/South-San-Francisco/1037-Sunnyside-Dr-94080/home/1842538,MLSListings,ML81686794,N,Y,37.660707,-122.4340502
PAST SALE,February-9-2018,Single Family Residential,104 Toyon Ave,SOUTH SAN FRANCISCO,CA,94080,840000,3,1.0,SOUTH SAN FRANCISCO,980,4500,1944,16,857,,Sold,,,http://www.redfin.com/CA/South-San-Francisco/104-Toyon-Ave-94080/home/1971033,MLSListings,ML81687683,N,Y,37.6515785,-122.42299
PAST SALE,February-15-2018,Condo/Co-op,35 W 20th Ave #103,SAN MATEO,CA,94403,860000,2,2.0,SAN MATEO,1213,,1982,10,709,491,Sold,,,http://www.redfin.com/CA/San-Mateo/35-W-20th-Ave-94403/unit-103/home/1363437,MLSListings,ML81688507,N,Y,37.5469719,-122.31114
PAST SALE,February-1-2018,Single Family Residential,109 Chukker Ct,SAN MATEO,CA,94403,1610000,3,2.0,SAN MATEO,1310,5000,1953,24,1229,,Sold,,,http://www.redfin.com/CA/San-Mateo/109-Chukker-Ct-94403/home/1142877,MLSListings,ML81687642,N,Y,37.5467987,-122.3170185
PAST SALE,February-9-2018,Single Family Residential,777 Sequoia Ave,SAN MATEO,CA,94403,2025000,3,2.5,SAN MATEO,2356,7440,1964,16,860,,Sold,,,http://www.redfin.com/CA/San-Mateo/777-Sequoia-Ave-94403/home/2042720,MLSListings,ML81688265,N,Y,37.5369723,-122.3200079
PAST SALE,February-8-2018,Single Family Residential,251 Spinnaker St,FOSTER CITY,CA,94404,1950000,4,3.0,FOSTER CITY,2360,5225,1971,17,826,,Sold,,,http://www.redfin.com/CA/Foster-City/251-Spinnaker-St-94404/home/1601784,MLSListings,ML81686425,N,Y,37.5502861,-122.2549888
PAST SALE,February-16-2018,Condo/Co-op,918 Beach Park Blvd #60,FOSTER CITY,CA,94404,995000,2,2.0,FOSTER CITY,1087,,1973,9,915,530,Sold,,,http://www.redfin.com/CA/Foster-City/918-Beach-Park-Blvd-94404/unit-60/home/1852510,MLSListings,ML81688732,N,Y,37.547979,-122.258968
PAST SALE,January-29-2018,Single Family Residential,15 Leroy Way,PORTOLA VALLEY,CA,94028,2200000,3,2.0,PORTOLA VALLEY,2850,27900,1931,27,772,,Sold,,,http://www.redfin.com/CA/Portola-Valley/15-Leroy-Ave-94028/home/2052547,MLSListings,ML81690680,N,Y,37.3847817,-122.238955
PAST SALE,February-16-2018,Single Family Residential,1900 Willow Rd,HILLSBOROUGH,CA,94010,7900000,5,6.0,HILLSBOROUGH,4900,22651,1955,9,1612,,Sold,,,http://www.redfin.com/CA/Hillsborough/1900-Willow-Rd-94010/home/1521605,MLSListings,ML81676565,N,Y,37.5750242,-122.3643736
PAST SALE,February-16-2018,Single Family Residential,31 Center St,REDWOOD CITY,CA,94061,2135000,3,2.0,REDWOOD CITY,1700,9608,1940,9,1256,,Sold,,,http://www.redfin.com/CA/Redwood-City/31-Center-St-94061/home/2046476,MLSListings,ML81674752,N,Y,37.4731688,-122.2183885
PAST SALE,February-22-2018,Single Family Residential,282 Rutherford Ave,REDWOOD CITY,CA,94061,1310000,2,1.0,REDWOOD CITY,1030,5100,1948,3,1272,,Sold,,,http://www.redfin.com/CA/Redwood-City/282-Rutherford-Ave-94061/home/1959379,MLSListings,ML81689415,N,Y,37.4557367,-122.2241132
PAST SALE,February-23-2018,Single Family Residential,1017 Beech St,EAST PALO ALTO,CA,94303,950000,2,1.0,EAST PALO ALTO,1740,5750,1951,2,546,,Sold,,,http://www.redfin.com/CA/East-Palo-Alto/1017-Beech-St-94303/home/865049,MLSListings,ML81688511,N,Y,37.4653154,-122.1320935
PAST SALE,February-7-2018,Condo/Co-op,98 Pelican Ln,REDWOOD CITY,CA,94065,930000,2,1.0,REDWOOD CITY,1063,401895,1985,18,875,518,Sold,,,http://www.redfin.com/CA/Redwood-City/98-Pelican-Ln-94065/unit-82160/home/1545162,MLSListings,ML81688602,N,Y,37.531176,-122.255853
PAST SALE,February-8-2018,Townhouse,28 Admiralty Pl,Redwood Shores,CA,94065,1675000,3,2.5,Redwood Shores,1740,3136,1977,17,963,315,Sold,,,http://www.redfin.com/CA/Redwood-City/28-Admiralty-Pl-94065/home/1408873,MLSListings,ML81690034,N,Y,37.532798,-122.247861
PAST SALE,February-9-2018,Single Family Residential,1040 Cherry St,SAN CARLOS,CA,94070,1508000,3,2.0,SAN CARLOS,1130,5000,1946,16,1335,,Sold,,,http://www.redfin.com/CA/San-Carlos/1040-Cherry-St-94070/home/2056300,MLSListings,ML81688096,N,Y,37.5073902,-122.257788
PAST SALE,February-16-2018,Condo/Co-op,844 Boardwalk Pl #322,REDWOOD CITY,CA,94065,920000,2,2.0,REDWOOD CITY,850,225166,1987,9,1082,484,Sold,,,http://www.redfin.com/CA/Redwood-City/844-Boardwalk-Pl-94065/unit-322/home/1491659,MLSListings,ML81688247,N,Y,37.537142,-122.250812
PAST SALE,February-23-2018,Single Family Residential,89 Waterside Cir,Redwood Shores,CA,94065,1825000,4,3.5,Redwood Shores,2342,3980,1988,2,779,299,Sold,,,http://www.redfin.com/CA/Redwood-City/89-Waterside-Cir-94065/home/943079,MLSListings,ML81688738,N,Y,37.534608,-122.2380243
PAST SALE,February-22-2018,Condo/Co-op,526 Shorebird Cir #16103,Redwood Shores,CA,94065,1200000,2,2.5,Redwood Shores,1300,324407,1980,3,923,515,Sold,,,http://www.redfin.com/CA/Redwood-City/526-Shorebird-Cir-94065/unit-16103/home/1428254,MLSListings,ML81688759,N,Y,37.5324274,-122.2548258
PAST SALE,February-13-2018,Single Family Residential,58 Winchester Dr,ATHERTON,CA,94027,8500000,5,5.5,ATHERTON,5445,24600,1925,12,1561,,Sold,,,http://www.redfin.com/CA/Atherton/58-Winchester-Dr-94027/home/1016387,MLSListings,ML81690134,N,Y,37.4593876,-122.1994378
PAST SALE,February-13-2018,Single Family Residential,339 Wayside Rd,PORTOLA VALLEY,CA,94028,740000,1,1.0,PORTOLA VALLEY,510,11021,1935,12,1451,,Sold,,,http://www.redfin.com/CA/Portola-Valley/339-Wayside-Rd-94028/home/1479919,MLSListings,ML81650457,N,Y,37.3802506,-122.2390771
PAST SALE,February-12-2018,Single Family Residential,272 Greenoaks Dr,ATHERTON,CA,94027,4550000,5,3.0,ATHERTON,2669,40964,1952,13,1705,,Sold,,,http://www.redfin.com/CA/Atherton/272-Greenoaks-Dr-94027/home/1761621,MLSListings,ML81689722,N,Y,37.4747496,-122.1744696
PAST SALE,February-6-2018,Single Family Residential,960 La Senda Rd,HILLSBOROUGH,CA,94010,3000000,3,3.0,HILLSBOROUGH,3060,47568,1950,19,980,,Sold,,,http://www.redfin.com/CA/Hillsborough/960-La-Senda-Rd-94010/home/2053145,MLSListings,ML81684466,N,Y,37.5500412,-122.3474951
PAST SALE,February-20-2018,Multi-Family (5+ Unit),619 N San Mateo Dr,SAN MATEO,CA,94401,10325000,5,,SAN MATEO,27223,12375,1961,5,379,,Sold,,,http://www.redfin.com/CA/San-Mateo/619-N-San-Mateo-Dr-94401/home/1292961,MLSListings,ML81688407,N,Y,37.5745927,-122.3357727
PAST SALE,February-2-2018,Single Family Residential,216 W Santa Inez Ave,HILLSBOROUGH,CA,94010,5229625,5,5.0,HILLSBOROUGH,4970,25200,1918,23,1052,,Sold,,,http://www.redfin.com/CA/Hillsborough/216-W-Santa-Inez-Ave-94010/home/1339774,MLSListings,ML81690426,N,Y,37.5669599,-122.3383188
PAST SALE,February-21-2018,Single Family Residential,36 Ludina Way,REDWOOD CITY,CA,94061,1780000,3,3.5,REDWOOD CITY,2053,2089,2013,4,867,94,Sold,,,http://www.redfin.com/CA/Redwood-City/36-Ludina-Way-94061/home/40531863,MLSListings,ML81689184,N,Y,37.4643599,-122.2269943
PAST SALE,February-9-2018,Single Family Residential,1612 Ralston Ave,BURLINGAME,CA,94010,3434343,4,3.0,BURLINGAME,2750,8050,1921,16,1249,,Sold,,,http://www.redfin.com/CA/Burlingame/1612-Ralston-Ave-94010/home/684274,MLSListings,ML81688757,Y,Y,37.5737746,-122.3513396
PAST SALE,January-31-2018,Single Family Residential,18 Los Cerros Rd,REDWOOD CITY,CA,94062,2195000,3,2.5,REDWOOD CITY,3050,30400,1986,25,720,,Sold,,,http://www.redfin.com/CA/Redwood-City/18-Los-Cerros-Rd-94062/home/1735071,MLSListings,ML81684430,N,Y,37.4817814,-122.270462
PAST SALE,January-31-2018,Single Family Residential,140 Forest Ln,MENLO PARK,CA,94025,1900000,3,2.5,MENLO PARK,2330,1742,1965,25,815,185,Sold,,,http://www.redfin.com/CA/Menlo-Park/140-Forest-Ln-94025/home/2044551,MLSListings,ML81673235,N,Y,37.459947,-122.192033
PAST SALE,February-16-2018,Single Family Residential,6 TUSCALOOSA Ave,ATHERTON,CA,94027,3490000,4,4.5,ATHERTON,4250,17000,1988,9,821,,Sold,,,http://www.redfin.com/CA/Atherton/6-Tuscaloosa-Ave-94027/home/887835,MLSListings,ML81690943,N,Y,37.4630224,-122.2029845
PAST SALE,February-21-2018,Single Family Residential,243 Oakhurst Pl,MENLO PARK,CA,94025,2450000,3,2.0,MENLO PARK,1570,6600,1948,4,1561,,Sold,,,http://www.redfin.com/CA/Menlo-Park/243-Oakhurst-Pl-94025/home/1462313,MLSListings,ML81691080,N,Y,37.4776263,-122.1727383
PAST SALE,February-23-2018,Single Family Residential,3338 Page St,REDWOOD CITY,CA,94063,1415000,3,2.5,REDWOOD CITY,1855,6950,1947,2,763,,Sold,,,http://www.redfin.com/CA/Redwood-City/3338-Page-St-94063/home/1249410,MLSListings,ML81688966,N,Y,37.481903,-122.1939535
PAST SALE,February-2-2018,Single Family Residential,718 15th Ave,MENLO PARK,CA,94025,1150000,2,1.0,MENLO PARK,830,5350,1945,23,1386,,Sold,,,http://www.redfin.com/CA/Menlo-Park/718-Fifteenth-Ave-94025/home/847794,MLSListings,ML81690986,N,Y,37.4749114,-122.1916106
PAST SALE,February-22-2018,Single Family Residential,1014 Fiesta Dr,SAN MATEO,CA,94403,1570000,3,2.0,SAN MATEO,1280,5000,1954,3,1227,30,Sold,,,http://www.redfin.com/CA/San-Mateo/1014-Fiesta-Dr-94403/home/723951,MLSListings,ML81680484,N,Y,37.5491335,-122.298859
PAST SALE,February-6-2018,Single Family Residential,1504 Roberta Dr,SAN MATEO,CA,94403,1360000,3,2.0,SAN MATEO,1220,5000,1956,19,1115,,Sold,,,http://www.redfin.com/CA/San-Mateo/1504-Roberta-Dr-94403/home/724098,MLSListings,ML81688659,N,Y,37.5566041,-122.2938536
PAST SALE,February-8-2018,Single Family Residential,1000 Palm Ave,SAN MATEO,CA,94401,1850000,3,2.0,SAN MATEO,1770,6240,1928,17,1045,,Sold,,,http://www.redfin.com/CA/San-Mateo/1000-Palm-Ave-94401/home/1256716,MLSListings,ML81689919,N,Y,37.5580536,-122.3182143
PAST SALE,February-16-2018,Single Family Residential,1822 Adams St,SAN MATEO,CA,94403,1320000,3,3.0,SAN MATEO,1850,10710,1954,9,714,,Sold,,,http://www.redfin.com/CA/San-Mateo/1822-Adams-St-94403/home/1751842,MLSListings,ML81689491,N,Y,37.5544992,-122.2948724
PAST SALE,February-2-2018,Single Family Residential,1531 Dix St,SAN MATEO,CA,94401,1150000,3,2.0,SAN MATEO,1400,5000,1954,23,821,,Sold,,,http://www.redfin.com/CA/San-Mateo/1531-Dix-St-94401/home/2044177,MLSListings,ML81683081,N,Y,37.5627996,-122.3013396
PAST SALE,February-23-2018,Single Family Residential,472 Gymkhana Rd,SAN MATEO,CA,94403,1650000,3,2.0,SAN MATEO,1840,5940,1957,2,897,,Sold,,,http://www.redfin.com/CA/San-Mateo/472-Gymkhana-Rd-94403/home/735693,MLSListings,ML81688758,N,Y,37.5473393,-122.3188557
PAST SALE,January-31-2018,Single Family Residential,1715 Borden St,SAN MATEO,CA,94403,1150000,3,2.0,SAN MATEO,1400,5000,1956,25,821,,Sold,,,http://www.redfin.com/CA/San-Mateo/1715-Borden-St-94403/home/1724824,MLSListings,ML81686093,N,Y,37.5606431,-122.2937207
PAST SALE,February-14-2018,Single Family Residential,25 Sunnydale Ave,SAN CARLOS,CA,94070,2225000,3,2.5,SAN CARLOS,1930,5000,1948,11,1153,,Sold,,,http://www.redfin.com/CA/San-Carlos/25-Sunnydale-Ave-94070/home/1856843,MLSListings,ML81688291,N,Y,37.4927082,-122.2469472
PAST SALE,February-16-2018,Single Family Residential,125 Belvedere Ave,SAN CARLOS,CA,94070,3000331,4,3.0,SAN CARLOS,2323,4600,1946,9,1292,,Sold,,,http://www.redfin.com/CA/San-Carlos/125-Belvedere-Ave-94070/home/1709401,MLSListings,ML81690231,N,Y,37.4942819,-122.251545
PAST SALE,February-16-2018,Single Family Residential,1052 Lupin Way,SAN CARLOS,CA,94070,1610000,3,1.0,SAN CARLOS,1120,5500,1948,9,1438,,Sold,,,http://www.redfin.com/CA/San-Carlos/1052-Lupin-Way-94070/home/1110269,MLSListings,ML81689518,N,Y,37.492866,-122.264856
PAST SALE,February-15-2018,Single Family Residential,190 Wilshire Ct,SAN CARLOS,CA,94070,1850000,2,2.0,SAN CARLOS,1820,6500,1974,10,1016,,Sold,,,http://www.redfin.com/CA/San-Carlos/190-Wilshire-Ct-94070/home/1553287,MLSListings,ML81690508,N,Y,37.4899775,-122.2703291
PAST SALE,January-26-2018,Single Family Residential,1627 Chestnut St,SAN CARLOS,CA,94070,2600000,3,2.0,SAN CARLOS,2150,5650,1951,30,1209,,Sold,,,http://www.redfin.com/CA/San-Carlos/1627-Chestnut-St-94070/home/805946,MLSListings,ML81688795,N,Y,37.4918336,-122.251231
PAST SALE,February-8-2018,Single Family Residential,712 Tamarack Ave,SAN CARLOS,CA,94070,1850000,4,2.0,SAN CARLOS,1680,7497,1939,17,1101,,Sold,,,http://www.redfin.com/CA/San-Carlos/712-Tamarack-Ave-94070/home/1284893,MLSListings,ML81685800,N,Y,37.5001594,-122.2689556
PAST SALE,February-14-2018,Single Family Residential,165 Glasgow Ln,SAN CARLOS,CA,94070,2900000,4,3.0,SAN CARLOS,2800,7823,1993,11,1036,,Sold,,,http://www.redfin.com/CA/San-Carlos/165-Glasgow-Ln-94070/home/2055214,MLSListings,ML81690221,N,Y,37.4955749,-122.2719684
PAST SALE,January-30-2018,Single Family Residential,104 Wellesley Cres,REDWOOD CITY,CA,94062,2350000,4,2.5,REDWOOD CITY,2200,8732,1918,26,1068,,Sold,,,http://www.redfin.com/CA/Redwood-City/104-Wellesley-Cres-94062/home/1406391,MLSListings,ML81690124,N,Y,37.4910015,-122.2430324
PAST SALE,February-16-2018,Condo/Co-op,641 Cedar St #301,SAN CARLOS,CA,94070,1525000,3,2.0,SAN CARLOS,1841,11457,2009,9,828,451,Sold,,,http://www.redfin.com/CA/San-Carlos/641-Cedar-St-94070/unit-301/home/28454067,MLSListings,ML81692906,N,Y,37.5032244,-122.2637493
PAST SALE,February-6-2018,Single Family Residential,308 Princeton Rd,MENLO PARK,CA,94025,3100000,4,2.0,MENLO PARK,1610,7500,1941,19,1925,,Sold,,,http://www.redfin.com/CA/Menlo-Park/308-Princeton-Rd-94025/home/1324823,MLSListings,ML81686949,N,Y,37.4437992,-122.1798488
PAST SALE,February-8-2018,Condo/Co-op,21 Willow Rd #25,MENLO PARK,CA,94025,1265000,2,2.0,MENLO PARK,1167,90377,1976,17,1084,460,Sold,,,http://www.redfin.com/CA/Menlo-Park/21-Willow-Rd-94025/unit-25/home/987523,MLSListings,ML81688741,N,Y,37.449976,-122.172932
PAST SALE,January-31-2018,Single Family Residential,333 Yale Rd,MENLO PARK,CA,94025,3000000,2,2.0,MENLO PARK,1530,7800,1941,25,1961,,Sold,,,http://www.redfin.com/CA/Menlo-Park/333-Yale-Rd-94025/home/1701027,MLSListings,ML81689829,N,Y,37.4444671,-122.1799043
PAST SALE,February-9-2018,Single Family Residential,359 D St,REDWOOD CITY,CA,94063,1100000,2,1.0,REDWOOD CITY,740,5400,1942,16,1486,,Sold,,,http://www.redfin.com/CA/Redwood-City/359-D-St-94063/home/1332814,MLSListings,ML81688237,N,Y,37.4955867,-122.2385765
PAST SALE,February-12-2018,Single Family Residential,18 Elwood St,REDWOOD CITY,CA,94062,3356000,5,4.5,REDWOOD CITY,3011,9100,2018,13,1115,,Sold,,,http://www.redfin.com/CA/Redwood-City/18-Elwood-St-94062/home/1014906,MLSListings,ML81690218,N,Y,37.4868029,-122.2437275
PAST SALE,February-22-2018,Single Family Residential,216 Harrison Ave,REDWOOD CITY,CA,94062,1308000,2,1.0,REDWOOD CITY,900,5500,1940,3,1453,,Sold,,,http://www.redfin.com/CA/Redwood-City/216-Harrison-Ave-94062/home/1406560,MLSListings,ML81690114,N,Y,37.4823584,-122.2329072
PAST SALE,January-31-2018,Single Family Residential,2359 Palo Verde Ave,EAST PALO ALTO,CA,94303,1250000,3,3.0,EAST PALO ALTO,1913,6350,1952,25,653,,Sold,,,http://www.redfin.com/CA/East-Palo-Alto/2359-Palo-Verde-Ave-94303/home/2037597,MLSListings,ML81688313,N,Y,37.4693728,-122.1449507
PAST SALE,February-13-2018,Single Family Residential,315 Trenton Way,MENLO PARK,CA,94025,3000000,3,2.0,MENLO PARK,1650,6405,1951,12,1818,,Sold,,,http://www.redfin.com/CA/Menlo-Park/315-Trenton-Way-94025/home/1678145,MLSListings,ML81689413,N,Y,37.4552681,-122.1585279
PAST SALE,January-26-2018,Single Family Residential,2298 Ralmar Ave,EAST PALO ALTO,CA,94303,850000,3,1.0,EAST PALO ALTO,1200,6050,1953,30,708,,Sold,,,http://www.redfin.com/CA/East-Palo-Alto/2298-Ralmar-Ave-94303/home/2037643,MLSListings,ML81685698,N,Y,37.4703385,-122.1481045
PAST SALE,February-8-2018,Condo/Co-op,1 Laurel St #100,SAN CARLOS,CA,94070,901000,2,2.0,SAN CARLOS,1030,37586,1981,17,875,440,Sold,,,http://www.redfin.com/CA/San-Carlos/1-Laurel-St-94070/unit-100/home/986857,MLSListings,ML81688112,N,Y,37.5129194,-122.2687776
PAST SALE,,Single Family Residential,941 Sunset Dr,San Carlos,CA,94070,1290000,3,2.0,,1880,11930,1961,,686,,,,,http://www.redfin.com/CA/San-Carlos/941-Sunset-Dr-94070/home/1677136,,,N,Y,37.4907153,-122.2686454
PAST SALE,February-13-2018,Single Family Residential,1022 Alameda,SAN CARLOS,CA,94070,1630000,3,2.0,SAN CARLOS,1330,6144,1952,12,1226,,Sold,,,http://www.redfin.com/CA/San-Carlos/1022-Alameda-de-las-Pulgas-94070/home/2042961,MLSListings,ML81689651,N,Y,37.4914106,-122.2661198
PAST SALE,February-20-2018,Condo/Co-op,618 Walnut St #301,SAN CARLOS,CA,94070,1250000,2,2.0,SAN CARLOS,1258,58798,2003,5,994,475,Sold,,,http://www.redfin.com/CA/San-Carlos/618-Walnut-St-94070/unit-301/home/2054813,MLSListings,ML81689525,N,Y,37.5051622,-122.2619326
PAST SALE,February-6-2018,Single Family Residential,224 Atherton Ave,ATHERTON,CA,94027,11000000,5,5.0,ATHERTON,4270,46458,1953,19,2576,,Sold,,,http://www.redfin.com/CA/Atherton/224-Atherton-Ave-94027/home/1904911,MLSListings,ML81688261,N,Y,37.4478511,-122.2112881
PAST SALE,February-20-2018,Single Family Residential,12 Sunset Ln,MENLO PARK,CA,94025,3525000,4,2.5,MENLO PARK,2720,13420,1963,5,1296,,Sold,,,http://www.redfin.com/CA/Menlo-Park/12-Sunset-Ln-94025/home/2043254,MLSListings,ML81691241,N,Y,37.4231373,-122.2071758
PAST SALE,February-19-2018,Single Family Residential,1959 Camino a los Cerros,MENLO PARK,CA,94025,4075000,3,3.0,MENLO PARK,2700,11445,2012,6,1509,,Sold,,,http://www.redfin.com/CA/Menlo-Park/1959-Camino-A-Los-Cerros-94025/home/883900,MLSListings,ML81689729,N,Y,37.4381119,-122.208169
PAST SALE,February-20-2018,Single Family Residential,3015 Oak Knoll Dr,REDWOOD CITY,CA,94062,2090000,4,2.5,REDWOOD CITY,2758,7500,1996,5,758,,Sold,,,http://www.redfin.com/CA/Redwood-City/3015-Oak-Knoll-Dr-94062/home/1478738,MLSListings,ML81687880,N,Y,37.4763185,-122.2549332
PAST SALE,January-31-2018,Single Family Residential,3515 Highland Ave,REDWOOD CITY,CA,94062,1535000,3,2.0,REDWOOD CITY,1440,8000,1961,25,1066,,Sold,,,http://www.redfin.com/CA/Redwood-City/3515-Highland-Ave-94062/home/1407255,MLSListings,ML81685198,N,Y,37.4683001,-122.2510981
PAST SALE,February-20-2018,Townhouse,809 Volans Ln,FOSTER CITY,CA,94404,1200000,2,2.5,FOSTER CITY,1546,49749,1978,5,776,453,Sold,,,http://www.redfin.com/CA/Foster-City/809-Volans-Ln-94404/unit-13/home/1400875,MLSListings,ML81690301,N,Y,37.547612,-122.27305
PAST SALE,February-9-2018,Single Family Residential,71 Lake Vista Ave,DALY CITY,CA,94015,1450000,2,1.5,DALY CITY,1640,3400,1950,16,884,,Sold,,,http://www.redfin.com/CA/Daly-City/71-Lake-Vista-Ave-94015/home/1924003,MLSListings,ML81690387,N,Y,37.704009,-122.478475
PAST SALE,February-16-2018,Single Family Residential,155 Cherokee Way,PORTOLA VALLEY,CA,94028,3450000,4,3.0,PORTOLA VALLEY,2340,43777,1966,9,1474,,Sold,,,http://www.redfin.com/CA/Portola-Valley/155-Cherokee-Way-94028/home/904927,MLSListings,ML81681715,N,Y,37.3818996,-122.2136907
PAST SALE,February-1-2018,Single Family Residential,30 Shoshone Pl,PORTOLA VALLEY,CA,94028,4461000,4,3.5,PORTOLA VALLEY,2660,44867,1959,24,1677,,Sold,,,http://www.redfin.com/CA/Portola-Valley/30-Shoshone-Pl-94028/home/1898884,MLSListings,ML81684390,N,Y,37.3829306,-122.2183663
PAST SALE,February-21-2018,Condo/Co-op,55 W 20th Ave #208,SAN MATEO,CA,94403,925000,2,2.0,SAN MATEO,1213,122501,1982,4,763,500,Sold,,,http://www.redfin.com/CA/San-Mateo/55-W-20th-Ave-94403/unit-208/home/1804281,MLSListings,ML81688693,N,Y,37.5469719,-122.31114
PAST SALE,February-21-2018,Condo/Co-op,2351 Vista Del Mar,SAN MATEO,CA,94404,777000,1,1.0,SAN MATEO,1011,99228,1986,4,769,567,Sold,,,http://www.redfin.com/CA/San-Mateo/2351-Vista-Del-Mar-94404/home/1318977,MLSListings,ML81689543,N,Y,37.554285,-122.284621
PAST SALE,February-1-2018,Condo/Co-op,225 9th Ave #325,SAN MATEO,CA,94401,1360000,2,2.0,SAN MATEO,1693,51834,2006,24,803,672,Sold,,,http://www.redfin.com/CA/San-Mateo/225-9th-Ave-94401/unit-325/home/28511496,MLSListings,ML81689218,N,Y,37.561423,-122.318594
PAST SALE,February-1-2018,Single Family Residential,2001 Willow Way,SAN BRUNO,CA,94066,1450000,4,2.0,SAN BRUNO,1590,5940,1958,24,912,,Sold,,,http://www.redfin.com/CA/San-Bruno/2001-Willow-Way-94066/home/2053945,MLSListings,ML81688907,N,Y,37.6308736,-122.4507681
PAST SALE,February-9-2018,Single Family Residential,2610 Tipperary Ave,SOUTH SAN FRANCISCO,CA,94080,1110000,4,2.0,SOUTH SAN FRANCISCO,1500,5000,1963,16,740,,Sold,,,http://www.redfin.com/CA/South-San-Francisco/2610-Tipperary-Ave-94080/home/2009677,MLSListings,ML81688466,N,Y,37.6370002,-122.4502845
PAST SALE,February-22-2018,Single Family Residential,370 Guttenberg St,San Francisco,CA,94112,1350000,4,4.0,Crocker Amazon,1826,2500,1951,3,739,,Sold,,,http://www.redfin.com/CA/San-Francisco/370-Guttenberg-St-94112/home/1133503,San Francisco MLS,466266,N,Y,37.7083901,-122.4423778
PAST SALE,February-9-2018,Single Family Residential,1130 Vista Grande,MILLBRAE,CA,94030,1700000,3,2.0,MILLBRAE,1690,6120,1951,16,1006,,Sold,,,http://www.redfin.com/CA/Millbrae/1130-Vista-Grande-94030/home/667261,MLSListings,ML81689556,N,Y,37.5934938,-122.4073268
PAST SALE,February-9-2018,Condo/Co-op,626 Mariners Island Blvd #116,SAN MATEO,CA,94404,555000,0,1.0,SAN MATEO,519,26778,1968,16,1069,288,Sold,,,http://www.redfin.com/CA/San-Mateo/Undisclosed-address-94404/home/970172,MLSListings,ML81690241,N,Y,37.564769,-122.2849159
PAST SALE,February-14-2018,Townhouse,647 Stonegate Dr,SOUTH SAN FRANCISCO,CA,94080,840000,2,1.5,SOUTH SAN FRANCISCO,1489,3395,1981,11,564,365,Sold,,,http://www.redfin.com/CA/South-San-Francisco/647-Stonegate-Dr-94080/unit-44/home/1865990,MLSListings,ML81688607,N,Y,37.6648096,-122.4246431
PAST SALE,February-5-2018,Single Family Residential,860 3rd Ave,SAN BRUNO,CA,94066,880000,2,2.0,SAN BRUNO,1220,3100,1939,20,721,,Sold,,,http://www.redfin.com/CA/San-Bruno/860-3rd-Ave-94066/home/1940822,MLSListings,ML81688118,N,Y,37.632035,-122.4092737
PAST SALE,February-20-2018,Single Family Residential,741 4th Ave,SAN BRUNO,CA,94066,760000,2,1.0,SAN BRUNO,800,2500,1954,5,950,,Sold,,,http://www.redfin.com/CA/San-Bruno/741-4th-Ave-94066/home/1413678,MLSListings,ML81684391,N,Y,37.6298689,-122.4084333
PAST SALE,February-6-2018,Single Family Residential,909 6th Ave,SAN BRUNO,CA,94066,699000,4,1.5,SAN BRUNO,1020,5000,1935,19,685,,Sold,,,http://www.redfin.com/CA/San-Bruno/909-6th-Ave-94066/home/1303697,MLSListings,ML81687948,N,Y,37.633148,-122.4071055
PAST SALE,February-20-2018,Single Family Residential,2421 Fleetwood Dr,SAN BRUNO,CA,94066,1280000,4,2.0,SAN BRUNO,1522,4851,1955,5,841,,Sold,,,http://www.redfin.com/CA/San-Bruno/2421-Fleetwood-Dr-94066/home/1923638,MLSListings,ML81688772,N,Y,37.6294177,-122.4413493
PAST SALE,February-9-2018,Single Family Residential,346 Evergreen Dr,SOUTH SAN FRANCISCO,CA,94080,1150000,4,2.0,SOUTH SAN FRANCISCO,1670,4500,1955,16,689,,Sold,,,http://www.redfin.com/CA/South-San-Francisco/346-Evergreen-Dr-94080/home/600496,MLSListings,ML81688671,N,Y,37.6676906,-122.4382528
PAST SALE,February-15-2018,Single Family Residential,509 W Oak Ave,SAN BRUNO,CA,94066,1099000,3,2.0,SAN BRUNO,1690,5000,1939,10,650,,Sold,,,http://www.redfin.com/CA/San-Bruno/509-Oak-Ave-94066/home/1951055,MLSListings,ML81686778,N,Y,37.6208807,-122.4183886
PAST SALE,January-29-2018,Condo/Co-op,1396 El Camino Real #110,MILLBRAE,CA,94030,730000,2,2.0,MILLBRAE,926,37089,1980,27,788,418,Sold,,,http://www.redfin.com/CA/Millbrae/1396-El-Camino-Real-94030/unit-110/home/2038140,MLSListings,ML81685899,N,Y,37.6107404,-122.4012865
PAST SALE,February-9-2018,Single Family Residential,500 Lynbrook Dr,Pacifica,CA,94044,1006000,3,2.0,Pacifica,1310,4100,1964,16,768,,Sold,,,http://www.redfin.com/CA/Pacifica/500-Lynbrook-Dr-94044/home/1673680,San Francisco MLS,465803,N,Y,37.6542754,-122.4758031
PAST SALE,February-16-2018,Single Family Residential,88 Weston Dr,DALY CITY,CA,94015,1535000,3,2.5,DALY CITY,2170,3400,1953,9,707,,Sold,,,http://www.redfin.com/CA/Daly-City/88-Weston-Dr-94015/home/1412004,MLSListings,ML81689224,N,Y,37.7020905,-122.4922077
PAST SALE,January-29-2018,Single Family Residential,1211 Cobb St,San Mateo,CA,94401,998000,3,1.0,San Mateo,1000,5000,1953,27,998,,Sold,,,http://www.redfin.com/CA/San-Mateo/1211-Cobb-St-94401/home/1395980,EBRD/CCAR/Bay East,40806360,N,Y,37.56408,-122.3039972
PAST SALE,February-7-2018,Single Family Residential,15 3rd Ave,DALY CITY,CA,94014,1180000,4,2.0,DALY CITY,1770,2548,1976,18,667,,Sold,,,http://www.redfin.com/CA/Daly-City/15-3rd-Ave-94014/home/1263880,MLSListings,ML81685301,N,Y,37.6927331,-122.4623591
PAST SALE,January-31-2018,Single Family Residential,547 San Diego Ave,Daly City,CA,94014,962000,3,1.0,Daly City,1100,2925,1963,25,875,,Sold,,,http://www.redfin.com/CA/Daly-City/547-San-Diego-Ave-94014/home/547755,EBRD/CCAR/Bay East,40806177,N,Y,37.7004032,-122.4657651
PAST SALE,February-21-2018,Single Family Residential,3649 Oso St,SAN MATEO,CA,94403,1498000,3,1.0,SAN MATEO,1080,5000,1951,4,1387,,Sold,,,http://www.redfin.com/CA/San-Mateo/3649-Oso-St-94403/home/1967019,MLSListings,ML81689237,N,Y,37.5358386,-122.2922146
PAST SALE,February-13-2018,Condo/Co-op,615 Port Dr #308,SAN MATEO,CA,94404,644000,1,1.0,SAN MATEO,836,28484,1982,12,770,552,Sold,,,http://www.redfin.com/CA/San-Mateo/615-Port-Dr-94404/unit-308/home/1730043,MLSListings,ML81689555,N,Y,37.5692974,-122.2891604
PAST SALE,February-9-2018,Single Family Residential,148 Monterey St,BRISBANE,CA,94005,805000,2,1.0,BRISBANE,900,2500,1935,16,894,,Sold,,,http://www.redfin.com/CA/Brisbane/148-Monterey-St-94005/home/567935,MLSListings,ML81687015,N,Y,37.6837103,-122.4004568
PAST SALE,February-2-2018,Multi-Family (5+ Unit),21 Alvarado St,BRISBANE,CA,94005,3150000,1,,BRISBANE,6930,10500,1972,23,455,,Sold,,,http://www.redfin.com/CA/Brisbane/21-Alvarado-St-94005/unit-5/home/568428,MLSListings,ML81688572,N,Y,37.6843539,-122.3996049
PAST SALE,February-23-2018,Condo/Co-op,405 91st St #20,DALY CITY,CA,94015,635000,2,1.0,DALY CITY,1054,29914,1981,2,602,351,Sold,,,http://www.redfin.com/CA/Daly-City/405-91st-St-94015/unit-20/home/1137245,MLSListings,ML81690145,N,Y,37.6900424,-122.4748718
PAST SALE,February-16-2018,Single Family Residential,1151 Rosita Rd,PACIFICA,CA,94044,1035000,4,2.0,PACIFICA,1400,5500,1954,9,739,,Sold,,,http://www.redfin.com/CA/Pacifica/1151-Rosita-Rd-94044/home/1531532,MLSListings,ML81688106,N,Y,37.5832349,-122.4909698
PAST SALE,January-31-2018,Single Family Residential,1147 Crespi Dr,PACIFICA,CA,94044,850000,3,1.0,PACIFICA,1045,8820,1958,25,813,,Sold,,,http://www.redfin.com/CA/Pacifica/1147-Crespi-Dr-94044/home/1606232,MLSListings,ML81685468,N,Y,37.5895899,-122.4876536
PAST SALE,February-1-2018,Single Family Residential,1330 Lerida Way,PACIFICA,CA,94044,1090000,3,2.0,PACIFICA,1110,5300,1965,24,982,,Sold,,,http://www.redfin.com/CA/Pacifica/1330-Lerida-Way-94044/home/1748214,MLSListings,ML81687617,N,Y,37.5898485,-122.4797829
PAST SALE,January-31-2018,Multi-Family (2-4 Unit),149 Scott St,SAN BRUNO,CA,94066,950000,4,,SAN BRUNO,1796,2500,1946,25,529,,Sold,,,http://www.redfin.com/CA/San-Bruno/149-Scott-St-94066/home/2035732,MLSListings,ML81687004,N,Y,37.6370941,-122.4121328
PAST SALE,February-23-2018,Single Family Residential,128 Madrone Ave,SOUTH SAN FRANCISCO,CA,94080,900000,3,2.0,SOUTH SAN FRANCISCO,1320,2500,1923,2,682,,Sold,,,http://www.redfin.com/CA/South-San-Francisco/128-Madrone-Ave-94080/home/1475332,MLSListings,ML81690200,N,Y,37.6640709,-122.4021607
PAST SALE,February-5-2018,Single Family Residential,701 Spruce Ave,SOUTH SAN FRANCISCO,CA,94080,1420000,4,3.0,SOUTH SAN FRANCISCO,1995,39900,1951,20,712,,Sold,,,http://www.redfin.com/CA/South-San-Francisco/701-Spruce-Ave-94080/home/604776,MLSListings,ML81688035,N,Y,37.661329,-122.4118512
PAST SALE,February-9-2018,Single Family Residential,532 Inverness Dr,Pacifica,CA,94044,850000,5,2.0,Pacifica,2162,5000,1955,16,393,,Sold,,,http://www.redfin.com/CA/Pacifica/532-Inverness-Dr-94044/home/1945476,San Francisco MLS,464120,N,Y,37.6472728,-122.4746976
PAST SALE,,Condo/Co-op,6146 Shelter Creek Ln,San Bruno,CA,94066,335000,0,1.0,,490,,1972,,684,,,,,http://www.redfin.com/CA/San-Bruno/6146-Shelter-Creek-Ln-94066/home/2017981,,,N,Y,37.619779,-122.4283995
PAST SALE,February-22-2018,Single Family Residential,1062 Orange Ave,SAN CARLOS,CA,94070,1850000,4,2.5,SAN CARLOS,2368,9000,1951,3,781,,Sold,,,http://www.redfin.com/CA/San-Carlos/1062-Orange-Ave-94070/home/1952376,MLSListings,ML81686137,N,Y,37.4957905,-122.2596062
PAST SALE,February-16-2018,Single Family Residential,415 Olive St,MENLO PARK,CA,94025,5555250,4,5.0,MENLO PARK,5142,12100,2017,9,1080,,Sold,,,http://www.redfin.com/CA/Menlo-Park/415-Olive-St-94025/home/888804,MLSListings,ML81684457,N,Y,37.4364894,-122.1879205
PAST SALE,February-23-2018,Single Family Residential,2138 Oakley Ave,MENLO PARK,CA,94025,2900000,3,2.0,MENLO PARK,1650,6000,1920,2,1758,,Sold,,,http://www.redfin.com/CA/Menlo-Park/2138-Oakley-Ave-94025/home/894621,MLSListings,ML81690077,Y,Y,37.432559,-122.204958
PAST SALE,February-23-2018,Single Family Residential,1846 Valparaiso Ave,MENLO PARK,CA,94025,3710000,4,3.0,MENLO PARK,3490,12319,1941,2,1063,,Sold,,,http://www.redfin.com/CA/Menlo-Park/1846-Valparaiso-Ave-94025/home/883987,MLSListings,ML81689939,N,Y,37.4384602,-122.2025822
PAST SALE,February-22-2018,Single Family Residential,1534 White Oak Way,SAN CARLOS,CA,94070,2380000,3,2.0,SAN CARLOS,1980,5750,1950,3,1202,,Sold,,,http://www.redfin.com/CA/San-Carlos/1534-White-Oak-Way-94070/home/2054297,MLSListings,ML81689450,N,Y,37.4939384,-122.2513035
PAST SALE,February-8-2018,Condo/Co-op,1031 Cherry Ave #27,SAN BRUNO,CA,94066,700000,2,2.0,SAN BRUNO,1070,176288,1979,17,654,362,Sold,,,http://www.redfin.com/CA/San-Bruno/1031-Cherry-Ave-94066/unit-27/home/1662283,MLSListings,ML81691892,N,Y,37.630209,-122.428338
PAST SALE,February-7-2018,Condo/Co-op,395 Imperial Way #218,DALY CITY,CA,94015,535000,2,2.0,DALY CITY,847,1057906,1974,18,632,368,Sold,,,http://www.redfin.com/CA/Daly-City/395-Imperial-Way-94015/unit-218/home/954265,MLSListings,ML81688439,N,Y,37.6640368,-122.4628771
PAST SALE,February-1-2018,Condo/Co-op,395 Imperial Way #146,DALY CITY,CA,94015,315000,0,1.0,DALY CITY,483,1057906,1974,24,652,333,Sold,,,http://www.redfin.com/CA/Daly-City/395-Imperial-Way-94015/unit-146/home/2051668,MLSListings,ML81687239,N,Y,37.6643854,-122.4628258
PAST SALE,February-2-2018,Single Family Residential,32 Christopher Ct,DALY CITY,CA,94015,1200000,5,3.0,DALY CITY,2100,3400,1961,23,571,,Sold,,,http://www.redfin.com/CA/Daly-City/32-Altamont-Dr-94015/home/578094,MLSListings,ML81687651,N,Y,37.6682765,-122.4828898
PAST SALE,February-8-2018,Single Family Residential,3662 Farm Hill Blvd,REDWOOD CITY,CA,94061,1621000,3,2.5,REDWOOD CITY,1860,7500,1956,17,872,,Sold,,,http://www.redfin.com/CA/Redwood-City/3662-Farm-Hill-Blvd-94061/home/1947478,MLSListings,ML81688092,N,Y,37.4600469,-122.2493642
PAST SALE,February-12-2018,Condo/Co-op,3377 La Selva St,SAN MATEO,CA,94403,820000,3,2.0,SAN MATEO,905,79870,1963,13,906,504,Sold,,,http://www.redfin.com/CA/San-Mateo/3377-La-Selva-St-94403/home/2028232,MLSListings,ML81689098,N,Y,37.5387451,-122.2817654
PAST SALE,February-9-2018,Condo/Co-op,5 Chicory Ln,SAN CARLOS,CA,94070,1515000,2,2.5,SAN CARLOS,1793,341158,1979,16,845,595,Sold,,,http://www.redfin.com/CA/San-Carlos/5-Chicory-Ln-94070/home/2059446,MLSListings,ML81688750,N,Y,37.4947998,-122.297025
PAST SALE,February-20-2018,Townhouse,2840 Saratoga Dr,SAN MATEO,CA,94403,1688888,3,2.5,SAN MATEO,2350,9638,2014,5,719,362,Sold,,,http://www.redfin.com/CA/San-Mateo/2840-Saratoga-Dr-94403/unit-A1/home/109581741,MLSListings,ML81688753,Y,Y,37.546449,-122.296382
PAST SALE,February-5-2018,Condo/Co-op,803 N Humboldt St #308,SAN MATEO,CA,94401,895000,2,2.0,SAN MATEO,1204,1114920,1965,20,743,599,Sold,,,http://www.redfin.com/CA/San-Mateo/803-N-Humboldt-St-94401/unit-308/home/17308792,MLSListings,ML81688701,N,Y,37.5804053,-122.3300815
PAST SALE,February-16-2018,Townhouse,701 WOODSIDE Way Unit B,SAN MATEO,CA,94401,1100000,2,2.5,SAN MATEO,1350,15375,2001,9,815,475,Sold,,,http://www.redfin.com/CA/San-Mateo/701-Woodside-Way-94401/unit-B/home/1861044,MLSListings,ML81690889,N,Y,37.576154,-122.334707
PAST SALE,February-16-2018,Condo/Co-op,818 N Delaware St #208,SAN MATEO,CA,94401,839000,2,1.0,SAN MATEO,974,1114920,1965,9,861,513,Sold,,,http://www.redfin.com/CA/San-Mateo/818-N-Delaware-St-94401/unit-208/home/17308543,MLSListings,ML81688922,N,Y,37.5793669,-122.332522
PAST SALE,February-8-2018,Single Family Residential,1010 Ruby St,REDWOOD CITY,CA,94061,1250000,2,1.0,REDWOOD CITY,1100,5650,1947,17,1136,,Sold,,,http://www.redfin.com/CA/Redwood-City/1010-Ruby-St-94061/home/834666,MLSListings,ML81691914,N,Y,37.4684858,-122.240549
PAST SALE,February-9-2018,Single Family Residential,351 Jeter St,REDWOOD CITY,CA,94062,1800000,3,2.5,REDWOOD CITY,1920,6500,1948,16,938,,Sold,,,http://www.redfin.com/CA/Redwood-City/351-Jeter-St-94062/home/1995561,MLSListings,ML81689623,N,Y,37.4789021,-122.2408467
PAST SALE,February-7-2018,Single Family Residential,2008 REDWOOD Ave,REDWOOD CITY,CA,94061,1580000,3,1.5,REDWOOD CITY,1430,5832,1963,18,1105,,Sold,,,http://www.redfin.com/CA/Redwood-City/2008-Redwood-Ave-94061/home/1979814,MLSListings,ML81688129,N,Y,37.4647272,-122.2375582
PAST SALE,February-8-2018,Single Family Residential,264 Leland Ave,MENLO PARK,CA,94025,4100000,4,3.5,MENLO PARK,2720,7050,2012,17,1507,,Sold,,,http://www.redfin.com/CA/Menlo-Park/264-Leland-Ave-94025/home/896244,MLSListings,ML81689761,Y,Y,37.4294161,-122.1935979
PAST SALE,February-1-2018,Single Family Residential,39 Timberhill Ct,PACIFICA,CA,94044,1575099,5,3.0,PACIFICA,2580,4532,2000,24,611,168,Sold,,,http://www.redfin.com/CA/Pacifica/39-Timberhill-Ct-94044/home/1605416,MLSListings,ML81681262,N,Y,37.6529711,-122.4727705
PAST SALE,February-12-2018,Single Family Residential,1524 Cypress Ave,BURLINGAME,CA,94010,3505000,4,4.0,BURLINGAME,2450,7500,1923,13,1431,,Sold,,,http://www.redfin.com/CA/Burlingame/1524-Cypress-Ave-94010/home/1386264,MLSListings,ML81690306,Y,Y,37.5742651,-122.3459344
PAST SALE,February-5-2018,Single Family Residential,185 Pepper Ave,BURLINGAME,CA,94010,3080000,5,4.0,BURLINGAME,2450,9800,1955,20,1257,,Sold,,,http://www.redfin.com/CA/Burlingame/185-Pepper-Ave-94010/home/683823,MLSListings,ML81688767,Y,Y,37.5725588,-122.352974
PAST SALE,February-13-2018,Single Family Residential,1555 Cypress Ave,BURLINGAME,CA,94010,4037000,5,4.5,BURLINGAME,2900,6000,2003,12,1392,,Sold,,,http://www.redfin.com/CA/Burlingame/1555-Cypress-Ave-94010/home/1675428,MLSListings,ML81689744,Y,Y,37.5730975,-122.3458459
PAST SALE,January-29-2018,Townhouse,906 Virgo Ln,FOSTER CITY,CA,94404,1460000,3,2.5,FOSTER CITY,1430,1890,1974,27,1021,360,Sold,,,http://www.redfin.com/CA/Foster-City/906-Virgo-Ln-94404/home/1051932,MLSListings,ML81687727,N,Y,37.5445503,-122.277117
PAST SALE,February-16-2018,Condo/Co-op,862 Balboa Ln,FOSTER CITY,CA,94404,1200000,2,2.0,FOSTER CITY,1275,,1975,9,941,719,Sold,,,http://www.redfin.com/CA/Foster-City/862-Balboa-Ln-94404/unit-15A/home/1519667,MLSListings,ML81690440,N,Y,37.5531382,-122.2705493
PAST SALE,January-30-2018,Multi-Family (2-4 Unit),798 Hudson St,REDWOOD CITY,CA,94061,1300000,2,,REDWOOD CITY,1218,7250,1948,26,1067,,Sold,,,http://www.redfin.com/CA/Redwood-City/798-Hudson-St-94061/home/1973919,MLSListings,ML81690615,N,Y,37.475971,-122.235051
PAST SALE,February-15-2018,Single Family Residential,1177 Adams St,REDWOOD CITY,CA,94061,1050000,2,1.0,REDWOOD CITY,1000,5000,1945,10,1050,,Sold,,,http://www.redfin.com/CA/Redwood-City/1177-Adams-St-94061/home/2029701,MLSListings,ML81691223,N,Y,37.4771059,-122.2251026
PAST SALE,February-1-2018,Multi-Family (2-4 Unit),112 Redwood Ave,REDWOOD CITY,CA,94061,1380000,4,,REDWOOD CITY,1130,9405,1920,24,1221,,Sold,,,http://www.redfin.com/CA/Redwood-City/112-Redwood-Ave-94061/home/812695,MLSListings,ML81690871,N,Y,37.4761493,-122.2237567
PAST SALE,February-14-2018,Townhouse,3 Knot Ln,Redwood Shores,CA,94065,1210000,2,2.5,Redwood Shores,1178,739720,1995,11,1027,290,Sold,,,http://www.redfin.com/CA/Redwood-City/3-Knot-Ln-94065/unit-109/home/993530,MLSListings,ML81688609,N,Y,37.5430176,-122.2389677
PAST SALE,January-31-2018,Single Family Residential,658 Oak Park Way,REDWOOD CITY,CA,94062,2850000,4,3.5,REDWOOD CITY,3279,9035,2001,25,869,,Sold,,,http://www.redfin.com/CA/Emerald-Hills/658-Oak-Park-Way-94062/home/1091167,MLSListings,ML81683631,N,Y,37.4623229,-122.2699746
PAST SALE,February-14-2018,Single Family Residential,501 Farallon Ave,PACIFICA,CA,94044,1535000,3,2.0,PACIFICA,2032,11250,1978,11,755,,Sold,,,http://www.redfin.com/CA/Pacifica/501-Farallon-Ave-94044/home/1970714,MLSListings,ML81689496,N,Y,37.6534955,-122.4835415
PAST SALE,January-26-2018,Single Family Residential,1224 Carlton Ave,MENLO PARK,CA,94025,1005000,2,1.0,MENLO PARK,800,6000,1950,30,1256,,Sold,,,http://www.redfin.com/CA/Menlo-Park/1224-Carlton-Ave-94025/home/1947657,MLSListings,ML81687322,N,Y,37.4739173,-122.1550685
PAST SALE,February-5-2018,Condo/Co-op,1400 El Camino Real #101,SOUTH SAN FRANCISCO,CA,94080,800000,2,2.0,SOUTH SAN FRANCISCO,1190,128362,1995,20,672,410,Sold,,,http://www.redfin.com/CA/South-San-Francisco/1400-El-Camino-Real-94080/unit-101/home/1186835,MLSListings,ML81689454,N,Y,37.6614158,-122.4422334
PAST SALE,February-21-2018,Single Family Residential,2619 Gellert Ct,SOUTH SAN FRANCISCO,CA,94080,1448800,4,3.0,SOUTH SAN FRANCISCO,1990,13020,1980,4,728,5,Sold,,,http://www.redfin.com/CA/South-San-Francisco/2619-Gellert-Ct-94080/home/1831735,MLSListings,ML81689148,N,Y,37.6371123,-122.4449362
PAST SALE,January-30-2018,Condo/Co-op,27 Montecito Ave,PACIFICA,CA,94044,1450000,4,3.5,PACIFICA,2094,,2017,26,692,169,Sold,,,http://www.redfin.com/CA/Pacifica/27-Montecito-Ave-94044/home/144107928,MLSListings,ML81689792,N,Y,37.632933,-122.493587
PAST SALE,February-23-2018,Single Family Residential,506 Hanover St,DALY CITY,CA,94014,1220000,3,2.0,DALY CITY,2060,2500,1976,2,592,,Sold,,,http://www.redfin.com/CA/Daly-City/506-Hanover-St-94014/home/1217776,MLSListings,ML81689263,N,Y,37.7079532,-122.4473099
PAST SALE,January-30-2018,Condo/Co-op,29 Montecito Ave,PACIFICA,CA,94044,1450000,4,3.5,PACIFICA,2094,,2017,26,692,169,Sold,,,http://www.redfin.com/CA/Pacifica/29-Montecito-Ave-94044/unit-1/home/619125,MLSListings,ML81689794,N,Y,37.6329233,-122.4935784
PAST SALE,February-23-2018,Single Family Residential,1027 Ocean View Ave,Daly City,CA,94014,1385000,3,2.5,Original Daly City,2781,,2017,2,498,,Sold,,,http://www.redfin.com/CA/Daly-City/1027-Ocean-View-Ave-94014/home/109581562,San Francisco MLS,464228,N,Y,37.70268,-122.459403
PAST SALE,February-9-2018,Condo/Co-op,1 Baldwin Ave #319,SAN MATEO,CA,94401,440000,1,1.0,SAN MATEO,1000,86325,1988,16,440,3843,Sold,,,http://www.redfin.com/CA/San-Mateo/1-Baldwin-Ave-94401/unit-319/home/1934072,MLSListings,ML81680718,N,Y,37.5660832,-122.3279327
